     2              OBSERVATION DATA                        RINEX VERSION / TYPE
DAT2RINW 3.10 001   국토지리정보원      10NOV08 23:32:14    PGM / RUN BY / DATE 
(주)범아엔지니어링  국토지리정보원                          OBSERVER / AGENCY   
0220319992          TRIMBLE 5700        Nav 1.30 Sig 1.30   REC # / TYPE / VERS 
012534132           TRM41249.00                             ANT # / TYPE        
----------------------------------------------------------- COMMENT             
Offset from BOTTOM OF ANTENNA to PHASE CENTER is  53.3 mm   COMMENT             
----------------------------------------------------------- COMMENT             
0371                                                        MARKER NAME         
0371                                                        MARKER NUMBER       
 -3071738.1078  4087120.9968  3800476.4499                  APPROX POSITION XYZ 
        1.1597        0.0000        0.0000                  ANTENNA: DELTA H/E/N
*** Above antenna height is from mark to BOTTOM OF ANTENNA. COMMENT             
----------------------------------------------------------- COMMENT             
Note: The above offsets are CORRECTED.                      COMMENT             
Raw Offsets: H=      1.2160 E=      0.0000 N=      0.0000   COMMENT             
----------------------------------------------------------- COMMENT             
     1     1     0                                          WAVELENGTH FACT L1/2
     5    L1    C1    L2    P2    D1                        # / TYPES OF OBSERV 
    15                                                      INTERVAL            
  2008    11    10     0    11   15.000000                  TIME OF FIRST OBS   
  2008    11    10     8    50   45.000000                  TIME OF LAST OBS    
    20                                                      # OF SATELLITES     
     2    95    95    95    95    95                        PRN / # OF OBS      
     3  1108  1111  1079  1079  1108                        PRN / # OF OBS      
     4   576   576   576   576   576                        PRN / # OF OBS      
     6   967   974   945   945   967                        PRN / # OF OBS      
     7  1125  1125  1125  1125  1125                        PRN / # OF OBS      
     8   957   957   957   957   957                        PRN / # OF OBS      
    11  1418  1421  1377  1377  1418                        PRN / # OF OBS      
    12     3     3     3     3     3                        PRN / # OF OBS      
    13   851   851   849   849   851                        PRN / # OF OBS      
    16   783   783   765   765   783                        PRN / # OF OBS      
    17   913   913   913   913   913                        PRN / # OF OBS      
    19  1482  1486  1467  1467  1482                        PRN / # OF OBS      
    20   974   974   974   974   974                        PRN / # OF OBS      
    21   395   402   303   305   395                        PRN / # OF OBS      
    23   847   847   846   846   847                        PRN / # OF OBS      
    25  1191  1191  1171  1171  1191                        PRN / # OF OBS      
    27  1073  1073  1073  1073  1073                        PRN / # OF OBS      
    28  1123  1123  1105  1105  1123                        PRN / # OF OBS      
    31   339   339   339   339   339                        PRN / # OF OBS      
    32   968   973   932   932   968                        PRN / # OF OBS      
                                                            END OF HEADER       
 08 11 10  0 12  0.0000000  0  8  3  6 13 16 19 21 23 31
   -119588.25007  21244860.30507    -91756.28948  21244857.95748      1395.84100
    -29396.88307  20851390.84407    -25845.51648  20851388.40248       342.84500
    -88173.59806  23194328.22706    -69251.40946  23194324.07846      1110.80600
    175318.34007  20663373.41407    123463.21048  20663369.07448     -2025.08500
   -163448.48405  24000483.88305   -121433.12147  24000480.09047      2369.47000
     20052.34404  24282286.31304      9608.78545  24282282.30145      -233.70100
     37703.53107  21659075.29707     23608.76848  21659068.69948      -442.64200
    282877.76607  21875468.16407    201860.69948  21875464.15248     -3277.30500
 08 11 10  0 12 15.0000000  0  8  3  6 13 16 19 21 23 31
   -140468.96507  21240886.85207   -108026.96648  21240884.70348      1392.04800
    -34466.34007  20850426.72707    -29795.72848  20850423.57448       337.96400
   -104768.50406  23191169.78906    -82182.47446  23191166.12546      1106.32700
    205707.99607  20669156.75007    147143.45048  20669151.64848     -2025.97700
   -199003.75804  23993718.27304   -149138.51447  23993713.92247      2370.35200
     23602.60204  24282961.89804     12375.24245  24282957.48045      -236.68400
     44449.41407  21660358.78107     28865.30848  21660352.86348      -449.72600
    332071.28107  21884829.16407    240193.30048  21884825.28948     -3279.56800
 08 11 10  0 12 30.0000000  0  8  3  6 13 16 19 21 23 31
   -161287.94507  21236925.34407   -124249.55848  21236922.82448      1387.93200
    -39458.22307  20849477.10907    -33685.51148  20849473.64548       332.79200
   -121291.29706  23188025.83606    -95057.39646  23188021.55946      1101.52000
    236115.29307  20674942.96907    170837.43948  20674938.03148     -2027.15300
   -234567.69105  23986950.57005   -176850.66747  23986946.21547      2370.92900
     27202.64503  24283646.87503     15180.45345  24283641.30945      -240.00300
     51306.04307  21661663.45307     34208.11848  21661657.63748      -457.10900
    381303.21907  21894198.06307    278555.82448  21894193.88348     -3282.12900
 08 11 10  0 12 45.0000000  0  8  3  6 13 16 19 21 23 31
   -182039.44907  21232976.60207   -140419.55748  21232973.82848      1383.43400
    -44366.35207  20848542.83607    -37510.01448  20848540.31348       327.20900
   -137735.15606  23184896.57006   -107870.76346  23184892.53946      1096.25700
    266546.09007  20680733.57007    194549.75348  20680728.68448     -2028.72000
   -270134.14504  23980182.75804   -204564.74047  23980178.39547      2371.09700
     30858.00804  24284342.05504     18028.84445  24284336.52745      -243.69100
     58279.62107  21662990.40607     39642.07348  21662984.78548      -464.90500
    430579.35507  21903574.78907    316952.82348  21903570.80548     -3285.07600
 08 11 10  0 13  0.0000000  0  8  3  6 13 16 19 21 23 31
   -202722.12507  21229040.88307   -156535.92448  21229037.75448      1378.84500
    -49189.46107  20847625.03107    -41268.30348  20847622.21148       321.54100
   -154099.74606  23181782.71906   -120622.41647  23181778.64147      1090.97300
    297001.27007  20686529.23407    218281.04848  20686524.87948     -2030.34500
   -305701.46505  23973414.89805   -232279.54247  23973409.49647      2371.15500
     34570.24603  24285048.46903     20921.48445  24285044.32845      -247.48300
     65371.34407  21664339.63307     45168.07148  21664333.63348      -472.78200
    479900.83207  21912960.27307    355385.12148  21912956.89848     -3288.09800
 08 11 10  0 13 15.0000000  0  8  3  6 13 16 19 21 23 31
   -223336.93407  21225118.26607   -172599.39948  21225114.60248      1374.32100
    -53928.98407  20846722.68807    -44961.42248  20846720.48448       315.96800
   -170385.94506  23178683.06306   -133312.94146  23178679.32846      1085.74700
    327479.40207  20692329.05507    242030.25148  20692324.32448     -2031.87600
   -341270.98405  23966646.19505   -259996.03847  23966640.60247      2371.30100
     38338.25803  24285765.47703     23857.57045  24285762.86745      -251.20100
     72579.78107  21665711.73407     50785.04848  21665705.56348      -480.56300
    529266.21507  21922354.07807    393851.66148  21922350.43848     -3291.02600
 08 11 10  0 13 30.0000000  0  8  3  6 13 16 19 21 23 31
   -243881.42607  21221208.54707   -188608.09148  21221204.49648      1369.63300
    -58582.66807  20845837.43007    -48587.67448  20845835.12148       310.24600
   -186591.38306  23175599.56306   -145940.56046  23175595.62146      1080.36300
    357982.39507  20698133.86707    265798.79648  20698128.93448     -2033.53300
   -376840.42605  23959876.93005   -287712.45647  23959872.33247      2371.29600
     42164.24204  24286494.07004     26838.84645  24286491.40645      -255.06600
     79907.04707  21667105.78107     56494.57548  21667100.06648      -488.48400
    578677.60207  21931757.30507    432354.00448  21931752.58648     -3294.09200
 08 11 10  0 13 45.0000000  0  8  3  6 13 16 19 21 23 31
   -264355.32007  21217312.77307   -204561.77948  21217309.22748      1364.92600
    -63150.04707  20844968.34407    -52146.65248  20844965.55548       304.49200
   -202715.19106  23172531.98406   -158504.59646  23172527.56646      1074.92100
    388510.31607  20703942.78907    289586.79248  20703938.33648     -2035.19500
   -412409.05506  23953109.17206   -315428.24547  23953104.21947      2371.24200
     46048.78104  24287234.35904     29865.80145  24287230.05945      -258.96900
     87353.51207  21668522.76607     62297.00448  21668516.77748      -496.43100
    628135.12507  21941168.09407    470892.32648  21941164.37148     -3297.16800
 08 11 10  0 14  0.0000000  0  8  3  6 13 16 19 21 23 31
   -284755.00007  21213430.71907   -220457.64148  21213427.69548      1359.97900
    -67627.86307  20844116.18807    -55635.85948  20844113.39848       298.52100
   -218754.07406  23169479.04706   -171002.39246  23169475.59046      1069.25900
    419066.37107  20709757.50007    313396.69948  20709752.79348     -2037.07000
   -447973.38705  23946340.40605   -343140.68247  23946335.99247      2370.95500
     49995.25804  24287984.53104     32940.98845  24287980.53945      -263.09800
     94922.71107  21669963.17207     68195.07448  21669957.42248      -504.61300
    677641.98007  21950589.24207    509469.07248  21950585.18848     -3300.45700
 08 11 10  0 14 15.0000000  0  8  3  6 13 16 19 21 23 31
   -305079.30107  21209562.96107   -236294.74548  21209559.94948      1354.95300
    -72015.10507  20843281.11707    -59054.48748  20843278.72348       292.48300
   -234706.48406  23166443.75806   -183432.85146  23166440.10546      1063.49400
    449651.32007  20715577.77307    337229.12848  20715572.73048     -2038.99700
   -483532.30505  23939574.52305   -370848.91147  23939569.79347      2370.59500
     54004.93804  24288748.35904     36065.43845  24288743.95745      -267.31200
    102615.73407  21671426.75007     74189.64448  21671421.58648      -512.86800
    727199.13307  21960019.85207    548085.02648  21960015.87548     -3303.81000
 08 11 10  0 14 30.0000000  0  8  3  6 13 16 19 21 23 31
   -325328.55907  21205709.06307   -252073.39148  21205706.81348      1349.95100
    -76311.98807  20842463.96107    -62402.70848  20842460.83648       286.45900
   -250572.83606  23163424.25006   -195796.21447  23163420.36747      1057.75700
    480264.58207  20721403.21107    361083.60448  20721398.26648     -2040.88400
   -519085.78105  23932808.53105   -398552.92347  23932804.37147      2370.23200
     58077.80503  24289521.80503     39239.09445  24289519.20345      -271.52400
    110432.16407  21672914.21107     80280.36748  21672909.18848      -521.09500
    776806.22707  21969459.97707    586739.87248  21969455.67248     -3307.14000
 08 11 10  0 14 45.0000000  0  8  3  6 13 16 19 21 23 31
   -345501.03107  21201870.67207   -267792.19748  21201868.29348      1344.83200
    -80516.88307  20841663.38307    -65679.23148  20841660.56648       280.32600
   -266351.28906  23160421.05506   -208091.10646  23160417.54346      1051.89700
    510907.69907  20727234.09407    384961.35348  20727229.44548     -2042.87400
   -554631.91005  23926044.25805   -426251.18147  23926040.12147      2369.74200
     62215.53904  24290309.62504     42463.37545  24290306.11345      -275.84900
    118373.60207  21674425.71107     86468.49548  21674420.00848      -529.42900
    826464.44107  21978909.65607    625434.57448  21978905.03148     -3310.54800
 08 11 10  0 15  0.0000000  0  8  3  6 13 16 19 21 23 31
   -365595.28507  21198046.57007   -283450.06348  21198044.34048      1339.61700
    -84628.66407  20840881.23407    -68883.23548  20840878.00848       274.11900
   -282040.27706  23157436.43806   -220316.30947  23157432.18447      1045.93300
    541581.52007  20733071.19507    408863.02248  20733066.76648     -2044.92100
   -590169.41405  23919281.71105   -453942.72647  23919278.04747      2369.16700
     66419.19104  24291110.08604     45738.97345  24291105.25845      -280.24300
    126441.28107  21675960.63307     92754.98948  21675955.15248      -537.84500
    876175.18007  21988368.92207    664170.19548  21988364.10248     -3314.04900
 08 11 10  0 15 15.0000000  0  8  3  6 13 16 19 21 23 31
   -385612.52707  21194237.59407   -299047.92048  21194235.02348      1334.48300
    -88648.11707  20840116.16407    -72015.26648  20840113.21548       267.96400
   -297640.84006  23154467.93806   -232472.56647  23154463.51247      1040.03700
    572284.70707  20738913.19507    432787.58348  20738908.79348     -2046.87900
   -625699.29305  23912521.02305   -481628.31447  23912516.40647      2368.65900
     70687.68803  24291921.50803     49065.00845  24291917.03545      -284.56600
    134634.08207  21677519.68807     99138.98248  21677513.95348      -546.18700
    925937.10207  21997838.35207    702945.71748  21997834.19948     -3317.46100
 08 11 10  0 15 30.0000000  0  8  3  6 13 16 19 21 23 31
   -405551.03107  21190443.50807   -314584.40348  21190441.28148      1329.23400
    -92574.30107  20839368.99207    -75074.63748  20839365.69548       261.74600
   -313151.39506  23151515.75006   -244558.71646  23151511.20346      1034.03700
    603018.28907  20744762.16407    456735.82248  20744757.73048     -2048.90500
   -661220.04705  23905761.43005   -509306.84947  23905757.19947      2368.05000
     75022.73002  24292746.21102     52442.98445  24292742.58245      -289.00300
    142953.16407  21679103.02307    105621.36848  21679097.53148      -554.60500
    975751.39107  22007317.93807    741762.01448  22007313.71948     -3320.95300
 08 11 10  0 15 45.0000000  0  8  3  6 13 16 19 21 23 31
   -425408.56307  21186664.73407   -330057.78548  21186662.10548      1323.83500
    -96404.84407  20838639.99207    -78059.46548  20838637.19948       255.37000
   -328569.54306  23148581.82006   -256572.86946  23148577.21146      1027.87700
    633784.35207  20750616.66407    480709.36348  20750612.51648     -2051.07100
   -696729.17205  23899004.00805   -536976.22847  23899000.41847      2367.27500
         0.00000  24293582.81301         0.00000  24293580.71940         0.00000
    151400.96507  21680710.73407    112204.05648  21680704.46148      -563.18700
   1025620.12507  22016807.39807    780620.76748  22016804.06348     -3324.58200
 08 11 10  0 16  0.0000000  0  9  3  6 13 16 19 21 23 25 31
   -445185.70307  21182901.11707   -345468.54148  21182898.30548      1318.47600
   -100140.38707  20837929.20307    -80970.28648  20837926.71948       249.03600
   -343895.71906  23145665.49206   -268515.35146  23145661.79346      1021.74500
    664581.91807  20756477.42207    504707.46448  20756473.14848     -2053.17100
   -732227.06303  23892249.03903   -564636.89147  23892245.14147      2366.52600
     83898.90602  24294435.32002     59359.50045  24294432.07445      -300.31300
    159976.76207  21682342.50007    118886.48048  21682336.73848      -571.72000
    -53281.88711  24755736.03901         0.00000         0.00000      1720.79700
   1075542.44107  22026307.50007    819521.25148  22026304.08648     -3328.15400
 08 11 10  0 16 15.0010000  0  9  3  6 13 16 19 21 23 25 31
   -464883.37907  21179153.13007   -360817.38248  21179149.61048      1313.17800
   -103780.83207  20837236.63007    -83806.99248  20837233.91548       242.69600
   -359130.46506  23142766.97406   -280386.56546  23142762.79846      1015.65000
    695413.19107  20762344.24707    528731.82948  20762339.88848     -2055.41800
   -767715.74605  23885495.99705   -592290.40447  23885492.46247      2365.91200
     88440.21103  24295300.12203     62898.19145  24295296.42345      -302.75400
    168681.25007  21683999.01307    125669.19348  21683992.64948      -580.29900
    -79104.50801  24750821.92701         0.00000         0.00000      1721.50800
   1125521.89807  22035818.24707    858466.28348  22035814.51748     -3331.96400
 08 11 10  0 16 30.0010000  0  9  3  6 13 16 19 21 23 25 31
   -484498.28507  21175420.47407   -376101.71648  21175417.11048      1307.66000
   -107325.34007  20836562.23107    -86568.95248  20836559.48948       236.30100
   -374271.18406  23139885.41906   -292184.55746  23139881.45846      1009.38100
    726274.11307  20768217.08307    552779.28948  20768212.48148     -2057.39500
   -803189.98005  23878745.12205   -619932.62946  23878741.48946      2364.94900
     93050.32403  24296177.66103     66490.49245  24296174.36845      -307.34100
    177513.76207  21685679.48107    132551.66448  21685673.93548      -588.83400
   -104951.65601  24745903.31701         0.00000         0.00000      1723.14300
   1175552.10207  22045338.82507    897450.84848  22045334.54848     -3335.34700
 08 11 10  0 16 45.0010000  0  9  3  6 13 16 19 21 23 25 31
   -504033.66407  21171702.96607   -391324.09248  21171699.63848      1302.35900
   -110776.31607  20835905.36407    -89258.01848  20835902.38448       230.06500
   -389320.77706  23137022.00506   -303911.49946  23137018.34946      1003.30600
    757164.68007  20774095.56007    576849.86548  20774090.70848     -2059.37100
   -838653.80505  23871996.66905   -647566.74646  23871992.17346      2364.25500
     97727.81604  24297067.92704     70135.32245  24297064.04845      -311.83300
    186472.97307  21687384.42707    139532.86548  21687378.75548      -597.28100
   -130826.91802  24740980.67702         0.00000         0.00000      1725.01700
   1225634.04707  22054868.95807    936475.73948  22054864.34148     -3338.79600
 08 11 10  0 17  0.0010000  0  9  3  6 13 16 19 21 23 25 31
   -523487.28107  21168001.06007   -406482.76048  21167997.95048      1296.90800
   -114131.49607  20835267.14607    -91872.43048  20835264.34948       223.67900
   -404276.89506  23134175.53606   -315565.59147  23134172.01747       997.07400
    788086.77307  20779979.59907    600945.00748  20779975.16548     -2061.47300
   -874104.84005  23865250.77805   -675190.93547  23865247.00147      2363.40200
    102474.93404  24297970.90304     73834.34845  24297966.44645      -316.47400
    195560.85207  21689113.92707    146614.31548  21689108.32548      -605.85900
   -156728.01602  24736051.37202         0.00000         0.00000      1726.74000
   1275769.72307  22064409.19207    975542.48048  22064404.57948     -3342.37800
 08 11 10  0 17 15.0010000  0  9  3  6 13 16 19 21 23 25 31
   -542858.64107  21164314.99707   -421577.32248  21164311.85348      1291.42400
   -117390.41807  20834646.78607    -94411.83548  20834643.59948       217.26100
   -419138.85906  23131347.33306   -327146.34647  23131343.81347       990.79800
    819040.44507  20785870.00507    625064.75648  20785865.68848     -2063.57800
   -909542.57405  23858506.93505   -702804.71746  23858503.06746      2362.51600
    107292.09804  24298887.79404     77587.94545  24298882.52845      -321.14400
    204777.72707  21690867.73107    153796.29448  21690862.50148      -614.45800
   -182654.66002  24731118.21602         0.00000         0.00000      1728.44300
   1325959.58207  22073960.11407   1014651.45948  22073955.35348     -3345.99100
 08 11 10  0 17 30.0010000  0  9  3  6 13 16 19 21 23 25 31
   -562146.93007  21160644.93507   -436607.16848  21160641.82548      1285.88600
   -120552.51207  20834045.05207    -96875.80148  20834041.93148       210.80600
   -433905.89506  23128537.04406   -338653.13247  23128533.37247       984.46900
    850026.18007  20791766.39607    649209.47548  20791761.95448     -2065.71600
   -944966.23405  23851766.31005   -730407.56946  23851761.84146      2361.57700
    112180.22704  24299818.34104     81396.87145  24299813.50145      -325.87500
    214124.37907  21692646.27807    161079.39248  21692640.72848      -623.11000
   -208605.98003  24726179.30203         0.00000         0.00000      1730.08800
   1376204.19907  22083521.61407   1053803.07548  22083517.34948     -3349.64100
 08 11 10  0 17 45.0010000  0  9  3  6 13 16 19 21 23 25 31
   -581350.72707  21156990.38007   -451571.15748  21156987.47848      1280.25300
   -123616.25007  20833461.82507    -99263.11548  20833458.88848       204.24900
   -448576.35506  23125745.95006   -350084.64647  23125741.62647       978.03100
    881045.42607  20797668.89607    673380.33448  20797664.60348     -2067.95000
   -980374.26205  23845027.84905   -757998.21646  23845023.83746      2360.53500
    117140.96503  24300761.21603     85262.41045  24300757.67345      -330.71600
    223602.19107  21694450.07507    168464.69348  21694444.15748      -631.85400
   -234580.58203  24721236.98103         0.00000         0.00000      1731.64000
   1426504.75807  22093093.16107   1092998.30048  22093089.51748     -3353.37100
 08 11 10  0 18  0.0010000  0  9  3  6 13 16 19 21 23 25 31
   -600470.30907  21153351.77107   -466469.55448  21153348.97848      1274.63900
   -126581.93407  20832897.50507   -101574.03848  20832894.61448       197.71200
   -463150.32806  23122972.35606   -361440.99947  23122968.62247       971.59800
    912097.28907  20803577.98907    697576.56448  20803573.22048     -2070.12400
  -1015766.63705  23838293.32505   -785576.67846  23838288.36046      2359.49200
    122173.78503  24301718.47403     89184.10545  24301716.01345      -335.52100
    233210.79707  21696278.44207    175951.90648  21696272.58748      -640.57400
   -260578.62504  24716289.57504         0.00000         0.00000      1733.20300
   1476860.86707  22102675.70007   1132236.80348  22102671.45048     -3357.07400
 08 11 10  0 18 15.0010000  0  9  3  6 13 16 19 21 23 25 31
   -619503.23407  21149729.79407   -481300.38948  21149727.33748      1268.86200
   -129447.75407  20832352.17707   -103807.14348  20832349.03648       191.05500
   -477625.65606  23120218.11406   -372720.46946  23120213.62646       965.02200
    943183.59807  20809493.63807    721799.66548  20809489.06748     -2072.42100
  -1051141.17605  23831561.31005   -813141.25746  23831556.27846      2358.30300
    127280.93403  24302691.99703     93163.72345  24302687.98545      -340.47700
    242952.15207  21698132.66107    183542.56348  21698126.62648      -649.42400
   -286598.11304  24711338.70004         0.00000         0.00000      1734.63300
   1527274.35207  22112269.07507   1171520.02748  22112265.21648     -3360.89900
 08 11 10  0 18 30.0010000  0  9  3  6 13 16 19 21 23 25 31
   -638447.93807  21146124.31007   -496062.49548  21146122.08748      1262.98000
   -132211.96507  20831826.22407   -105961.08548  20831823.14648       184.28100
   -492000.69906  23117482.52806   -383921.80046  23117478.43846       958.33600
    974305.84407  20815416.06007    746050.76548  20815411.37648     -2074.81600
  -1086496.02705  23824833.79405   -840690.53646  23824829.12246      2356.99000
    132464.26204  24303677.71604     97202.62145  24303673.54045      -345.55500
    252827.94107  21700011.74707    191237.97748  21700005.71648      -658.38600
   -312637.18803  24706382.82503         0.00000         0.00000      1735.93800
   1577746.66807  22121873.93507   1210849.09848  22121869.71248     -3364.82100
 08 11 10  0 18 45.0010000  0  9  3  6 13 16 19 21 23 25 31
   -657304.67207  21142536.36407   -510756.04848  21142534.03248      1257.11600
   -134875.00807  20831319.59107   -108036.17948  20831316.83348       177.53600
   -506275.41406  23114765.88806   -395044.96646  23114762.04046       951.64800
   1005463.36707  20821344.96607    770329.35248  20821340.34548     -2077.16800
  -1121831.48405  23818109.74705   -868224.64647  23818104.36847      2355.69700
    137723.28504  24304678.57504    101300.59445  24304674.64945      -350.60200
    262837.67607  21701916.42707    199037.76348  21701910.70448      -667.31600
   -338696.42204  24701423.70004         0.00000         0.00000      1737.28200
   1628277.20707  22131489.59107   1250223.53248  22131485.29048     -3368.70300
 08 11 10  0 19  0.0010000  0  9  3  6 13 16 19 21 23 25 31
   -676073.50407  21138964.77107   -525381.13248  21138962.02848      1251.25500
   -137437.13707  20830832.29407   -110032.66048  20830829.34548       170.80900
   -520449.94106  23112068.63806   -406090.03847  23112064.90347       944.96800
   1036655.68807  20827280.63807    794635.05548  20827276.03248     -2079.48800
  -1157147.66805  23811389.22405   -895743.67347  23811383.52447      2354.41200
    143057.94504  24305693.53604    105457.50245  24305689.51345      -355.64400
    272981.09407  21703847.02807    206941.70448  21703841.42748      -676.22800
   -364775.81604  24696461.19204         0.00000         0.00000      1738.62600
   1678865.58607  22141115.98907   1289643.03648  22141112.54048     -3372.55900
 08 11 10  0 19 15.0010000  0  9  3  6 13 16 19 21 23 25 31
   -694753.40607  21135409.99707   -539936.89948  21135407.31748      1245.32700
   -139897.20707  20830363.66907   -111949.58348  20830361.31048       164.00500
   -534522.98806  23109390.57506   -417056.02847  23109387.60647       938.20300
   1067883.66007  20833223.20007    818968.53648  20833218.45048     -2081.86500
  -1192443.21905  23804672.52105   -923246.74447  23804667.91147      2353.03700
    148469.35204  24306723.48904    109674.16345  24306719.03645      -360.76000
    283259.09807  21705802.48907    214950.53348  21705797.18548      -685.20000
   -390874.35903  24691493.48103         0.00000         0.00000      1739.90300
   1729512.81607  22150753.88007   1329108.39748  22150750.60348     -3376.48200
 08 11 10  0 19 30.0010000  0  9  3  6 13 16 19 21 23 25 31
   -713342.41807  21131872.70007   -554421.85148  21131869.73148      1239.26700
   -142253.60907  20829915.28607   -113785.74648  20829912.60648       157.09300
   -548492.73406  23106732.38806   -427941.56046  23106728.94246       931.31600
   1099148.80507  20839172.76307    843330.97648  20839168.42348     -2084.34300
  -1227716.32806  23797960.33306   -950732.25347  23797956.59547      2351.54100
    153959.46904  24307768.53604    113952.25745  24307763.25545      -366.00800
    293673.39107  21707784.26307    223065.57648  21707779.01748      -694.28600
   -416990.16804  24686523.96604         0.00000         0.00000      1741.05400
   1780220.44507  22160403.39607   1368620.83748  22160399.57148     -3380.50900
 08 11 10  0 19 45.0010000  0  9  3  6 13 16 19 21 23 25 31
   -731839.91407  21128352.77107   -568835.48648  21128349.70448      1233.16600
   -144505.75807  20829486.92707   -115540.67048  20829483.73148       150.14300
   -562358.46106  23104093.60606   -438746.00646  23104090.66946       924.38200
   1130451.36307  20845129.23907    867722.58948  20845124.75548     -2086.83700
  -1262966.21106  23791252.52806   -978199.68747  23791248.02447      2349.99200
    159528.93405  24308827.90305    118292.12546  24308823.06746      -371.29800
    304224.71907  21709792.00507    231287.38248  21709787.13848      -703.42200
   -443122.64804  24681550.90304         0.00000         0.00000      1742.16500
   1830988.85207  22170064.12207   1408180.61248  22170061.07148     -3384.56000
 08 11 10  0 20  0.0010000  0  9  3  6 13 16 19 21 23 25 31
   -750246.27007  21124850.44207   -583178.11048  21124847.04848      1227.09000
   -146654.02007  20829078.38007   -117214.63048  20829074.85648       143.21700
   -576120.17206  23101474.53606   -449469.45247  23101471.30247       917.44700
   1161790.87907  20851093.05207    892142.97848  20851088.98148     -2089.30100
  -1298192.82806  23784549.06006  -1005648.98947  23784543.93847      2348.44100
    165177.51605  24309903.42705    122693.56645  24309897.47445      -376.57200
    314912.67607  21711825.84107    239615.65048  21711820.71248      -712.53000
   -469272.12903  24676574.20803         0.00000         0.00000      1743.29900
   1881817.60907  22179736.71607   1447787.42748  22179732.86048     -3388.58400
 08 11 10  0 20 15.0010000  0  9  3  6 13 16 19 21 23 25 31
   -768561.76207  21121365.21607   -597449.90948  21121361.67748      1221.03300
   -148698.78907  20828688.81007   -118807.95848  20828685.68848       136.31800
   -589778.27306  23098875.56006   -460112.10746  23098872.00146       910.54000
   1193166.72307  20857063.76307    916591.69748  20857059.56348     -2091.72300
  -1333396.64806  23777850.58306  -1033080.52047  23777845.06047      2346.92100
    170904.85205  24310993.16905    127156.40645  24310986.82945      -381.82200
    325736.57007  21713885.68507    248049.84448  21713880.51348      -721.59300
   -495438.87904  24671595.73104         0.00000         0.00000      1744.45000
   1932706.08207  22189420.10607   1487440.77348  22189416.74348     -3392.56500
 08 11 10  0 20 30.0010000  0  9  3  6 13 16 19 21 23 25 31
   -786785.75407  21117897.25507   -611650.43148  21117893.88048      1214.93300
   -150639.81607  20828319.71607   -120320.44448  20828316.47048       129.40200
   -603332.44506  23096296.77806   -470673.77846  23096292.39946       903.61100
   1224578.92607  20863041.33307    941068.73248  20863036.77848     -2094.14700
  -1368577.09006  23771155.21606  -1060493.85147  23771150.64947      2345.36300
    176711.32005  24312097.63005    131680.89845  24312091.88045      -387.09800
    336696.83207  21715971.19207    256590.31248  21715965.80648      -730.68400
   -521622.54704  24666613.51304         0.00000         0.00000      1745.57800
   1983654.41407  22199115.56707   1527140.75048  22199111.11448     -3396.55500
 08 11 10  0 20 45.0010000  0  9  3  6 13 16 19 21 23 25 31
   -804918.29307  21114446.48907   -625779.67648  21114443.64948      1208.83600
   -152477.15207  20827970.02807   -121752.12548  20827967.09948       122.48900
   -616782.23806  23093736.96606   -481154.16046  23093732.92746       896.65300
   1256027.25007  20869025.77107    965573.92448  20869020.83348     -2096.55500
  -1403734.11706  23764465.03606  -1087888.93246  23764460.54046      2343.80200
    182597.07004  24313217.48104    136267.25445  24313211.78645      -392.38300
    347793.28507  21718083.02807    265236.88648  21718077.38848      -739.76400
   -547823.13304  24661628.41104         0.00000         0.00000      1746.70600
   2034662.43007  22208822.04407   1566887.25148  22208818.23948     -3400.53400
 08 11 10  0 21  0.0010000  0  9  3  6 13 16 19 21 23 25 31
   -822956.58207  21111013.94207   -639835.48148  21111011.09148      1202.55300
   -154208.18407  20827640.63007   -123100.98748  20827637.74348       115.40200
   -630124.69506  23091197.62206   -491550.89146  23091193.73146       889.49700
   1287514.08607  20875017.66907    990109.12148  20875012.75548     -2099.12200
  -1438864.85206  23757780.09106  -1115263.51447  23757775.32547      2342.04900
    188564.73404  24314353.76304    140917.36345  24314347.90345      -397.84400
    359028.62907  21720220.74707    273991.69548  21720215.29848      -749.02300
   -574037.84005  24656639.28605   -448374.54355  24656635.36445      1747.64700
   2085732.67607  22218540.71607   1606682.22648  22218536.74748     -3404.68300
 08 11 10  0 21 15.0010000  0  9  3  6 13 16 19 21 23 25 31
   -840901.89807  21107599.26307   -653818.85348  21107596.45448      1196.35400
   -155834.06307  20827331.46607   -124367.90548  20827328.13048       108.39200
   -643361.03106  23088679.32506   -501864.90446  23088675.29046       882.42200
   1319037.97307  20881016.16907   1014673.20448  20881012.00148     -2101.59200
  -1473970.24606  23751099.57506  -1142618.33647  23751095.15747      2340.36000
    194613.31604  24315504.61404    145630.53945  24315498.87645      -403.23900
    370401.57807  21722385.02807    282853.73248  21722379.49348      -758.19700
   -600267.91405  24651648.75505   -468813.52745  24651644.01345      1748.67200
   2136863.63307  22228270.63007   1646524.51548  22228266.48948     -3408.73000
 08 11 10  0 21 30.0010000  0  9  3  6 13 16 19 21 23 25 31
   -858755.17207  21104201.48907   -667730.49348  21104198.99348      1190.21800
   -157355.84007  20827041.66107   -125553.71148  20827038.59948       101.45200
   -656492.18805  23086179.69205   -512096.96646  23086176.37246       875.41000
   1350597.61707  20887021.98907   1039265.10448  20887017.47448     -2103.97600
  -1509051.05906  23744423.77106  -1169954.06447  23744419.12647      2338.72100
         0.00000  24316669.40301         0.00000  24316665.36440         0.00000
    381911.09406  21724575.74706    291822.16548  21724569.12648      -767.30100
   -626514.17205  24646653.63005   -489265.19945  24646650.10345      1749.75100
   2188054.30907  22238011.83307   1686413.34148  22238007.35648     -3412.71200
 08 11 10  0 21 45.0010000  0  9  3  6 13 16 19 21 23 25 31
   -876512.55107  21100822.55207   -681567.39448  21100820.46648      1183.82500
   -158769.94507  20826772.48107   -126655.59548  20826769.52448        94.27400
   -669514.39805  23083702.23105   -522244.12446  23083698.72046       868.14700
   1382196.59007  20893034.66107   1063887.68548  20893030.81748     -2106.59800
  -1544103.62506  23737753.88806  -1197267.70947  23737749.19647      2336.83800
    206954.31613  24317851.03603    155247.03555  24317847.27845      -416.46900
    393560.72707  21726792.24707    300899.80048  21726785.92748      -776.64200
   -652772.99605  24641656.27105   -509726.52345  24641653.37245      1750.58800
   2239308.23007  22247764.88807   1726351.45848  22247760.88848     -3416.92800
 08 11 10  0 22  0.0010000  0  9  3  6 13 16 19 21 23 25 31
   -894173.76607  21097461.78607   -695329.38048  21097459.42748      1177.41400
   -160076.33607  20826523.81707   -127673.57248  20826521.21248        87.09300
   -682427.25006  23081244.68506   -532306.11846  23081241.37246       860.85700
   1413834.72307  20899055.27107   1088540.76148  20899051.16148     -2109.20900
  -1579127.62906  23731089.14606  -1224559.13247  23731084.40747      2334.93400
    213250.52704  24319050.32504    160153.10545  24319046.82545      -419.74700
    405350.56607  21729035.75507    310086.67948  21729029.75548      -785.98900
   -679044.22704  24636657.59104   -530197.65245  24636654.21645      1751.41500
   2290625.32807  22257529.73907   1766338.78448  22257526.32948     -3421.14000
 08 11 10  0 22 15.0010000  0  9  3  6 13 16 19 21 23 25 31
   -911738.30107  21094119.41107   -709016.01248  21094116.71648      1170.96900
   -161274.64507  20826295.50507   -128607.31648  20826292.93148        79.88700
   -695230.25006  23078808.49706   -542282.46546  23078805.02146       853.53300
   1445512.02707  20905083.22407   1113224.38848  20905079.09148     -2111.82000
  -1614122.52006  23724429.46606  -1251827.87947  23724425.14247      2332.99300
    219631.11704  24320264.56704    165124.94946  24320261.12646      -425.37300
    417280.78107  21731305.87207    319382.93348  21731299.60648      -795.34800
   -705327.38305  24631657.09105   -550678.04745  24631652.14245      1752.21000
   2342005.74607  22267307.05207   1806375.46348  22267304.27848     -3425.36100
 08 11 10  0 22 30.0010000  0  9  3  6 13 16 19 21 23 25 31
   -929205.99207  21090795.20807   -722627.19848  21090792.73948      1164.51300
   -162364.81307  20826088.20007   -129456.80348  20826085.67748        72.67800
   -707923.01605  23076393.34105   -552172.95847  23076389.49347       846.18400
   1477228.62107  20911118.92707   1137938.61348  20911114.84148     -2114.44000
  -1649088.00006  23717775.69206  -1279073.67847  23717771.97047      2331.03200
    226096.28905  24321494.98905    170162.75746  24321491.79446      -431.01100
    429351.58607  21733603.27107    328788.75148  21733597.08348      -804.72000
   -731622.25805  24626651.25505   -571167.54745  24626648.13045      1752.99200
   2393449.39807  22277096.66107   1846461.41648  22277093.38048     -3429.57700
 08 11 10  0 22 45.0010000  0  9  3  6 13 16 19 21 23 25 31
   -946577.59407  21087489.63807   -736163.50948  21087486.86048      1158.10700
   -163347.44107  20825901.53607   -130222.48548  20825898.52148        65.50900
   -720506.05106  23073998.24706   -561977.91046  23073995.60346       838.86900
   1508983.43407  20917161.70007   1162682.62448  20917157.17748     -2116.98800
  -1684024.53906  23711127.50506  -1306296.96447  23711122.77847      2329.10300
    232645.45304  24322741.51304    175266.02246  24322738.62246      -436.61100
    441562.29307  21735926.58307    338303.57448  21735920.82148      -814.04700
   -757929.42605  24621645.98105   -591666.63345  24621642.55245      1753.81100
   2444955.46907  22286897.86407   1886596.00848  22286894.88448     -3433.73800
 08 11 10  0 23  0.0010000  0  9  3  6 13 16 19 21 23 25 31
   -963849.71507  21084202.71607   -749622.29348  21084199.72848      1151.47500
   -164219.69907  20825735.34107   -130902.15648  20825732.61448        58.15100
   -732976.39806  23071625.60606   -571695.08046  23071621.83746       831.35700
   1540779.30507  20923212.30207   1187458.61848  20923208.14648     -2119.72500
  -1718929.01206  23704485.08306  -1333495.24547  23704480.68147      2326.96500
    239281.69505  24324004.95005    180437.13046  24324001.86046      -442.41600
    453915.79707  21738277.41907    347929.67948  21738271.79048      -823.56700
   -784245.91805  24616638.57505   -612173.00045  24616635.12645      1754.43300
   2496526.89107  22296711.87207   1926781.52648  22296707.95048     -3438.09500
 08 11 10  0 23 15.0010000  0  9  3  6 13 16 19 21 23 25 31
   -981022.41407  21080934.78607   -763003.62648  21080932.36848      1144.84700
   -164981.45307  20825590.66907   -131495.74248  20825587.41548        50.78400
   -745333.93006  23069274.17706   -581324.31446  23069270.27146       823.83500
   1572616.17607  20929270.74707   1212266.55748  20929266.65748     -2122.45800
  -1753800.98006  23697848.74706  -1360668.19747  23697844.60647      2324.79800
    246005.29705  24325283.53605    185676.20646  24325280.43546      -448.24000
    466411.99607  21740655.23907    357666.97548  21740649.53248      -833.08000
   -810571.51604  24611628.44204   -632686.41845  24611625.65345      1755.04000
   2548163.53107  22306538.01307   1967017.84948  22306534.19648     -3442.44300
 08 11 10  0 23 30.0010000  0  9  3  6 13 16 19 21 23 25 31
   -998096.59007  21077685.91107   -776308.18048  21077683.39948      1138.27800
   -165633.51207  20825466.13807   -132003.82348  20825463.32148        43.47100
   -757579.08606  23066944.08306   -590866.00346  23066940.27146       816.34400
   1604492.86707  20935336.59107   1237105.54748  20935331.99348     -2125.11300
  -1788641.23006  23691219.65306  -1387816.42247  23691214.96647      2322.68300
    252815.38305  24326579.95805    190982.83946  24326574.90746      -454.00600
    479049.95307  21743060.29407    367514.71348  21743054.54048      -842.53000
   -836907.00804  24606617.27804   -653207.54345  24606613.66945      1755.69900
   2599864.27707  22316376.54407   2007304.12648  22316372.16948     -3446.71600
 08 11 10  0 23 45.0010000  0  9  3  6 13 16 19 21 23 25 31
  -1015068.91407  21074456.12207   -789533.36648  21074453.43148      1131.48800
   -166173.08607  20825363.71607   -132424.26948  20825360.62648        35.97200
   -769708.64106  23064636.02806   -600317.59346  23064632.40346       808.63700
   1636412.02307  20941410.84107   1261977.61248  20941406.11048     -2127.94400
  -1823446.64106  23684596.15306  -1414937.53047  23684592.26747      2320.36100
    259715.08604  24327892.17704    196359.17546  24327888.14646      -459.98000
    491832.69907  21745493.30207    377475.29948  21745487.15348      -852.18300
   -863249.23404  24601603.63804   -673733.98845  24601600.65345      1756.14800
   2651632.00007  22326227.54407   2047642.58348  22326223.56048     -3451.18200
 08 11 10  0 24  0.0010000  0  9  3  6 13 16 19 21 23 25 31
  -1031938.60207  21071246.12207   -802678.57848  21071243.00948      1124.64600
   -166599.51207  20825282.53607   -132756.55248  20825279.40748        28.42800
   -781721.90606  23062350.31006   -609678.58847  23062346.04047       800.88400
   1668374.01207  20947492.72407   1286883.05748  20947487.82548     -2130.79900
  -1858216.62106  23677979.57506  -1442031.00047  23677975.28247      2317.99900
    266704.81605  24329222.81005    201805.70946  24329218.17746      -465.98200
    504760.60507  21747953.04407    387548.99848  21747947.30648      -861.86000
   -889597.89504  24596589.90304   -694265.41845  24596586.79445      1756.57700
   2703467.05507  22336091.50507   2088033.52348  22336087.04048     -3455.67000
 08 11 10  0 24 15.0010000  0  9  3  6 13 16 19 21 23 25 31
  -1048705.80107  21068055.06007   -815743.93248  21068052.42748      1117.81300
   -166913.03107  20825222.77107   -133000.84348  20825219.72048        20.90100
   -793619.12106  23060086.09106   -618949.12947  23060082.30247       793.14800
   1700378.67607  20953582.86407   1311821.75948  20953578.57948     -2133.64400
  -1892950.82806  23671370.15306  -1469096.61747  23671365.84147      2315.61400
    273784.88304  24330570.26304    207322.71946  24330566.39946      -472.00400
    517833.75807  21750440.35607    397735.86848  21750434.78248      -871.54300
   -915952.59003  24591574.44203   -714801.48445  24591571.28645      1756.98000
   2755369.34007  22345968.02107   2128476.83948  22345963.74348     -3460.15200
 08 11 10  0 24 30.0010000  0  9  3  6 13 16 19 21 23 25 31
  -1065369.22707  21064884.16907   -828728.42248  21064881.84948      1110.89500
   -167112.32007  20825184.84907   -133156.14848  20825182.07548        13.28600
   -805398.36706  23057844.62206   -628127.79347  23057841.14947       785.28300
   1732427.00807  20959681.39607   1336794.48448  20959677.41548     -2136.55500
  -1927647.78906  23664767.48106  -1496133.22247  23664763.11047      2313.13100
    280956.61703  24331933.51303    212911.10446  24331930.93146      -478.11600
    531053.25807  21752956.20807    408036.76348  21752950.76348      -881.30000
   -942312.17603  24586558.66903   -735341.41845  24586555.89945      1757.30600
   2807339.96907  22355857.64607   2168973.43048  22355853.38448     -3464.70900
 08 11 10  0 24 45.0010000  0  9  3  6 13 16 19 21 23 25 31
  -1081928.25407  21061733.06707   -841631.54848  21061730.26348      1103.93500
   -167197.09407  20825168.56707   -133222.20348  20825165.68148         5.65200
   -817059.32806  23055625.77806   -637214.22047  23055622.04847       777.39700
   1764519.11307  20965788.48107   1361801.30448  20965784.31048     -2139.47400
  -1962307.10906  23658171.76306  -1523140.48047  23658167.33747      2310.62100
    288220.28504  24333317.16104    218571.08446  24333313.14246      -484.24500
    544419.32407  21755499.63807    418451.87748  21755493.89948      -891.07100
   -968676.13704  24581541.99704   -755884.75845  24581538.98545      1757.59700
   2859379.07407  22365760.32507   2209523.37248  22365756.24748     -3469.27400
 08 11 10  0 25  0.0010000  0  9  3  6 13 16 19 21 23 25 31
  -1098384.34007  21058601.36407   -854454.47148  21058598.50148      1097.07200
   -167168.74607  20825173.92707   -133200.10548  20825171.08748        -1.89000
   -828603.26206  23053428.86406   -646209.51147  23053424.64947       769.59600
   1796653.44907  20971903.52107   1386841.05248  20971899.28248     -2142.28900
  -1996929.98406  23651584.06706  -1550119.29947  23651579.43547      2308.19200
    295574.63304  24334715.74704    224301.75446  24334712.09546      -490.29000
    557930.40207  21758070.84907    428979.98248  21758065.14648      -900.73900
   -995045.75004  24576523.76304   -776432.52745  24576520.82545      1757.97400
   2911485.03507  22375676.06007   2250125.38948  22375672.25948     -3473.73100
 08 11 10  0 25 15.0010000  0  9  3  6 13 16 19 21 23 25 31
  -1114735.68807  21055489.94207   -867195.77848  21055487.15348      1090.09000
   -167025.58207  20825201.41907   -133088.55748  20825198.75948        -9.54400
   -840028.19106  23051254.39606   -655112.07147  23051250.89947       761.66200
   1828831.50407  20978026.59107   1411914.84848  20978022.20848     -2145.20400
  -2031514.57806  23645003.02106  -1577068.33947  23644997.39947      2305.64000
    303021.50004  24336134.61404    230104.49646  24336129.64646      -496.45800
    571588.11307  21760669.67707    439622.35948  21760664.38848      -910.51400
  -1021419.37104  24571505.29404   -796983.35945  24571502.59945      1758.24100
   2963659.41407  22385604.27107   2290780.73248  22385600.84148     -3478.29200
 08 11 10  0 25 30.0010000  0  9  3  6 13 16 19 21 23 25 31
  -1130982.79707  21052398.16107   -879855.86048  21052394.98148      1083.14100
   -166768.00807  20825250.54407   -132887.84648  20825247.67348       -17.17200
   -851334.48006  23049103.34106   -663922.15046  23049099.32146       753.75300
   1861052.66007  20984158.34907   1437022.24948  20984153.84548     -2148.07700
  -2066061.03506  23638428.12206  -1603987.62247  23638422.90347      2303.09700
    310560.68804  24337568.84104    235979.18845  24337563.82145      -502.61300
    585392.34007  21763296.45807    450378.88548  21763290.75948      -920.28200
  -1047797.12904  24566485.49704   -817537.44545  24566482.84945      1758.51700
   3015901.82407  22395545.86407   2331489.10748  22395541.70448     -3482.82700
 08 11 10  0 25 45.0010000  0  9  3  6 13 16 19 21 23 25 31
  -1147125.47707  21049326.24707   -892434.57248  21049323.50148      1076.17900
   -166396.20307  20825321.04407   -132598.13248  20825318.54848       -24.78700
   -862521.74606  23046974.52806   -672639.53947  23046970.63447       745.81800
   1893316.70307  20990297.80207   1462163.05948  20990293.16148     -2150.93600
  -2100569.01606  23631861.98106  -1630876.95947  23631856.01347      2300.53200
    318192.13304  24339020.42704    241925.76245  24339015.57945      -508.76300
    599342.76207  21765951.64607    461249.32048  21765945.45448      -930.02800
  -1074179.07804  24561465.23104   -838094.80646  24561462.94646      1758.79700
   3068211.94107  22405500.31007   2372250.23248  22405496.01748     -3487.34100
 08 11 10  0 26  0.0010000  0  9  3  6 13 16 19 21 23 25 31
  -1163160.98807  21046274.74707   -904929.77748  21046272.05248      1069.03400
   -165907.89107  20825414.22407   -132217.62348  20825410.89248       -32.55400
   -873587.93006  23044868.57506   -681262.52947  23044864.82547       737.74600
   1925625.50807  20996446.24707   1487338.74748  20996441.36048     -2153.92000
  -2135036.24606  23625303.03606  -1657734.53247  23625297.24747      2297.81500
    325918.12105  24340491.45805    247945.96545  24340486.66945      -515.06600
    613441.55507  21768634.54407    472235.39048  21768628.41148      -939.92000
  -1100562.87104  24556444.21604   -858653.59945  24556442.48945      1758.92000
   3120591.97307  22415467.96607   2413065.81948  22415464.02148     -3492.00200
 08 11 10  0 26 15.0010000  0  9  3  6 13 16 19 21 23 25 31
  -1179091.70307  21043243.44207   -917343.32448  21043240.83348      1062.04800
   -165305.23807  20825528.60607   -131748.02948  20825526.21648       -40.17700
   -884534.85206  23042785.79406   -689792.60547  23042782.35347       729.79500
   1957976.83207  21002602.72407   1512547.56248  21002597.56748     -2156.75500
  -2169464.63706  23618751.46606  -1684561.83547  23618746.77447      2295.22600
    333736.65604  24341977.67704    254038.42246  24341974.92346      -521.23600
    627686.46907  21771345.12207    483335.31348  21771339.16148      -949.66100
  -1126950.52704  24551423.21604   -879215.33745  24551421.10645      1759.17700
   3173039.50407  22425448.52107   2453934.00248  22425444.56348     -3496.50200
 08 11 10  0 26 30.0010000  0  9  3  6 13 16 19 21 23 25 31
  -1194916.63307  21040231.81007   -929674.44048  21040229.46648      1054.99500
   -164587.35907  20825665.08307   -131188.62948  20825662.40348       -47.85900
   -895361.27706  23040725.04406   -698228.77546  23040721.59946       721.76200
   1990371.34407  21008766.51307   1537790.03748  21008762.21648     -2159.63400
  -2203853.20306  23612207.03606  -1711358.11147  23612201.81347      2292.57100
    341648.82005  24343484.02805    260203.73246  24343480.41946      -527.47800
    642078.38307  21774083.91107    494549.78348  21774077.75548      -959.46100
  -1153341.03904  24546401.27104   -899779.34446  24546399.53646      1759.36700
   3225555.28107  22435441.63007   2494855.37348  22435438.00948     -3501.05200
 08 11 10  0 26 45.0010000  0  9  3  6 13 16 19 21 23 25 31
  -1210634.15207  21037241.45807   -941921.85948  21037238.85348      1047.83500
   -163752.85207  20825824.03607   -130538.36448  20825821.11448       -55.63400
   -906065.69506  23038688.01306   -706569.91847  23038684.49747       713.62800
   2022810.44107  21014939.71607   1563067.25948  21014935.41148     -2162.60700
  -2238200.09406  23605671.16106  -1738121.90647  23605665.58347      2289.79300
    349656.11705  24345008.27805    266443.20446  24345004.20046      -533.82000
    656618.75007  21776850.66107    505879.92948  21776844.41548      -969.35800
  -1179732.80505  24541379.14605   -920344.31446  24541376.19246      1759.45100
   3278140.77007  22445448.36407   2535831.06848  22445444.42748     -3505.69900
 08 11 10  0 27  0.0010000  0  9  3  6 13 16 19 21 23 25 31
  -1226247.14107  21034270.27107   -954087.81848  21034267.42348      1040.86600
   -162804.67607  20826004.75507   -129799.52148  20826001.96248       -63.21200
   -916650.99606  23036673.85606   -714818.17846  23036670.16946       705.68700
   2055290.86307  21021120.52807   1588376.66748  21021116.05248     -2165.36100
  -2272508.26206  23599142.54406  -1764855.54747  23599137.05647      2287.21100
    357755.57805  24346549.19205    272754.43446  24346545.54446      -539.96400
    671304.43007  21779645.18507    517323.31248  21779639.49748      -979.04500
  -1206128.77305  24536356.52805   -940912.60845  24536353.02445      1759.73100
   3330792.74207  22455467.86407   2576858.56648  22455463.98548     -3510.13200
 08 11 10  0 27 15.0010000  0  9  3  6 13 16 19 21 23 25 31
  -1241753.97307  21031319.42707   -966171.06448  21031316.67348      1033.78900
   -161741.53107  20826206.92707   -128971.09948  20826203.88048       -70.87600
   -927115.85206  23034682.65306   -722972.59947  23034678.45447       697.65700
   2087813.78907  21027309.45807   1613719.20948  21027305.11048     -2168.19500
  -2306775.96506  23592621.66106  -1791557.61747  23592616.48547      2284.51400
    365948.75405  24348108.36405    279138.75146  24348104.73146      -546.21200
    686136.84807  21782467.95807    528881.03348  21782461.92748      -988.82800
  -1232527.47305  24531332.88805   -961483.00945  24531328.87645      1759.91300
   3383512.39107  22465499.78607   2617938.80548  22465495.83348     -3514.64300
 08 11 10  0 27 30.0010000  0  9  3  6 13 16 19 21 23 25 31
  -1257153.14107  21028389.24707   -978170.42148  21028386.06348      1026.61100
   -160561.81307  20826431.30207   -128051.84448  20826428.74348       -78.64800
   -937458.28506  23032714.41906   -731031.65347  23032709.91947       689.49600
   2120380.63307  21033506.70007   1639095.96348  21033502.15748     -2171.12300
  -2341001.47306  23586108.79406  -1818226.83147  23586103.63047      2281.70100
    374237.45705  24349685.25505    285597.49546  24349681.32546      -552.58000
    701117.36307  21785318.00507    540554.16148  21785312.70448      -998.70100
  -1258927.12904  24526309.64604   -982054.17446  24526304.42746      1759.97700
   3436301.25407  22475545.31707   2659072.93648  22475541.17748     -3519.25800
 08 11 10  0 27 45.0010000  0  9  3  6 13 16 19 21 23 25 31
  -1272445.26207  21025479.31007   -990086.33848  21025476.13848      1019.47500
   -159266.35907  20826677.88007   -127042.38348  20826675.78648       -86.36400
   -947678.84006  23030769.29406   -738995.69747  23030765.02847       681.37000
   2152990.27007  21039711.97407   1664506.06848  21039707.84148     -2173.97600
  -2375185.53106  23579603.88806  -1844863.74947  23579598.13447      2278.93700
    382620.94105  24351281.00505    292130.00746  24351276.04046      -558.89900
    716245.23006  21788197.03606    552342.09048  21788191.63048     -1008.52400
  -1285328.47004  24521284.82504  -1002626.62446  24521280.57946      1760.08900
   3489158.23807  22485603.91107   2700260.19148  22485600.08748     -3523.79900
 08 11 10  0 28  0.0010000  0  9  3  6 13 16 19 21 23 25 31
  -1287628.39107  21022589.60607  -1001917.35048  21022586.70448      1012.20900
   -157853.36307  20826946.93507   -125941.35248  20826944.56348       -94.20000
   -957775.30506  23028847.75506   -746863.09047  23028843.86847       673.09800
   2185644.43807  21045926.00507   1689950.86248  21045921.75948     -2176.94500
  -2409325.91406  23573107.09106  -1871466.64447  23573102.12647      2276.02600
    391101.07004  24352894.16904    298737.91445  24352890.18545      -565.34200
    731522.13707  21791104.19207    564246.18148  21791098.64648     -1018.46000
  -1311729.61704  24516260.59104  -1023198.90246  24516256.91146      1760.07700
   3542085.10207  22495675.50507   2741501.89048  22495672.28248     -3528.45800
 08 11 10  0 28 15.0010000  0  9  3  6 13 16 19 21 23 25 31
  -1302703.00007  21019721.34107  -1013663.78948  21019718.04048      1004.97400
   -156323.32007  20827238.01307   -124749.10748  20827235.43848      -102.00300
   -967748.09406  23026950.38006   -754634.08347  23026946.47047       664.85300
   2218342.57007  21052148.13807   1715429.91948  21052143.91148     -2179.87600
  -2443422.93406  23566618.54406  -1898035.69447  23566614.39247      2273.13500
    399677.48404  24354526.31704    305420.90645  24354521.95845      -571.76100
    746947.68407  21794039.56007    576266.08448  21794033.91948     -1028.37000
  -1338130.76204  24511237.65304  -1043771.26646  24511232.73146      1760.07600
   3595081.31607  22505760.02807   2782797.62548  22505757.21648     -3533.08100
 08 11 10  0 28 30.0010000  0  9  3  6 13 16 19 21 23 25 31
  -1317667.86707  21016873.41907  -1025324.72548  21016870.17348       997.65800
   -154675.30507  20827551.78607   -123464.94348  20827548.79048      -109.86800
   -977596.18006  23025076.48106   -762307.93547  23025072.39647       656.53900
   2251085.25807  21058378.84107   1740943.69648  21058374.33748     -2182.84600
  -2477475.32406  23560139.35606  -1924570.02147  23560133.77847      2270.15900
    408351.33604  24356176.80204    312179.88345  24356172.49745      -578.25700
    762522.58207  21797003.47407    588402.35948  21796997.81748     -1038.32700
  -1364530.94105  24506212.84105  -1064342.81346  24506209.06046      1760.01200
   3648147.73407  22515858.66107   2824148.06848  22515854.79048     -3537.76100
 08 11 10  0 28 45.0010000  0  9  3  6 13 16 19 21 23 25 31
  -1332522.87107  21014046.81707  -1036900.05648  21014043.58348       990.33400
   -152909.12107  20827887.60607   -122088.67948  20827884.79848      -117.74600
   -987319.30506  23023225.81706   -769884.39147  23023222.49747       648.20800
   2283872.75007  21064618.09907   1766492.37848  21064613.68148     -2185.83300
  -2511482.77306  23553666.99706  -1951069.33247  23553663.28247      2267.16300
    417122.71904  24357845.72404    319014.63345  24357841.55245      -584.75900
    778247.08207  21799995.83307    600655.21648  21799990.14248     -1048.30000
  -1390929.79705  24501189.84905  -1084913.29246  24501185.77446      1759.92400
   3701284.28507  22525970.05207   2865553.15348  22525966.55248     -3542.43700
 08 11 10  0 29  0.0010000  0  9  3  6 13 16 19 21 23 25 31
  -1347267.79707  21011240.64607  -1048389.60648  21011238.02448       982.99500
   -151024.82407  20828245.90307   -120620.39248  20828243.06048      -125.62000
   -996917.28106  23021398.95006   -777363.32347  23021395.72847       639.86500
   2316704.80907  21070865.67707   1792075.80048  21070861.47848     -2188.80400
  -2545445.07406  23547204.53606  -1977533.41347  23547200.15747      2264.15300
    425991.94105  24359534.59905    325925.68146  24359530.29046      -591.28200
    794121.20707  21803016.46607    613024.65348  21803010.81348     -1058.27500
  -1417327.20705  24496166.79405  -1105482.63245  24496162.85645      1759.82700
   3754490.84807  22536094.83307   2907012.80348  22536091.54848     -3547.10400
 08 11 10  0 29 15.0010000  0  9  3  6 13 16 19 21 23 25 31
  -1361901.34807  21008455.91107  -1059792.37848  21008453.16148       975.57000
   -149021.30507  20828627.45807   -119059.19848  20828624.21248      -133.56800
  -1006388.63306  23019596.96606   -784743.59047  23019594.18847       631.42300
   2349582.13707  21077122.01307   1817694.48848  21077117.70448     -2191.82200
  -2579361.03906  23540750.16906  -2003961.41847  23540745.92347      2261.06400
    434960.07405  24361240.40305    332913.84746  24361236.62246      -597.87600
    810145.82406  21806066.05206    625511.36348  21806060.10648     -1068.30800
  -1443721.96505  24491143.68505  -1126050.00045  24491139.62645      1759.65100
   3807768.41007  22546233.13007   2948527.75548  22546230.08748     -3551.83800
 08 11 10  0 29 30.0010000  0  9  3  6 13 16 19 21 23 25 31
  -1376423.40607  21005692.71607  -1071108.26348  21005690.14948       968.13700
   -146898.45706  20829031.16906   -117405.02848  20829027.99348      -141.52300
  -1015733.41406  23017818.52806   -792025.22547  23017816.23947       622.98500
   2382504.97306  21083387.38806   1843348.64148  21083382.54048     -2194.85600
  -2613230.13306  23534305.02106  -2030352.91747  23534300.24347      2257.94000
    444027.51604  24362965.92704    339979.36046  24362962.25546      -604.49600
    826321.09407  21809144.13007    638115.45548  21809138.40348     -1078.35100
  -1470113.81205  24486121.84105  -1146615.08045  24486117.59945      1759.45600
   3861117.06307  22556385.46607   2990098.10748  22556382.14948     -3556.57700
 08 11 10  0 29 45.0010000  0  9  3  6 13 16 19 21 23 25 31
  -1390834.00407  21002950.02807  -1082337.28948  21002947.67748       960.70700
   -144656.56307  20829457.80207   -115658.09148  20829454.89948      -149.46000
  -1024951.25406  23016064.88806   -799207.97147  23016061.50547       614.52300
   2415472.77707  21089660.98907   1869037.84748  21089656.54448     -2197.85400
  -2647052.49606  23527869.40306  -2056707.98347  23527864.98947      2254.82400
    453193.90203  24364709.73103    347122.02746  24364706.80246      -611.09200
    842646.52307  21812250.54407    650836.56248  21812245.20448     -1088.36200
  -1496502.80504  24481099.65304  -1167177.94746  24481095.87646      1759.26600
   3914536.36707  22566550.42707   3031723.52248  22566547.18848     -3561.28700
 08 11 10  0 30  0.0010000  0  9  3  6 13 16 19 21 23 25 31
  -1405131.29707  21000229.26307  -1093478.02848  21000226.80648       953.15300
   -142293.84806  20829907.56006   -113817.02748  20829904.73948      -157.51400
  -1034040.07006  23014335.04406   -806290.15147  23014331.52847       605.92100
   2448487.15207  21095943.44207   1894763.33048  21095938.97848     -2200.95800
  -2680826.00406  23521442.35606  -2083024.98247  23521437.88847      2251.56700
    462461.49603  24366473.84103    354343.49845  24366470.14245      -617.84000
    859123.98006  21815386.29406    663676.12648  21815380.36448     -1098.49700
  -1522887.06504  24476079.24704  -1187737.09645  24476074.99745      1758.95100
   3968027.88707  22576729.81007   3073405.21748  22576725.98148     -3566.10100
 08 11 10  0 30 15.0010000  0  9  3  6 13 16 19 21 23 25 31
  -1419315.78507  20997530.56707  -1104530.87148  20997527.14948       945.63300
