     2              OBSERVATION DATA                        RINEX VERSION / TYPE
DAT2RINW 3.10 001   .                   04NOV08 23:03:34    PGM / RUN BY / DATE 
.                   .                                       OBSERVER / AGENCY   
0220363320          TRIMBLE 5700        Nav 2.23 Sig 2.23   REC # / TYPE / VERS 
0                   TRM39105.00     NONE                    ANT # / TYPE        
----------------------------------------------------------- COMMENT             
Offset from BOTTOM OF ANTENNA to PHASE CENTER is  46.0 mm   COMMENT             
----------------------------------------------------------- COMMENT             
0171                                                        MARKER NAME
0171                                                        MARKER NUMBER       
 -3108107.4329  3988759.8738  3874490.7700                  APPROX POSITION XYZ 
        1.3682        0.0000        0.0000                  ANTENNA: DELTA H/E/N
*** Above antenna height is from mark to BOTTOM OF ANTENNA. COMMENT             
----------------------------------------------------------- COMMENT             
Note: The above offsets are CORRECTED.                      COMMENT             
Raw Offsets: H=      1.4100 E=      0.0000 N=      0.0000   COMMENT             
----------------------------------------------------------- COMMENT             
     1     1     0                                          WAVELENGTH FACT L1/2
     5    L1    C1    L2    P2    D1                        # / TYPES OF OBSERV 
    15                                                      INTERVAL            
  2008    11     4     0    30    0.000000                  TIME OF FIRST OBS   
  2008    11     4     8    40    0.000000                  TIME OF LAST OBS    
    19                                                      # OF SATELLITES     
     3  1228  1228  1228  1228  1228                        PRN / # OF OBS      
     4   435   435   435   435   435                        PRN / # OF OBS      
     6  1080  1080  1080  1080  1080                        PRN / # OF OBS      
     7  1112  1112  1112  1112  1112                        PRN / # OF OBS      
     8   948   948   948   948   948                        PRN / # OF OBS      
    11  1407  1407  1407  1407  1407                        PRN / # OF OBS      
    13   789   789   788   788   789                        PRN / # OF OBS      
    16   844   852   810   810   844                        PRN / # OF OBS      
    17   773   773   773   773   773                        PRN / # OF OBS      
    19  1498  1499  1496  1496  1498                        PRN / # OF OBS      
    20   841   841   841   841   841                        PRN / # OF OBS      
    21   518   518   518   518   518                        PRN / # OF OBS      
    23   791   791   777   777   791                        PRN / # OF OBS      
    25  1178  1178  1178  1178  1178                        PRN / # OF OBS      
    27  1062  1062  1062  1062  1062                        PRN / # OF OBS      
    28  1033  1033  1033  1033  1033                        PRN / # OF OBS      
    29    40    40    40    40    40                        PRN / # OF OBS      
    31   422   422   422   422   422                        PRN / # OF OBS      
    32   915   915   915   915   915                        PRN / # OF OBS      
                                                            END OF HEADER       
 08 11  4  0 30  0.0000000  0  7  3  6 13 16 21 23 31
  -3303837.34407  21387442.64107  -2555760.20348  21387440.31348      3340.70600
  -2402185.03507  20886372.55507  -1855826.31349  20886371.43849      2331.96800
  -2988418.18006  23250604.30506  -2311862.62147  23250602.04747      2983.26900
    -29702.53507  20435853.93807    -23425.82849  20435850.45749      -119.31600
  -1720507.72304  24133815.40604  -1339602.13346  24133811.45346      1688.55100
  -1662626.65607  21615992.11707  -1284007.49248  21615987.26648      1465.86000
   1180692.18407  21532880.67207    911821.47349  21532877.76649     -1445.33000
 08 11  4  0 30 15.0000000  0  7  3  6 13 16 21 23 31
  -3353860.26607  21377923.78907  -2594739.10248  21377921.84048      3334.86100
  -2437057.10507  20879736.35207  -1882999.34449  20879735.79349      2324.80500
  -3033066.21106  23242108.00006  -2346653.28547  23242105.07847      2976.53500
    -27854.27707  20436206.32807    -21985.63749  20436202.71549      -123.21700
  -1745756.88305  24129010.93005  -1359276.78546  24129008.10546      1683.27700
  -1684470.50407  21611835.58607  -1301028.68048  21611831.06348      1456.25700
   1202448.28507  21537020.39807    928774.27348  21537017.64548     -1450.40700
 08 11  4  0 30 30.0000000  0  7  3  6 13 16 21 23 31
  -3403792.82007  21368421.93807  -2633647.58648  21368420.31648      3328.83700
  -2471819.48407  20873121.57007  -1910086.90249  20873120.44549      2317.49200
  -3077610.71506  23233631.25806  -2381363.28947  23233628.79347      2969.63400
    -25945.50808  20436569.46908    -20498.28149  20436565.85249      -127.25100
  -1770924.59404  24124220.82004  -1378887.94146  24124218.94946      1677.84700
  -1706168.27707  21607706.28107  -1317936.03148  21607701.78548      1446.51800
   1224282.60907  21541175.44507    945788.02748  21541172.25448     -1455.62200
 08 11  4  0 30 45.0000000  0  7  3  6 13 16 21 23 31
  -3453634.34807  21358937.68007  -2672485.13348  21358935.91048      3322.76800
  -2506471.44907  20866527.70307  -1937088.43449  20866526.21949      2310.13100
  -3122050.69106  23225174.77306  -2415991.84447  23225172.38347      2962.66500
    -23975.78907  20436944.16407    -18963.44549  20436940.59449      -131.31500
  -1796010.04705  24119448.60905  -1398435.05146  24119445.25846      1672.36400
  -1727718.99607  21603605.50807  -1334728.79748  21603601.50048      1436.71500
   1246195.68007  21545345.13307    962863.14548  21545341.93448     -1460.87100
 08 11  4  0 31  0.0000000  0  7  3  6 13 16 21 23 31
  -3503385.36707  21349470.07807  -2711252.15648  21349468.21548      3316.73500
  -2541013.75007  20859954.07807  -1964004.52049  20859952.71149      2302.82000
  -3166386.98806  23216738.06306  -2450539.59847  23216736.05547      2955.75300
    -21946.20307  20437330.09407    -17381.94549  20437326.93049      -135.30600
  -1821013.93405  24114689.39105  -1417918.58246  24114687.07446      1666.92600
  -1749123.49607  21599532.45307  -1351407.63748  21599528.33648      1426.96700
   1268186.66007  21549530.06307    979998.96948  21549527.34448     -1466.06500
 08 11  4  0 31 15.0000000  0  7  3  6 13 16 21 23 31
  -3553047.02007  21340019.98407  -2749949.55148  21340018.15248      3310.77700
  -2575447.42207  20853401.87507  -1990835.93849  20853400.39149      2295.57800
  -3210620.43406  23208320.40606  -2485007.22347  23208318.32447      2948.89600
    -19858.05107  20437727.60207    -15754.81649  20437724.02349      -139.21000
  -1845937.01205  24109946.70305  -1437339.19546  24109942.94146      1661.53900
  -1770382.92207  21595487.07807  -1367973.42248  21595482.85948      1417.29500
   1290254.20707  21553729.47707    997194.45748  21553726.51648     -1471.17000
 08 11  4  0 31 30.0000000  0  7  3  6 13 16 21 23 31
  -3602615.16807  21330587.18807  -2788574.07848  21330585.33648      3304.54300
  -2609768.59807  20846870.83607  -2017579.71149  20846869.86349      2288.07800
  -3254747.01606  23199923.46106  -2519391.57047  23199921.03547      2941.77200
    -17707.74207  20438136.96907    -14079.24649  20438133.14149      -143.35400
  -1870775.21905  24105220.60905  -1456693.64146  24105216.07846      1655.88000
  -1791493.44507  21591469.96107  -1384423.17648  21591465.63348      1407.36800
   1312402.08207  21557943.54707   1014452.53948  21557940.90648     -1476.52500
 08 11  4  0 31 45.0000000  0  7  3  6 13 16 21 23 31
  -3652094.31307  21321171.60907  -2827129.25848  21321170.06648      3298.61000
  -2643981.73007  20840360.13307  -2044239.28549  20840358.64849      2280.87600
  -3298770.73006  23191545.89106  -2553695.75447  23191543.69947      2934.91400
    -15499.95707  20438557.07007    -12358.89849  20438553.10949      -147.18600
  -1895533.10905  24100509.39105  -1475985.49646  24100505.32446      1650.52600
  -1812459.48007  21587479.94507  -1400760.34448  21587476.10548      1397.73600
   1334625.73807  21562172.89107   1031769.65648  21562170.44148     -1481.57700
 08 11  4  0 32  0.0000000  0  7  3  6 13 16 21 23 31
  -3701482.44107  21311773.36707  -2865613.52048  21311771.62548      3292.54200
  -2678084.94507  20833870.27307  -2070813.22349  20833868.53949      2273.54800
  -3342689.97306  23183188.56306  -2587918.53947  23183186.43847      2927.94900
    -13233.12507  20438987.96907    -10592.53549  20438984.66849      -151.12200
  -1920208.79705  24095814.32005  -1495213.36346  24095810.52746      1645.04600
  -1833279.02707  21583517.79707  -1416983.38348  21583513.80548      1387.97000
   1356926.83207  21566416.69507   1049147.12148  21566413.90648     -1486.74000
 08 11  4  0 32 15.0000000  0  8  3  6 13 16 19 21 23 31
  -3750776.42207  21302393.27307  -2904024.40248  21302391.38748      3286.26500
  -2712075.31607  20827402.43007  -2097299.21949  20827400.84449      2266.02500
  -3386501.21906  23174851.26606  -2622057.15247  23174849.05147      2920.75000
    -10904.61707  20439431.20307     -8778.11349  20439427.96549      -155.23400
   -178478.07415  24121220.17205   -125540.37156  24121214.87546         0.00000
  -1944799.20305  24091133.83605  -1514374.67646  24091131.04346      1639.36000
  -1853949.20707  21579584.54707  -1433090.01648  21579580.81348      1378.01200
   1379307.99207  21570675.75007   1066586.98048  21570673.21148     -1492.07700
 08 11  4  0 32 30.0000000  0  8  3  6 13 16 19 21 23 31
  -3799981.77307  21293029.62507  -2942366.22348  21293028.19548      3280.35700
  -2745958.42607  20820954.88307  -2123701.63749  20820952.97349      2258.87400
  -3430210.19506  23166534.32006  -2656116.06647  23166531.42647      2913.93200
     -8520.25407  20439884.97707     -6920.16849  20439881.80549      -158.95800
   -240521.10906  24109413.82006   -173885.58646  24109408.27346      4136.20200
  -1969309.73805  24086470.60905  -1533473.75846  24086467.12146      1634.03600
  -1874475.70707  21575678.23407  -1449084.69148  21575674.16848      1368.43300
   1401763.50007  21574948.83607   1084084.76248  21574945.84848     -1497.03400
 08 11  4  0 32 45.0000000  0  8  3  6 13 16 19 21 23 31
  -3849093.75807  21283684.11707  -2980635.29348  21283682.55148      3274.13200
  -2779729.60507  20814528.03107  -2150016.84449  20814526.19149      2251.41200
  -3473812.23806  23158237.07806  -2690091.68047  23158234.55147      2906.80300
     -6075.57007  20440350.04707     -5015.21549  20440347.60949      -162.97900
   -302540.82405  24097611.56305   -222212.61746  24097605.87946      4134.64800
  -1993735.56605  24081822.00805  -1552506.85546  24081818.25046      1628.38900
  -1894854.00407  21571800.57807  -1464963.89148  21571796.26648      1358.55300
   1424297.96507  21579237.39807   1101644.07848  21579233.87548     -1502.29800
 08 11  4  0 33  0.0000000  0  8  3  6 13 16 19 21 23 31
  -3898113.27007  21274355.71907  -3018832.30548  21274354.37148      3267.96700
  -2813389.95707  20808122.90607  -2176245.68449  20808120.69149      2244.02300
  -3517308.21506  23149960.14806  -2723984.64147  23149957.34447      2899.73200
     -3572.09807  20440826.67207     -3064.46549  20440823.45749      -166.89800
   -364538.42206  24085813.89806   -270522.44946  24085808.46946      4133.17300
  -2018077.87105  24077189.50005  -1571474.89546  24077186.57446      1622.82000
  -1915085.27007  21567950.78107  -1480728.51648  21567946.18048      1348.75100
   1446909.85907  21583540.16407   1119263.72748  21583537.07048     -1507.46000
 08 11  4  0 33 15.0000000  0  8  3  6 13 16 19 21 23 31
  -3947039.93807  21265045.46107  -3056956.98848  21265043.53548      3261.77800
  -2846939.04307  20801738.26607  -2202387.81349  20801736.59849      2236.60600
  -3560697.34806  23141702.91406  -2757794.34847  23141700.32447      2892.60900
     -1009.58207  20441314.64107     -1067.71549  20441311.08649      -170.83400
   -426512.96106  24074020.91406   -318814.26647  24074014.98447      4131.63600
  -2042335.77705  24072573.56305  -1590377.13746  24072571.02046      1617.19400
  -1935168.83607  21564128.93007  -1496378.03548  21564124.50048      1338.90400
   1469599.86707  21587857.85207   1136944.24648  21587854.59048     -1512.66700
 08 11  4  0 33 30.0000000  0  8  3  6 13 16 19 21 23 31
  -3995874.37507  21255752.70307  -3095009.78548  21255750.61748      3255.62900
  -2880377.76207  20795375.21107  -2228443.96549  20795373.45349      2229.24800
  -3603980.19506  23133466.73406  -2791521.24647  23133464.10247      2885.52300
      1610.76207  20441812.91407       974.11349  20441809.26649      -174.69000
   -488465.31306  24062231.43006   -367088.82447  24062226.85247      4130.15700
  -2066510.30905  24067973.11705  -1609214.43046  24067971.00046      1611.63500
  -1955105.65607  21560335.19507  -1511913.20748  21560330.50448      1329.12100
   1492366.80107  21592190.32807   1154684.69948  21592186.72748     -1517.79600
 08 11  4  0 33 45.0000000  0  8  3  6 13 16 19 21 23 31
  -4044615.96907  21246477.58607  -3132990.25448  21246475.80948      3249.44000
  -2913705.11707  20789033.35207  -2254413.33649  20789031.65649      2221.82400
  -3647155.81606  23125250.64806  -2825164.57847  23125248.06647      2878.37500
      4289.60907  20442322.94507      3061.52349  20442319.34849      -178.59000
   -550394.39106  24050446.82006   -415345.25047  24050442.50447      4128.60500
  -2090600.21106  24063389.18006  -1627985.77346  24063386.60246      1605.99300
  -1974894.80107  21556569.46107  -1527333.32048  21556564.50048      1319.27600
   1515211.33607  21596537.34407   1172485.62948  21596534.15648     -1522.96900
 08 11  4  0 34  0.0000000  0  8  3  6 13 16 19 21 23 31
  -4093263.38307  21237219.75807  -3170897.33648  21237218.89148      3243.16100
  -2946920.37107  20782712.47707  -2280295.34448  20782711.14148      2214.35000
  -3690223.11706  23117055.08606  -2858723.50047  23117052.77347      2871.15300
      7027.75807  20442843.91407      5195.14149  20442840.52049      -182.54300
   -612299.21106  24038666.72706   -463582.75447  24038662.45347      4126.98800
  -2114604.64105  24058821.71905  -1646690.52046  24058818.65646      1600.29500
  -1994535.44507  21552832.19507  -1542637.71548  21552827.45348      1309.37600
   1538134.19507  21600899.60907   1190347.58248  21600896.44148     -1528.19100
 08 11  4  0 34 15.0000000  0  8  3  6 13 16 19 21 23 31
  -4141814.20306  21227980.85906  -3208729.13748  21227979.80148      3236.72100
  -2980021.13307  20776413.72707  -2306088.14848  20776411.84848      2206.71700
  -3733179.58606  23108880.74206  -2892196.07447  23108877.90247      2863.76500
      9827.07407  20443376.63307      7376.42649  20443372.91849      -186.62100
   -674177.52006  24026891.78106   -511799.60947  24026888.26647      4125.22100
  -2138521.52306  24054269.96906  -1665327.03546  24054268.09046      1594.45900
  -2014025.33207  21549123.07007  -1557824.64548  21549118.70748      1299.32600
   1561137.52707  21605277.19507   1208272.25848  21605273.55548     -1533.55500
 08 11  4  0 34 30.0000000  0  8  3  6 13 16 19 21 23 31
  -4190269.22707  21218759.96907  -3246486.28948  21218758.91448      3230.33500
  -3013008.16807  20770136.56307  -2331792.33248  20770134.28548      2199.13600
  -3776025.88306  23100727.74206  -2925582.78947  23100724.68847      2856.42000
     12686.66407  20443920.64807      9604.67649  20443917.10549      -190.63900
   -736029.76606  24015121.74206   -559996.15647  24015117.87547      4123.48300
  -2162351.26606  24049735.64106  -1683895.66846  24049732.77046      1588.64900
  -2033365.18007  21545442.84407  -1572894.65248  21545438.21948      1289.32300
   1584220.35207  21609669.67207   1226258.86749  21609666.61749     -1538.85500
 08 11  4  0 34 45.0000000  0  8  3  6 13 16 19 21 23 31
  -4238627.65607  21209557.87507  -3284168.18448  21209556.29348      3223.89500
  -3045880.88307  20763881.11707  -2357407.43848  20763878.47348      2191.51400
  -3818761.22306  23092595.50006  -2958883.05947  23092592.15247      2849.02300
     15606.65207  20444476.75807     11879.98849  20444473.13749      -194.66600
   -797855.05906  24003357.25806   -608171.69147  24003353.46547      4121.68600
  -2186093.09006  24045217.40606  -1702395.78546  24045214.52346      1582.78800
  -2052554.43807  21541790.92207  -1587847.32448  21541786.61348      1279.28400
   1607383.00407  21614077.06307   1244307.68848  21614074.62948     -1544.17700
 08 11  4  0 35  0.0000000  0  8  3  6 13 16 19 21 23 31
  -4286890.51207  21200373.56307  -3321775.60548  21200372.48048      3217.52400
  -3078640.47307  20757647.18007  -2382934.38749  20757645.28549      2183.97300
  -3861386.74206  23084483.83606  -2992097.73847  23084480.80547      2841.70100
     18585.66007  20445043.06307     14201.29349  20445039.53549      -198.60100
   -859654.62105  23991596.78905   -656327.19147  23991592.76647      4119.97100
  -2209748.11306  24040716.28906  -1720828.30146  24040712.80946      1577.00200
  -2071594.31607  21538167.92207  -1602683.59848  21538163.98848      1269.32500
   1630624.17607  21618499.69507   1262417.68048  21618497.13348     -1549.41100
 08 11  4  0 35 15.0000000  0  8  3  6 13 16 19 21 23 31
  -4335058.17207  21191207.73407  -3359308.84848  21191206.57848      3211.17700
  -3111287.69507  20751434.74207  -2408373.77748  20751432.85248      2176.48200
  -3903902.77706  23076393.39806  -3025227.10547  23076390.58647      2834.40200
     21622.86307  20445621.10207     16567.94149  20445617.98449      -202.48000
   -921428.95306  23979841.39806   -704463.00047  23979837.82047      4118.28900
  -2233316.88706  24036231.18806  -1739193.56646  24036228.37546      1571.25200
  -2090485.58606  21534572.82006  -1617404.07448  21534568.59848      1259.41800
   1653943.18007  21622937.32807   1280588.32848  21622934.97348     -1554.60000
 08 11  4  0 35 30.0000000  0  8  3  6 13 16 19 21 23 31
  -4383129.55906  21182059.86706  -3396767.06648  21182059.41848      3204.75900
  -3143820.95707  20745244.04707  -2433724.37148  20745241.62548      2168.88400
  -3946307.78106  23068324.18006  -3058269.97747  23068321.41847      2827.00000
     24719.42207  20446210.39107     18980.83649  20446207.44949      -206.43700
   -983176.45305  23968091.44505   -752577.93047  23968087.59447      4116.50000
  -2256797.93006  24031762.82806  -1757490.47346  24031760.18046      1565.40300
  -2109226.84807  21531006.64107  -1632007.66048  21531002.54348      1249.41700
   1677341.24607  21627389.88307   1298820.58248  21627387.49248     -1559.87100
 08 11  4  0 35 45.0000000  0  8  3  6 13 16 19 21 23 31
  -4431107.80107  21172929.96107  -3434152.69548  21172929.02048      3198.54900
  -3176243.74607  20739074.02307  -2458988.87948  20739071.81648      2161.51900
  -3988604.94106  23060274.61706  -3091228.80547  23060272.09847      2819.81100
     27871.60507  20446810.35207     21437.07849  20446807.35549      -210.14600
  -1044900.32005  23956345.21905   -800674.43046  23956342.11346      4114.92400
  -2280194.48406  24027310.26606  -1775721.55147  24027307.44147      1559.77000
  -2127821.38307  21527468.43807  -1646496.90648  21527463.93048      1239.63600
   1700814.58607  21631856.70307   1317111.48449  21631854.60949     -1564.88900
 08 11  4  0 36  0.0000000  0  8  3  6 13 16 19 21 23 31
  -4478985.48407  21163819.53907  -3471459.97348  21163818.05548      3191.84600
  -3208549.02007  20732927.03107  -2484161.81649  20732924.77349      2153.68500
  -4030787.05906  23052248.08606  -3124097.97747  23052244.93447      2812.14100
     31086.22307  20447421.83607     23941.96949  20447418.94549      -214.30800
  -1106593.53503  23944605.08603   -848747.03546  23944601.87146      4112.88100
  -2303499.37506  24022875.51606  -1793881.21146  24022873.08246      1553.65900
  -2146262.23407  21523959.20307  -1660866.40248  21523954.46148      1229.39000
   1724370.28907  21636338.96107   1335466.57048  21636336.42648     -1570.38000
 08 11  4  0 36 15.0000000  0  8  3  6 13 16 19 21 23 31
  -4526763.50407  21154727.60907  -3508689.59448  21154725.53948      3185.20100
  -3240737.47307  20726801.27307  -2509243.71949  20726799.39849      2145.89700
  -4072854.81306  23044242.36706  -3156878.04747  23044239.57847      2804.51700
     34362.34007  20448045.71107     26494.78549  20448042.45749      -218.40800
  -1168256.37504  23932870.93004   -896795.98446  23932867.30146      4110.85600
  -2326713.32406  24018458.46106  -1811970.01246  24018455.48446      1547.59700
  -2164550.16007  21520479.20307  -1675116.74248  21520474.66848      1219.19500
   1748007.40607  21640837.10207   1353885.09449  21640835.07049     -1575.80800
 08 11  4  0 36 30.0000000  0  8  3  6 13 16 19 21 23 31
  -4574442.95707  21145654.68807  -3545842.41448  21145652.66448      3178.63000
  -3272810.19907  20720698.43807  -2534235.45749  20720696.22349      2138.18200
  -4114808.91006  23036258.83606  -3189569.53947  23036256.01647      2796.94000
     37698.56607  20448680.55507     29094.44549  20448677.19149      -222.41500
  -1229889.82805  23921142.06305   -944822.01646  23921139.21946      4108.89700
  -2349837.24606  24014057.58606  -1829988.64846  24014055.75846      1541.59500
  -2182686.24607  21517027.79707  -1689248.75848  21517022.57848      1209.07200
   1771724.78907  21645350.66407   1372366.15649  21645348.89549     -1581.15900
 08 11  4  0 36 45.0000000  0  8  3  6 13 16 19 21 23 31
  -4622025.94107  21136599.79707  -3582920.06348  21136597.83248      3172.19900
  -3304769.71107  20714616.35207  -2559138.96149  20714614.54349      2130.63400
  -4156651.73006  23028296.74206  -3222174.34047  23028293.81647      2789.52100
     41092.25807  20449326.26607     31738.87549  20449322.89549      -226.24600
  -1291496.27705  23909419.52305   -992827.01647  23909415.14147      4107.09700
  -2372873.40606  24009674.74206  -1847938.89846  24009671.84446      1535.74400
  -2200673.00807  21513604.98407  -1703264.41448  21513599.80148      1199.11700
   1795519.82407  21649878.56307   1390907.71948  21649876.27348     -1586.33600
 08 11  4  0 37  0.0000000  0  8  3  6 13 16 19 21 23 31
  -4669510.85507  21127563.57807  -3619921.27748  21127561.89148      3165.66100
  -3336614.33207  20708556.75007  -2583952.94949  20708554.78949      2122.97500
  -4198381.53106  23020356.36706  -3254691.05947  23020353.35947      2781.98700
     44544.68807  20449983.42207     34429.07049  20449980.30949      -230.16200
  -1353074.01205  23897702.46105  -1040809.65647  23897698.09847      4105.18200
  -2395820.32806  24005307.48406  -1865819.60546  24005305.13746      1529.79500
  -2218508.99207  21510211.05507  -1717162.58648  21510206.07448      1189.06600
   1819393.78907  21654421.66407   1409510.79748  21654419.39848     -1591.59800
 08 11  4  0 37 15.0000000  0  8  3  6 13 16 19 21 23 31
  -4716895.63707  21118546.75007  -3656844.47748  21118545.17648      3158.98500
  -3368342.33607  20702518.90607  -2608676.07049  20702517.51249      2115.20000
  -4239996.24606  23012436.37506  -3287118.10247  23012434.21947      2774.31400
     48057.41007  20450651.59407     37166.25449  20450648.55949      -234.18200
  -1414621.08205  23885990.01605  -1088768.37947  23885986.35247      4103.13800
  -2418675.89806  24000958.31306  -1883629.13346  24000955.52346      1523.70500
  -2236192.20307  21506846.15607  -1730941.71148  21506840.92248      1178.88100
   1843348.31607  21658980.08607   1428176.64848  21658977.62948     -1596.96800
 08 11  4  0 37 30.0000000  0  8  3  6 13 16 19 21 23 31
  -4764180.78906  21109548.19506  -3693690.04348  21109546.36348      3152.34300
  -3399954.01207  20696503.20307  -2633308.53949  20696501.73849      2107.44500
  -4281496.21906  23004539.72706  -3319455.75047  23004537.02047      2766.66500
     51629.73007  20451331.47707     39949.87549  20451327.78949      -238.15500
  -1476137.59005  23874284.60205  -1136703.29747  23874280.18847      4101.10100
  -2441440.37506  23996626.36706  -1901367.68446  23996623.29346      1517.63200
  -2253723.07807  21503510.62507  -1744602.13348  21503504.98848      1168.72500
   1867382.98807  21663553.90607   1446904.95748  21663550.71148     -1602.31100
 08 11  4  0 37 45.0000000  0  8  3  6 13 16 19 21 23 31
  -4811366.21907  21100569.40607  -3730457.91448  21100567.76248      3145.69500
  -3431449.68007  20690509.86707  -2657850.61749  20690508.69149      2099.71100
  -4322881.59006  22996664.80506  -3351704.06647  22996661.55147      2759.02500
     55261.30107  20452022.64807     42779.66849  20452019.29349      -242.10500
  -1537623.57405  23862583.08605  -1184614.43447  23862579.52747      4099.06600
  -2464113.93806  23992311.68806  -1919035.40246  23992308.51646      1511.57100
  -2271102.02307  21500203.28907  -1758144.16848  21500198.02748      1158.59600
   1891497.34807  21668142.17207   1465695.36348  21668138.94148     -1607.62400
 08 11  4  0 38  0.0000000  0  8  3  6 13 16 19 21 23 31
  -4858453.96107  21091608.70307  -3767149.66048  21091606.91448      3139.18300
  -3462831.33607  20684537.57807  -2682303.84849  20684536.49649      2092.11000
  -4364153.97306  22988810.39106  -3383864.36747  22988807.91047      2751.49200
     58949.76607  20452724.30507     45653.79749  20452721.05149      -245.89800
  -1599081.09005  23850889.00005  -1232503.39147  23850884.43447      4097.16800
  -2486698.60506  23988013.75006  -1936633.82046  23988010.43446      1505.64500
  -2288331.11307  21496925.01607  -1771569.43448  21496919.67248      1148.60600
   1915689.18407  21672745.81307   1484546.12948  21672743.25048     -1612.78900
 08 11  4  0 38 15.0000000  0  8  3  6 13 16 19 21 23 31
  -4905441.87106  21082667.17206  -3803763.60248  21082665.62148      3132.52700
  -3494096.85907  20678588.22707  -2706666.60549  20678586.19949      2084.36800
  -4405311.05506  22980979.07006  -3415934.80547  22980976.24247      2743.80500
     62697.02707  20453437.50007     48573.73449  20453434.55149      -249.81700
  -1660507.76205  23839198.88305  -1280368.30547  23839194.98847      4095.11100
  -2509192.03906  23983733.44506  -1954161.14546  23983730.77346      1499.56200
  -2305408.09807  21493675.20307  -1784876.17648  21493669.63348      1138.46600
   1939960.52307  21677364.37507   1503458.84448  21677361.46148     -1618.08900
 08 11  4  0 38 30.0000000  0  8  3  6 13 16 19 21 23 31
  -4952330.11707  21073744.82807  -3840299.89848  21073742.90248      3125.88300
  -3525246.65207  20672660.53907  -2730939.16848  20672658.82448      2076.65300
  -4446353.14506  22973168.47706  -3447915.64547  22973166.44147      2736.13900
     66502.50007  20454161.94507     51539.03149  20454158.60949      -253.69800
  -1721903.84405  23827516.44505  -1328209.39847  23827511.28147      4093.07200
  -2531594.55106  23979469.82006  -1971617.62946  23979467.53546      1493.50100
  -2322333.46507  21490454.21107  -1798064.77048  21490448.72748      1128.35800
   1964310.72707  21681998.13307   1522433.01248  21681995.34848     -1623.34700
 08 11  4  0 38 45.0000000  0  8  3  6 13 16 19 21 23 31
  -4999117.03507  21064841.62507  -3876757.25048  21064839.27348      3119.12800
  -3556279.19507  20666755.22707  -2755120.36348  20666753.19548      2068.83600
  -4487278.52006  22965380.47706  -3479805.54347  22965378.28547      2728.35800
     70367.50007  20454897.26607     54550.72349  20454894.31349      -257.66700
  -1783267.56605  23815839.42205  -1376025.27747  23815834.06347      4090.91500
  -2553904.50806  23975224.53906  -1989002.00046  23975221.97346      1487.33000
  -2339105.83207  21487262.57807  -1811134.15248  21487256.97348      1118.15800
   1988741.19507  21686647.23407   1541469.72348  21686644.52348     -1628.69800
 08 11  4  0 39  0.0000000  0  8  3  6 13 16 19 21 23 31
  -5045804.37506  21055957.35906  -3913136.99648  21055954.98448      3112.48900
  -3587196.30107  20660872.20307  -2779211.62148  20660869.41448      2061.14000
  -4528088.85506  22957614.67206  -3511605.80147  22957612.59447      2720.68900
     74289.94107  20455643.60207     57607.16849  20455640.62949      -261.49600
  -1844600.55905  23804167.35905  -1423817.19547  23804162.82847      4088.86600
  -2576123.66006  23970996.42206  -2006315.62146  23970993.59446      1481.27700
  -2355726.80507  21484099.33607  -1824085.55948  21484094.46548      1108.06500
   2013250.14107  21691311.20307   1560567.57448  21691308.40648     -1633.93000
 08 11  4  0 39 15.0000000  0  8  3  6 13 16 19 21 23 31
  -5092391.86306  21047091.85206  -3949438.93048  21047090.10948      3105.83300
  -3617997.71507  20655010.93807  -2803212.71948  20655008.10948      2053.42800
  -4568784.03106  22949870.35206  -3543316.32447  22949868.03147      2713.01200
     78269.59807  20456400.78907     60708.20749  20456397.72349      -265.31000
  -1905902.67605  23792502.32805  -1471585.06647  23792497.37147      4086.80800
  -2598251.73406  23966786.03906  -2023558.28546  23966782.67246      1475.20500
  -2372196.34007  21480965.70307  -1836918.96948  21480960.59048      1097.96900
   2037837.24207  21695990.17207   1579726.34448  21695986.89848     -1639.14000
 08 11  4  0 39 30.0000000  0  8  3  6 13 16 19 21 23 31
  -5138874.49607  21038246.55507  -3985659.16448  21038245.60248      3098.84200
  -3648678.76207  20649172.32807  -2827120.02748  20649170.11348      2045.40300
  -4609358.59006  22942149.75806  -3574932.85547  22942146.93847      2704.97100
     82311.14507  20457169.68007     63857.46549  20457166.66849      -269.43600
  -1967168.75805  23780843.72705  -1519324.85947  23780839.32047      4084.40500
  -2620283.70706  23962593.78906  -2040726.07447  23962590.25847      1468.79800
  -2388509.69107  21477861.03107  -1849630.68048  21477856.64848      1087.55700
   2062507.25407  21700684.59407   1598949.71948  21700681.39848     -1644.66700
 08 11  4  0 39 45.0000000  0  8  3  6 13 16 19 21 23 31
  -5185255.28907  21029420.48407  -4021800.04748  21029419.38748      3092.05300
  -3679242.43807  20643356.44507  -2850935.86748  20643354.48048      2037.57800
  -4649815.58206  22934451.03906  -3606457.78147  22934448.17647      2697.13300
     86411.34407  20457949.97707     67052.43449  20457947.02049      -273.34700
  -2028401.77705  23769190.85905  -1567038.88347  23769187.37947      4082.20100
  -2642222.55106  23958418.44506  -2057821.25847  23958415.29747      1462.59000
  -2404670.00406  21474785.96106  -1862223.13748  21474782.02348      1077.35400
   2087257.01607  21705394.34407   1618235.25048  21705391.59848     -1649.98400
 08 11  4  0 40  0.0000000  0  8  3  6 13 16 19 21 23 31
  -5231533.41407  21020613.99207  -4057860.92248  21020612.66448      3085.20800
  -3709687.92207  20637563.21107  -2874659.61349  20637560.98849      2029.69900
  -4690154.01606  22926774.98406  -3637890.32047  22926772.06647      2689.22900
     90570.71907  20458741.41407     70293.50049  20458738.48049      -277.29200
  -2089600.70705  23757545.26605  -1614726.35547  23757541.97347      4079.92900
  -2664067.35906  23954262.19506  -2074843.17647  23954259.37147      1456.32100
  -2420676.34806  21471739.80506  -1874695.62548  21471736.20348      1067.09000
   2112087.19507  21710119.64107   1637583.42648  21710116.51648     -1655.34500
 08 11  4  0 40 15.0000000  0  8  3  6 13 16 19 21 23 31
  -5277710.13706  21011826.96906  -4093842.77748  21011825.15648      3078.44800
  -3740016.72707  20631791.85907  -2898292.44949  20631789.71949      2021.92000
  -4730375.32006  22919120.75006  -3669231.60247  22919118.13747      2681.42000
     94787.56607  20459544.04707     73579.36349  20459540.97349      -281.12300
  -2150766.90605  23745905.75805  -1662388.29347  23745902.38347      4077.74700
  -2685819.56306  23950122.11706  -2091792.94147  23950119.33247      1450.14700
  -2436530.35206  21468722.83606  -1887049.39148  21468719.39548      1056.93400
   2136996.09407  21714859.70307   1656992.94949  21714856.89849     -1660.59300
 08 11  4  0 40 30.0000000  0  8  3  6 13 16 19 21 23 31
  -5323782.02707  21003059.89807  -4129742.94948  21003058.32448      3071.45900
  -3770225.48807  20626042.89807  -2921831.73049  20626040.92249      2013.91700
  -4770475.90606  22911489.92206  -3700478.79347  22911487.66447      2673.37200
     99064.98007  20460357.94507     76912.40649  20460355.16449      -285.16100
  -2211896.84805  23734272.60205  -1710022.00047  23734269.86347      4075.32900
  -2707475.71506  23946002.27306  -2108667.88347  23945998.16447      1443.74300
  -2452228.75007  21465735.84407  -1899281.92648  21465731.95348      1046.56000
   2161986.94907  21719615.48407   1676466.33649  21719612.82849     -1666.05700
 08 11  4  0 40 45.0000000  0  8  3  6 13 16 19 21 23 31
  -5369751.04707  20994312.22707  -4165562.96148  20994310.76648      3064.60100
  -3800316.42607  20620316.85907  -2945279.20749  20620314.87949      2006.06300
  -4810457.74606  22903881.15606  -3731633.46547  22903879.43847      2665.45600
    103400.47307  20461182.56307     80290.70749  20461180.12549      -289.03300
  -2272992.47305  23722646.97705  -1757628.97747  23722644.09847      4073.04200
  -2729037.89106  23941898.60906  -2125469.55547  23941894.89547      1437.47800
  -2467773.72306  21462777.16406  -1911394.89848  21462772.94948      1036.33200
   2187057.36307  21724386.25007   1696001.71549  21724383.42249     -1671.36100
 08 11  4  0 41  0.0000000  0  8  3  6 13 16 19 21 23 31
  -5415616.81607  20985584.44507  -4201302.52348  20985582.70748      3057.71800
  -3830289.12507  20614613.24207  -2968634.56349  20614610.84049      1998.18000
  -4850320.27306  22896296.14106  -3762695.18847  22896293.56647      2657.50200
    107794.37107  20462018.78907     83714.52749  20462016.52049      -292.92700
  -2334053.27705  23711027.00005  -1805208.82047  23711024.23847      4070.72000
  -2750505.43806  23937813.39106  -2142197.50046  23937810.52046      1431.17000
  -2483164.87106  21459848.78906  -1923388.01248  21459844.52348      1026.07700
   2212207.65607  21729172.14107   1715599.34449  21729169.52749     -1676.68600
 08 11  4  0 41 15.0000000  0  9  3  6 13 16 19 21 23 25 31
  -5461378.69907  20976876.32807  -4236961.14148  20976874.30548      3050.79200
  -3860143.09007  20608932.38307  -2991897.39149  20608930.52749      1990.26400
  -4890062.78506  22888733.25806  -3793663.37547  22888730.28147      2649.50100
    112246.87107  20462866.28907     87184.02049  20462863.22749      -296.83300
  -2395078.71105  23699414.72705  -1852761.09047  23699411.69547      4068.36200
  -2771877.84006  23933746.67206  -2158851.32447  23933743.64547      1424.82700
  -2498401.73806  21456949.50806  -1935260.89848  21456944.78948      1015.79100
   -148701.02716  24476726.60906    -99835.80156  24476724.10546         0.00000
   2237438.25407  21733973.39807   1735259.53549  21733970.58649     -1682.04000
 08 11  4  0 41 30.0000000  0  9  3  6 13 16 19 21 23 25 31
  -5507038.22307  20968187.60207  -4272539.98048  20968185.80548      3043.96800
  -3889879.92207  20603273.65607  -3015068.95349  20603272.17649      1982.45500
  -4929686.82806  22881192.94506  -3824539.27347  22881190.79747      2641.60300
    116756.14807  20463724.45307     90697.73849  20463721.33249      -300.61800
  -2456069.96505  23687807.96105  -1900286.74247  23687804.91047      4066.08400
  -2793156.64806  23929697.27306  -2175432.20746  23929694.85246      1418.58700
  -2513486.09806  21454079.18006  -1947014.94948  21454074.31648      1005.62400
   -200307.96905  24466905.84405   -140049.01246  24466904.08646      3440.46300
   2262747.16007  21738789.34407   1754980.75849  21738786.76649     -1687.26000
 08 11  4  0 41 45.0000000  0  9  3  6 13 16 19 21 23 25 31
  -5552593.07007  20959518.88307  -4308037.26249  20959517.05949      3036.99000
  -3919497.52707  20597637.28907  -3038147.59449  20597636.35949      1974.50700
  -4969190.12106  22873675.97706  -3855321.05547  22873673.45747      2633.55300
    121324.21907  20464593.57007     94257.27049  20464590.00449      -304.53800
  -2517024.80905  23676209.20305  -1947784.02347  23676205.12147      4063.65600
  -2814339.54705  23925666.01605  -2191938.33246  23925663.86746      1412.19300
  -2528415.62507  21451237.88307  -1958648.33648  21451233.09048       995.30200
   -251913.61706  24457085.56306   -180261.19146  24457083.09046      3440.37700
   2288136.42207  21743620.71907   1774764.57848  21743618.04748     -1692.61700
 08 11  4  0 42  0.0000000  0  9  3  6 13 16 19 21 23 25 31
  -5598043.78507  20950869.70307  -4343453.41049  20950867.75049      3030.04800
  -3948996.32807  20592024.03107  -3061133.67249  20592022.46949      1966.58700
  -5008573.01206  22866181.36706  -3886009.01647  22866178.83647      2625.52600
    125950.19907  20465474.30507     97861.92249  20465470.63749      -308.39900
  -2577943.65205  23664616.02305  -1995253.24647  23664612.78947      4061.25600
  -2835426.96905  23921652.85905  -2208370.03946  23921651.58246      1405.82800
  -2543190.91006  21448426.40606  -1970161.54348  21448421.60948       985.01900
   -303518.55106  24447265.28106   -220472.80546  24447263.34046      3440.32900
   2313605.44907  21748467.53107   1794610.55548  21748464.62548     -1697.93500
 08 11  4  0 42 15.0000000  0  9  3  6 13 16 19 21 23 25 31
  -5643390.41407  20942240.29707  -4378788.44149  20942238.58649      3023.10900
  -3978376.62107  20586433.09407  -3084027.41849  20586431.14549      1958.68600
  -5047835.42206  22858710.13306  -3916603.08647  22858706.91447      2617.49400
    130633.49607  20466365.67207    101511.25049  20466362.03549      -312.22000
  -2638826.46905  23653031.13305  -2042694.40247  23653026.80547      4058.85400
  -2856419.05105  23917657.71905  -2224727.49646  23917656.96546      1399.47200
  -2557812.43807  21445644.43807  -1981554.93848  21445639.80548       974.76800
   -355122.91405  24437445.64105   -260684.00046  24437443.55546      3440.29100
   2339153.71907  21753328.90607   1814518.28948  21753326.62948     -1703.21800
 08 11  4  0 42 30.0000000  0  9  3  6 13 16 19 21 23 25 31
  -5688631.25007  20933631.66407  -4414041.03948  20933630.02048      3016.05600
  -4007637.04307  20580865.17207  -3106827.73449  20580863.21949      1950.69500
  -5086975.60206  22851261.82806  -3947101.92247  22851258.79747      2609.34500
    135375.54707  20467267.78107    105206.35249  20467264.77749      -316.13700
  -2699671.64805  23641452.28105  -2090106.24247  23641448.30947      4056.34500
  -2877314.35905  23913682.21105  -2241009.55546  23913680.30146      1393.02100
  -2572278.56607  21442891.07007  -1992827.23448  21442886.92248       964.40900
   -406725.12105  24427626.25005   -300893.51246  24427624.13346      3440.14700
   2364782.71107  21758205.96907   1834488.90648  21758203.57448     -1708.59900
 08 11  4  0 42 45.0000000  0  9  3  6 13 16 19 21 23 25 31
  -5733767.30907  20925042.54707  -4449211.99249  20925040.66049      3009.07100
  -4036778.58207  20575319.82807  -3129535.43449  20575317.56649      1942.76900
  -5125995.17606  22843836.87506  -3977506.77047  22843833.53947      2601.30500
    140174.91007  20468181.00007    108946.12149  20468177.96949      -319.95800
  -2760480.21905  23629881.01605  -2137489.55547  23629876.29347      4053.90500
  -2898113.46106  23909723.91406  -2257216.64846  23909721.96546      1386.60700
  -2586590.64106  21440167.34406  -2003979.50048  21440163.30948       954.13800
   -458326.39805  24417806.72705   -341102.32046  24417804.51246      3440.08500
   2390490.89107  21763097.63307   1854521.25448  21763095.18448     -1713.87900
 08 11  4  0 43  0.0000000  0  9  3  6 13 16 19 21 23 25 31
  -5778798.77707  20916473.14107  -4484301.43849  20916471.74249      3002.09800
  -4065801.48807  20569797.03107  -3152150.68449  20569794.91849      1934.86000
  -5164893.31306  22836434.50806  -4007817.01247  22836431.51247      2593.20900
    145031.30107  20469105.44507    112730.32449  20469102.38349      -323.75900
  -2821252.08605  23618316.72705  -2184844.26247  23618311.85247      4051.45800
  -2918816.61706  23905784.81306  -2273349.00446  23905781.46146      1380.21000
  -2600748.79306  21437473.70306  -2015011.83248  21437469.19148       943.87700
   -509926.73006  24407987.37506   -381310.35546  24407984.83246      3440.02200
   2416278.14807  21768004.85207   1874615.21148  21768002.56648     -1719.15100
 08 11  4  0 43 15.0000000  0  9  3  6 13 16 19 21 23 25 31
  -5823725.22307  20907924.08607  -4519309.05149  20907922.27349      2995.09600
  -4094705.29307  20564296.31307  -3174673.11749  20564295.09849      1926.92000
  -5203669.37906  22829054.90606  -4038032.12547  22829053.19547      2585.07100
    149944.86707  20470040.00807    116559.07849  20470037.34049      -327.57100
  -2881986.65605  23606758.71905  -2232169.91047  23606753.98847      4048.97100
  -2939423.35506  23901862.74206  -2289406.18846  23901859.39546      1373.78300
  -2614752.62107  21434808.74207  -2025923.91448  21434804.68048       933.58900
   -561525.60206  24398168.53906   -421517.23446  24398166.43046      3439.92500
   2442144.77707  21772927.25807   1894771.01248  21772924.95348     -1724.44200
 08 11  4  0 43 30.0000000  0  9  3  6 13 16 19 21 23 25 31
  -5868546.80907  20899394.41407  -4554234.94948  20899392.66448      2988.10600
  -4123490.51607  20558818.72707  -3197103.16849  20558817.22349      1919.01500
  -5242323.78106  22821700.18006  -4068152.44147  22821697.38347      2576.96000
    154915.02007  20470985.99207    120431.91449  20470982.89149      -331.34300
  -2942684.11306  23595208.54706  -2279466.62947  23595204.52747      4046.49700
  -2959934.02706  23897959.96106  -2305388.54346  23897956.19946      1367.37800
  -2628602.53907  21432173.12507  -2036716.05548  21432168.76648       923.32800
   -613123.29706  24388349.68806   -461723.23046  24388348.41446      3439.84600
   2468090.08607  21777864.15607   1914988.13748  21777862.02748     -1729.68700
 08 11  4  0 43 45.0000000  0  9  3  6 13 16 19 21 23 25 31
  -5913261.84007  20890885.64107  -4589077.83248  20890883.94148      2981.00200
  -4152155.46907  20553364.11707  -3219439.48449  20553362.68849      1910.99700
  -5280854.97706  22814367.55506  -4098176.75847  22814364.72347      2568.74600
    159943.05107  20471942.32007    124349.84849  20471939.74249      -335.20200
  -3003342.78905  23583665.85205  -2326733.13347  23583661.93047      4043.91200
  -2980347.03106  23894075.47706  -2321294.78146  23894072.34046      1360.86700
  -2642297.09407  21429567.29707  -2047387.13348  21429563.05948       912.97000
   -664718.32806  24378531.29706   -501927.15646  24378529.47746      3439.66900
   2494115.47707  21782817.18807   1935267.64548  21782814.48848     -1735.02600
 08 11  4  0 44  0.0000000  0  9  3  6 13 16 19 21 23 25 31
  -5957869.86307  20882396.84407  -4623837.31348  20882395.34048      2973.86800
  -4180699.97307  20547932.19507  -3241681.94549  20547930.84049      1902.96700
  -5319262.60906  22807059.15606  -4128104.78947  22807056.32447      2560.50900
    165028.94907  20472910.46107    128312.88749  20472907.22349      -339.06000
  -3063962.14106  23572130.43806  -2373968.99247  23572127.18047      4041.29000
  -3000661.94906  23890209.73406  -2337124.57447  23890206.75847      1354.32800
  -2655836.12507  21426991.25807  -2057937.03148  21426986.67648       902.60200
   -716310.26606  24368713.60206   -542128.65246  24368712.30146      3439.46300
   2520221.20707  21787785.07807   1955609.76248  21787782.73048     -1740.38200
 08 11  4  0 44 15.0000000  0  9  3  6 13 16 19 21 23 25 31
  -6002370.71507  20873928.28107  -4658513.28548  20873927.26648      2966.72300
  -4209124.06307  20542523.57807  -3263830.58249  20542521.26249      1894.93900
  -5357546.55906  22799773.94506  -4157936.42647  22799771.61747      2552.26300
    170172.38307  20473889.18007    132320.75849  20473885.96149      -342.89600
  -3124542.25006  23560602.38306  -2421174.28147  23560598.57047      4038.67400
  -3020878.75006  23886362.24206  -2352877.92647  23886360.37547      1347.78700
  -2669219.79707  21424444.34407  -2068365.87148  21424439.47348       892.24500
   -767899.13705  24358896.10205   -582327.74246  24358894.93046      3439.25800
   2546406.79707  21792768.06307   1976014.10248  21792765.64848     -1745.70600
 08 11  4  0 44 30.0000000  0  9  3  6 13 16 19 21 23 25 31
  -6046768.55507  20865479.93007  -4693109.00449  20865477.91049      2959.85600
  -4237431.73407  20537136.50807  -3285888.50849  20537133.93049      1887.17800
  -5395710.26606  22792511.63306  -4187674.38347  22792509.39847      2544.24700
    175369.43407  20474878.28907    136370.41849  20474875.27049      -346.47000
  -3185086.81606  23549080.87506  -2468351.85947  23549077.37147      4036.30400
  -3041001.27706  23882533.64106  -2368557.81346  23882531.53946      1341.50200
  -2682451.99607  21421925.56307  -2078676.67248  21421921.18848       882.14700
   -819488.80505  24349079.76605   -622527.48046  24349077.81646      3439.31100
   2572668.36707  21797765.89807   1996477.64848  21797763.20348     -1750.77100
 08 11  4  0 44 45.0000000  0  9  3  6 13 16 19 21 23 25 31
  -6091059.93407  20857051.75807  -4727621.76649  20857049.51249      2952.75900
  -4265619.74607  20531771.99207  -3307853.20349  20531771.17649      1879.20100
  -5433750.86706  22785272.65606  -4217316.39547  22785270.36347      2536.04000
    180622.96507  20475877.93807    140464.07449  20475874.45749      -350.23500
  -3245592.39106  23537567.01606  -2515499.05947  23537563.47747      4033.70500
  -3061026.07406  23878723.30506  -2384161.57047  23878721.06647      1334.98600
  -2695529.53907  21419437.13307  -2088866.97748  21419432.19148       871.83600
   -871076.02305  24339262.24205   -662725.29346  24339260.88746      3439.14800
   2599008.89507  21802778.32807   2017002.73048  21802775.14148     -1756.03500
 08 11  4  0 45  0.0000000  0  9  3  6 13 16 19 21 23 25 31
  -6135245.64508  20848643.33608  -4762052.19549  20848641.89549      2945.71400
  -4293688.95307  20526431.16407  -3329725.29749  20526429.58249      1871.28000
  -5471668.32406  22778056.95306  -4246862.47347  22778054.66447      2527.83000
    185931.94907  20476888.27307    144600.93849  20476884.96949      -353.93200
  -3306059.55106  23526059.80506  -2562616.31647  23526056.38347      4031.14400
  -3080953.83206  23874931.21906  -2399689.68447  23874928.51647      1328.51700
  -2708453.12107  21416978.18007  -2098937.30948  21416973.52348       861.57200
   -922661.37106  24329446.21106   -702921.67246  24329444.05546      3439.02300
   2625427.34007  21807805.24207   2037588.52348  21807802.44148     -1761.23000
 08 11  4  0 45 15.0000000  0  9  3  6 13 16 19 21 23 25 31
  -6179319.12507  20840256.82807  -4796395.16849  20840255.00449      2938.23200
  -4321633.00407  20521113.28107  -3351499.89149  20521112.00849      1862.93700
  -5509456.44906  22770866.47706  -4276307.76647  22770863.65247      2519.20800
    191302.33207  20477909.98407    148785.65649  20477907.07449      -358.02600
  -3366481.69906  23514562.21906  -2609698.50047  23514558.14847      4028.14300
  -3100778.18806  23871158.63306  -2415137.24247  23871155.18047      1321.62400
  -2721216.74207  21414549.22707  -2108882.99648  21414544.29748       850.90800
   -974238.57806  24319631.85206   -743111.73046  24319629.25046      3438.48000
   2651930.00807  21812848.31307   2058239.93048  21812845.76248     -1766.84500
 08 11  4  0 45 30.0000000  0  9  3  6 13 16 19 21 23 25 31
  -6223282.93007  20831890.46107  -4830652.66449  20831889.18849      2930.92000
  -4349454.61707  20515819.13307  -3373179.07049  20515817.55149      1854.77400
  -5547117.82806  22763699.43006  -4305654.29347  22763697.34847      2510.75900
    196731.44907  20478943.03107    153016.12949  20478940.24649      -361.94100
  -3426861.57806  23503072.19506  -2656747.74647  23503068.68447      4025.32500
  -3120501.67606  23867404.83606  -2430506.19947  23867401.52347      1314.89900
  -2733823.14807  21412150.25807  -2118706.16448  21412145.51648       840.42700
  -1025810.28505  24309817.98405   -783297.45746  24309815.00046      3438.11400
   2678513.90607  21817906.64807   2078954.63748  21817904.37948     -1772.26000
 08 11  4  0 45 45.0000000  0  9  3  6 13 16 19 21 23 25 31
  -6267137.81607  20823545.35207  -4864825.29749  20823543.48849      2923.65900
  -4377154.55107  20510548.10207  -3394763.43849  20510546.80149      1846.66200
  -5584653.14806  22756556.60206  -4334902.59447  22756554.96547      2502.35500
    202218.21907  20479987.35907    157291.54349  20479984.88749      -365.78500
  -3487199.86706  23491590.74206  -2703764.58647  23491585.87947      4022.55300
  -3140125.01606  23863670.98406  -2445797.10247  23863667.46947      1308.22300
  -2746273.03907  21409781.12507  -2128407.38748  21409776.69948       829.99300
  -1077377.12106  24300005.64106   -823479.40246  24300002.53146      3437.78900
   2705178.18007  21822981.35907   2099731.97748  21822978.21948     -1777.61800
 08 11  4  0 46  0.0000000  0  9  3  6 13 16 19 21 23 25 31
  -6310883.15207  20815221.19507  -4898912.57849  20815218.85249      2916.35600
  -4404732.21107  20505299.92207  -3416252.51649  20505298.45749      1838.51100
  -5622061.79706  22749438.08606  -4364052.18847  22749436.24247      2493.91000
    207763.09007  20481042.74207    161612.21549  20481039.79349      -369.65800
  -3547495.47306  23480116.31306  -2750748.16447  23480112.60247      4019.70700
  -3159647.52306  23859955.28106  -2461009.42647  23859952.80547      1301.50100
  -2758565.84807  21407441.71907  -2137986.19148  21407437.74248       819.52100
  -1128938.34806  24290192.69506   -863656.96546  24290190.55546      3437.41500
   2731923.42607  21828071.13307   2120572.39848  21828067.50048     -1783.01600
 08 11  4  0 46 15.0000000  0  9  3  6 13 16 19 21 23 25 31
  -6354520.99607  20806916.93807  -4932916.08649  20806914.92649      2909.19000
  -4432190.05907  20500075.03107  -3437648.22749  20500073.50849      1830.52300
  -5659345.40606  22742343.41406  -4393104.36347  22742341.69947      2485.57400
    213363.39807  20482108.22707    165976.08249  20482105.46149      -373.35400
  -3607750.67606  23468650.06306  -2797700.26647  23468645.45347      4017.01400
  -3179071.44105  23856259.06305  -2476144.94547  23856256.73847      1294.92800
  -2770704.21507  21405131.87507  -2147444.66448  21405128.21148       809.22400
  -1180496.34806  24280382.21106   -903832.01246  24280378.43446      3437.20000
   2758746.89807  21833174.90607   2141473.78948  21833172.50448     -1788.23200
 08 11  4  0 46 30.0000000  0  9  3  6 13 16 19 21 23 25 31
  -6398050.73007  20798633.43007  -4966835.35549  20798631.78149      2901.98200
  -4459527.23807  20494873.24207  -3458949.93049  20494871.45349      1822.47900
  -5696503.37506  22735272.88306  -4422058.63347  22735270.98447      2477.19800
    219019.63707  20483184.68807    170383.54349  20483181.58649      -377.08300
  -3667964.63706  23457191.74206  -2844620.22747  23457187.64147      4014.26400
  -3198395.90606  23852582.25006  -2491202.96147  23852579.52747      1288.29800
  -2782687.43006  21402851.28906  -2156782.23448  21402847.75048       798.88100
  -1232050.28106  24270571.91406   -944003.87946  24270569.22746      3436.92900
   2785649.27007  21838294.40607   2162436.66848  21838291.29748     -1793.49100
 08 11  4  0 46 45.0000000  0  9  3  6 13 16 19 21 23 25 31
  -6441470.95307  20790370.93807  -5000669.29349  20790369.15249      2894.68200
  -4486742.73007  20489693.93807  -3480156.80549  20489691.76249      1814.36600
  -5733534.20306  22728225.98406  -4450913.82447  22728223.85947      2468.72200
    224732.86707  20484271.72707    174835.40249  20484268.61749      -380.88200
  -3728135.87906  23445742.25806  -2891506.91447  23445737.94147      4011.41600
  -3217619.73006  23848923.21106  -2506182.55546  23848921.35946      1281.58800
  -2794514.48807  21400600.78907  -2165998.14548  21400596.35548       788.47100
  -1283598.88306  24260762.37506   -984171.61346  24260759.64146      3436.57300
   2812631.50407  21843428.50807   2183461.78148  21843425.65248     -1798.81600
 08 11  4  0 47  0.0000000  0  9  3  6 13 16 19 21 23 25 31
  -6484778.77307  20782129.60207  -5034415.63349  20782128.67649      2887.18800
  -4513833.79307  20484538.93807  -3501266.72749  20484537.02749      1806.07100
  -5770435.18006  22721203.59406  -4479667.82847  22721201.32447      2460.06500
    230505.42207  20485370.17207    179333.50049  20485367.00449      -384.83700
  -3788261.72306  23434300.82006  -2938358.20747  23434296.04747      4008.39000
  -3236739.94506  23845285.25806  -2521081.40647  23845283.04747      1274.68100
  -2806182.44907  21398380.85907  -2175090.07048  21398376.27748       777.86400
  -1335139.32806  24250954.95306  -1024332.95746  24250952.00046      3436.03000
   2839696.12107  21848578.93807   2204551.07048  21848576.15648     -1804.30800
 08 11  4  0 47 15.0000000  0  9  3  6 13 16 19 21 23 25 31
  -6527977.59807  20773908.80507  -5068077.04749  20773907.90649      2879.92200
  -4540803.62107  20479406.64107  -3522282.17249  20479405.27049      1797.98900
  -5807209.44106  22714205.77306  -4508323.08647  22714203.93447      2451.61700
    236334.10907  20486479.57807    183875.33649  20486476.08249      -388.57900
  -3848345.04306  23422867.60906  -2985176.36747  23422863.09047      4005.55500
  -3255759.87106  23841665.87506  -2535902.14147  23841663.84847      1267.99500
  -2817694.68006  21396190.42206  -2184060.64848  21396185.55148       767.48200
  -1386674.85506  24241147.55506  -1064490.51246  24241144.85946      3435.70200
   2866839.89107  21853744.59407   2225702.03948  21853741.55548     -1809.58500
 08 11  4  0 47 30.0000000  0  9  3  6 13 16 19 21 23 25 31
  -6571068.09407  20765709.28907  -5101654.06349  20765707.91049      2872.70000
  -4567653.03907  20474297.48407  -3543203.79349  20474295.60549      1789.96100
  -5843857.27006  22707231.73406  -4536879.81647  22707230.01247      2443.18900
    242217.87907  20487598.93807    188460.07449  20487595.79749      -392.25100
  -3908386.40206  23411441.64806  -3031961.83247  23411437.71947      4002.75700
  -3274680.01606  23838065.64106  -2550645.11346  23838062.99646      1261.34300
  -2829051.87507  21394029.05507  -2192910.41448  21394024.66048       757.14600
  -1438205.95706  24231341.82806  -1104644.62146  24231338.65246      3435.40700
   2894061.87107  21858924.66407   2246913.96948  21858921.32848     -1814.79900
 08 11  4  0 47 45.0000000  0  9  3  6 13 16 19 21 23 25 31
  -6614049.10207  20757530.64807  -5135145.74649  20757529.06649      2865.40100
  -4594381.47307  20469211.32007  -3564031.15649  20469209.64149      1781.89600
  -5880378.09806  22700282.07006  -4565337.61347  22700280.03147      2434.72200
    248156.98807  20488729.27307    193087.96149  20488726.31349      -395.94100
  -3968385.12106  23400024.17206  -3078714.06647  23400019.98047      3999.91500
  -3293499.79706  23834484.36706  -2565309.86747  23834481.99647      1254.65200
  -2840253.62107  21391897.35907  -2201639.04348  21391892.67248       746.78300
  -1489732.05506  24221536.82806  -1144794.82046  24221533.86746      3435.07300
   2921362.37507  21864119.89107   2268187.07048  21864116.07448     -1820.03400
 08 11  4  0 48  0.0000000  0  9  3  6 13 16 19 21 23 25 31
  -6656918.44107  20749372.68007  -5168550.43049  20749370.81349      2857.95600
  -4620986.81607  20464148.81307  -3584762.58649  20464147.34449      1773.69000
  -5916769.74606  22693356.89106  -4593694.71947  22693354.75847      2426.11000
    254153.48007  20489870.18007    197760.55149  20489866.97749      -399.76600
  -4028338.73806  23388615.81306  -3125431.18047  23388611.51247      3996.90800
  -3312216.83606  23830922.82806  -2579894.56646  23830920.70346      1247.80300
  -2851297.90607  21389795.86707  -2210244.98048  21389790.54748       736.28600
  -1541250.96906  24211732.97706  -1184939.41847  24211729.28547      3434.59400
   2948743.33207  21869330.23407   2289522.89148  21869327.21948     -1825.39700
 08 11  4  0 48 15.0000000  0  9  3  6 13 16 19 21 23 25 31
  -6699677.32407  20741235.46107  -5201869.03549  20741233.75849      2850.59200
  -4647470.07007  20459109.05507  -3605398.88749  20459106.70349      1765.55000
  -5953032.96506  22686456.79706  -4621951.79747  22686454.17247      2417.54800
    260206.03107  20491022.03107    202476.81349  20491018.95349      -403.50300
  -4088248.29306  23377215.21906  -3172113.93447  23377211.19947      3993.97000
  -3330832.19906  23827380.10206  -2594400.02747  23827378.37147      1241.02400
  -2862185.83206  21387723.84406  -2218729.08248  21387718.96948       725.86200
  -1592763.60206  24201930.28906  -1225079.13747  24201927.47747      3434.17600
   2976203.57407  21874555.38307   2310920.46548  21874552.52348     -1830.68300
 08 11  4  0 48 30.0000000  0  9  3  6 13 16 19 21 23 25 31
  -6742325.62107  20733120.10907  -5235101.46948  20733118.36748      2843.22000
  -4673831.22707  20454092.64107  -3625940.05149  20454090.73449      1757.41000
  -5989167.50806  22679580.26606  -4650108.58247  22679577.85247      2408.97000
    266314.57407  20492184.44507    207236.71549  20492180.81649      -407.23600
  -4148113.46506  23365823.10906  -3218762.11347  23365818.69947      3991.01100
  -3349345.64506  23823857.53106  -2608826.08647  23823854.67247      1234.23000
  -2872917.41806  21385681.56306  -2227091.36348  21385676.80148       715.43900
  -1644269.83206  24192128.88306  -1265213.83646  24192126.34046      3433.74900
   3003743.06307  21879796.26607   2332379.79748  21879793.65648     -1835.96600
 08 11  4  0 48 45.0000000  0  9  3  6 13 16 19 21 23 25 31
  -6784862.89107  20725025.50807  -5268247.39149  20725024.09049      2835.81800
  -4700070.37507  20449099.27307  -3646386.12149  20449097.42649      1749.27700
  -6025173.37506  22672728.46106  -4678165.10247  22672726.32447      2400.39100
    272478.93007  20493357.69507    212040.10249  20493353.97349      -410.95700
  -4207934.03906  23354439.70306  -3265375.53947  23354435.60947      3988.03800
  -3367757.04706  23820354.10906  -2623172.63747  23820351.20347      1227.42700
  -2883492.71906  21383669.17206  -2235331.85948  21383664.04748       705.02000
  -1695769.53106  24182329.09406  -1305343.46546  24182326.65246      3433.31300
   3031361.69907  21885051.50007   2353900.78948  21885049.63748     -1841.24200
 08 11  4  0 49  0.0000000  0  9  3  6 13 16 19 21 23 25 31
  -6827290.05108  20716952.17208  -5301307.51249  20716950.26649      2828.47700
  -4726188.01207  20444129.20307  -3666737.53549  20444126.52349      1741.17600
  -6061050.77006  22665901.30506  -4706121.51247  22665899.17647      2391.82600
    278698.09807  20494540.96907    216886.20349  20494537.84049      -414.61100
  -4267710.37106  23343064.77306  -3311954.48847  23343060.50447      3985.08900
  -3386067.09406  23816869.90606  -2637440.19947  23816866.96147      1220.67000
  -2893912.43806  21381686.00806  -2243451.12548  21381681.12148       694.64800
  -1747263.25006  24172529.39806  -1345468.42646  24172527.44146      3432.91500
   3059058.66407  21890322.32007   2375482.81348  21890319.82448     -1846.46400
 08 11  4  0 49 15.0000000  0  9  3  6 13 16 19 21 23 25 31
  -6869608.20707  20708898.96107  -5334282.68449  20708897.28549      2821.21000
  -4752185.79707  20439182.23407  -3686995.53149  20439179.65649      1733.18600
  -6096801.23406  22659098.48406  -4733979.02747  22659096.13347      2383.36400
