     2              OBSERVATION DATA                        RINEX VERSION / TYPE
DAT2RINW 3.10 001   .                   04NOV08 22:57:28    PGM / RUN BY / DATE 
.                   .                                       OBSERVER / AGENCY   
0220390489          TRIMBLE 5700        Nav 2.30 Sig 2.30   REC # / TYPE / VERS 
                    TRM39105.00     NONE                    ANT # / TYPE        
----------------------------------------------------------- COMMENT             
Offset from BOTTOM OF ANTENNA to PHASE CENTER is  46.0 mm   COMMENT             
----------------------------------------------------------- COMMENT             
0174                                                        MARKER NAME
0174                                                        MARKER NUMBER       
 -3122234.1273  3971384.9353  3881107.0157                  APPROX POSITION XYZ 
        1.3762        0.0000        0.0000                  ANTENNA: DELTA H/E/N
*** Above antenna height is from mark to BOTTOM OF ANTENNA. COMMENT             
----------------------------------------------------------- COMMENT             
Note: The above offsets are CORRECTED.                      COMMENT             
Raw Offsets: H=      1.4180 E=      0.0000 N=      0.0000   COMMENT             
----------------------------------------------------------- COMMENT             
     1     1     0                                          WAVELENGTH FACT L1/2
     4    L1    C1    L2    P2                              # / TYPES OF OBSERV 
    30                                                      INTERVAL            
  2008    11     4     0    30    0.000000                  TIME OF FIRST OBS   
  2008    11     4     8    40    0.000000                  TIME OF LAST OBS    
    19                                                      # OF SATELLITES     
     3   645   645   645   645                              PRN / # OF OBS      
     4   202   202   202   202                              PRN / # OF OBS      
     6   573   573   573   573                              PRN / # OF OBS      
     7   533   533   533   533                              PRN / # OF OBS      
     8   450   450   450   450                              PRN / # OF OBS      
    11   691   691   691   691                              PRN / # OF OBS      
    13   379   379   379   379                              PRN / # OF OBS      
    16   467   467   467   467                              PRN / # OF OBS      
    17   369   369   369   369                              PRN / # OF OBS      
    19   734   734   734   734                              PRN / # OF OBS      
    20   408   408   408   408                              PRN / # OF OBS      
    21   256   256   256   256                              PRN / # OF OBS      
    23   411   411   411   411                              PRN / # OF OBS      
    25   567   567   567   567                              PRN / # OF OBS      
    27   508   508   508   508                              PRN / # OF OBS      
    28   502   502   502   502                              PRN / # OF OBS      
    29    24    24    24    24                              PRN / # OF OBS      
    31   245   245   245   245                              PRN / # OF OBS      
    32   444   444   444   444                              PRN / # OF OBS      
                                                            END OF HEADER       
 08 11  4  0 29 59.9980000  0  7  3  6 13 16 21 23 31
  -9265119.24607  20996715.97507  -7181585.94148  20996713.16648
  -7299007.61307  20489827.84207  -5668926.27048  20489824.75248
  -4591784.50806  22855618.41206  -3569483.22347  22855615.85747
  -1528308.88708  20030627.00608  -1186609.33249  20030622.92049
  -2918306.63306  23709944.88106  -2268441.17246  23709940.93246
  -5744526.90207  21225435.89607  -4458645.32848  21225430.79948
   1322946.87107  21118205.34207   1030220.70349  21118201.77549
 08 11  4  0 30 29.9980000  0  7  3  6 13 16 21 23 31
  -9378649.39507  20975111.97507  -7270051.00448  20975109.61548
  -7382274.67607  20473982.48207  -5733809.70348  20473979.68648
  -4694164.55106  22836136.22506  -3649259.87946  22836133.56146
  -1538442.25808  20028698.92808  -1194505.46549  20028694.85049
  -2982209.57006  23697784.50606  -2318235.63746  23697780.58846
  -5801223.57807  21214646.93607  -4502824.56348  21214641.74848
   1353172.24207  21123957.19307   1053772.93049  21123953.34649
 08 11  4  0 30 59.9980000  0  7  3  6 13 16 21 23 31
  -9491830.26207  20953574.71707  -7358243.87148  20953571.91248
  -7465114.89107  20458218.30307  -5798360.51249  20458215.66249
  -4796139.17605  22816730.52105  -3728720.59046  22816728.33846
  -1548345.15208  20026814.39608  -1202222.01249  20026810.22549
  -3045795.90605  23685682.87305  -2367783.42646  23685680.05746
  -5857345.53107  21203967.22507  -4546555.96948  21203962.01048
   1383700.79707  21129766.87307   1077561.39849  21129763.01449
 08 11  4  0 31 29.9980000  0  7  3  6 13 16 21 23 31
  -9604661.93407  20932103.38907  -7446164.67648  20932100.72948
  -7547529.00807  20442535.33407  -5862579.29348  20442532.91248
  -4897708.27006  22797403.46706  -3807865.35946  22797400.06846
  -1558020.67608  20024973.18608  -1209761.39149  20024969.02549
  -3109065.31605  23673643.06105  -2417084.28146  23673639.51046
  -5912893.85907  21193397.09207  -4589840.38748  21193391.69748
   1414530.23007  21135633.14607   1101584.29348  21135629.98248
 08 11  4  0 31 59.9980000  0  7  3  6 13 16 21 23 31
  -9717141.26207  20910698.92807  -7533810.89548  20910696.35048
  -7629514.50007  20426934.04507  -5926464.08649  20426931.46749
  -4998867.60206  22778153.22506  -3886690.79747  22778150.66647
  -1567468.34008  20023175.37308  -1217123.21949  20023171.58049
  -3172014.53906  23661664.85706  -2466135.61346  23661661.04146
  -5967866.03107  21182935.81807  -4632675.85548  21182930.64648
   1445662.06307  21141557.09207   1125842.86348  21141553.81448
 08 11  4  0 32 29.9980000  0  7  3  6 13 16 21 23 31
  -9829265.78907  20889362.09207  -7621180.66048  20889359.52548
  -7711070.02007  20411414.69307  -5990013.84048  20411412.03348
  -5099614.54706  22758981.81106  -3965194.90647  22758978.95547
  -1576689.09807  20021420.55307  -1224308.22749  20021416.68249
  -3234641.69906  23649747.52906  -2514935.96546  23649744.02946
  -6022260.57007  21172584.90407  -4675061.21148  21172579.95148
   1477095.74207  21147538.81807   1150336.63748  21147535.43948
 08 11  4  0 32 59.9980000  0  7  3  6 13 16 21 23 31
  -9941033.43407  20868093.79507  -7708272.32448  20868091.63548
  -7792194.24607  20395976.99007  -6053227.52048  20395974.56448
  -5199947.39106  22739888.68606  -4043376.35547  22739885.86947
  -1585683.63707  20019709.01407  -1231316.97349  20019704.97149
  -3296944.35505  23637892.08405  -2563483.46946  23637887.69746
  -6076077.01207  21162344.02107  -4716996.11348  21162339.40448
   1508831.33207  21153578.10707   1175065.65248  21153574.62748
 08 11  4  0 33 29.9980000  0  7  3  6 13 16 21 23 31
 -10052437.25407  20846894.39607  -7795080.49248  20846892.01848
  -7872881.06307  20380622.96707  -6116100.35948  20380620.54948
  -5299858.03106  22720876.60006  -4121228.78147  22720873.92447
  -1594448.17207  20018041.15407  -1238146.48849  20018037.12349
  -3358915.33206  23626098.85706  -2611772.53546  23626095.57646
  -6129309.01607  21152214.53707  -4758475.59448  21152209.31148
   1540874.00807  21159675.41207   1200033.95748  21159671.93248
 08 11  4  0 33 59.9980000  0  7  3  6 13 16 21 23 31
 -10163477.48807  20825764.21707  -7881605.36348  20825761.57248
  -7953130.87907  20365351.70907  -6178632.69149  20365349.51849
  -5399345.21506  22701944.72506  -4198751.26647  22701941.93247
  -1602985.12907  20016416.62307  -1244798.67649  20016412.46749
  -3420554.06306  23614369.52906  -2659802.69546  23614365.99046
  -6181956.98807  21142196.06807  -4799499.99648  21142190.96348
   1573221.79707  21165831.09207   1225240.00848  21165828.08848
 08 11  4  0 34 29.9980000  0  7  3  6 13 16 21 23 31
 -10274148.74207  20804704.00607  -7967842.70348  20804701.99848
  -8032939.79707  20350164.88107  -6240821.45349  20350162.27149
  -5498403.61306  22683094.90406  -4275939.59447  22683092.15847
  -1611292.43808  20014836.09208  -1251271.91849  20014831.62349
  -3481856.71906  23602704.19306  -2707570.97746  23602701.13946
  -6234017.23807  21132289.05307  -4840066.43448  21132283.99048
   1605877.26607  21172045.10707   1250685.80948  21172041.83848
 08 11  4  0 34 59.9980000  0  7  3  6 13 16 21 23 31
 -10384449.35907  20783714.41207  -8053791.22348  20783712.06148
  -8112306.89107  20335061.74807  -6302665.93849  20335059.35449
  -5597031.20706  22664326.60006  -4352792.24647  22664323.63147
  -1619371.64107  20013298.67807  -1257567.40249  20013294.38949
  -3542820.86306  23591103.22506  -2755075.52346  23591099.72146
  -6285488.96907  21122494.45907  -4880174.26648  21122489.73648
   1638839.59007  21178317.77907   1276370.72748  21178314.90048
 08 11  4  0 35 29.9980000  0  7  3  6 13 16 21 23 31
 -10494383.09407  20762795.17007  -8139453.87148  20762792.56448
  -8191237.18007  20320041.71707  -6364170.05949  20320039.76449
  -5695231.59406  22645639.98206  -4429312.01247  22645637.06447
  -1627229.49607  20011802.93607  -1263690.41849  20011799.03749
  -3603450.75405  23579566.17005  -2802319.57846  23579561.61946
  -6336377.55507  21112810.68607  -4919827.72348  21112805.55348
   1672102.93007  21184647.56807   1302290.19948  21184644.05748
 08 11  4  0 35 59.9980000  0  7  3  6 13 16 21 23 31
 -10603943.78507  20741946.31107  -8224825.82848  20741943.82648
  -8269724.78107  20305106.31807  -6425329.23049  20305103.84649
  -5792997.40606  22627035.69306  -4505493.17247  22627032.80347
  -1634862.35508  20010350.52908  -1269638.10249  20010346.67049
  -3663739.73005  23568093.07605  -2849297.95346  23568088.65046
  -6386677.18007  21103238.67807  -4959022.23448  21103234.02148
   1705671.31607  21191035.37307   1328447.35548  21191032.10448
 08 11  4  0 36 29.9980000  0  7  3  6 13 16 21 23 31
 -10713122.34007  20721170.81807  -8309900.03548  20721167.65448
  -8347761.53507  20290256.20907  -6486137.08648  20290254.16648
  -5890319.36306  22608516.12306  -4581328.42647  22608512.61947
  -1642264.00808  20008942.12308  -1275405.63349  20008938.28749
  -3723678.84005  23556686.44305  -2896003.74246  23556681.81146
  -6436379.98407  21093781.02107  -4997751.69148  21093775.55348
   1739551.90207  21197483.00607   1354847.78948  21197479.38148
 08 11  4  0 36 59.9980000  0  7  3  6 13 16 21 23 31
 -10821918.28907  20700467.28707  -8394676.09048  20700464.80748
  -8425347.89107  20275492.17807  -6546593.98848  20275489.65048
  -5987196.13306  22590080.35006  -4656816.82447  22590078.11147
  -1649436.80907  20007576.70907  -1280994.83249  20007573.34649
  -3783267.46106  23545347.28706  -2942436.43846  23545343.10446
  -6485486.62107  21084435.99807  -5036016.60948  21084431.37748
   1773743.11307  21203989.52107   1381490.25848  21203985.42848
 08 11  4  0 37 29.9980000  0  8  3  6 13 16 19 21 23 31
 -10930326.59407  20679837.88107  -8479150.08648  20679834.89648
  -8502479.80507  20260813.97507  -6606696.77048  20260811.73648
  -6083622.56606  22571731.13106  -4731954.30147  22571728.43947
  -1656379.00408  20006256.17008  -1286404.34849  20006251.92449
   -226372.28516  23449128.99806   -166449.41057  23449125.29947
  -3842500.80106  23534076.85706  -2988592.27346  23534072.56146
  -6533993.11307  21075205.45107  -5073813.88748  21075200.33048
   1808247.34007  21210554.89607   1408376.65648  21210551.25248
 08 11  4  0 37 59.9980000  0  8  3  6 13 16 19 21 23 31
 -11038346.80907  20659282.13907  -8563321.66848  20659279.72548
  -8579157.72707  20246223.18607  -6666445.80148  20246220.13148
  -6179597.91406  22553468.17006  -4806740.29347  22553464.85047
  -1663092.83607  20004978.93607  -1291635.90649  20004974.57649
   -362885.44506  23423151.50606   -272823.25447  23423147.96747
  -3901378.31606  23522871.99806  -3034470.86346  23522868.13146
  -6581900.39107  21066088.95907  -5111144.22348  21066084.38548
   1843062.96907  21217180.51407   1435505.68448  21217177.11948
 08 11  4  0 38 29.9980000  0  8  3  6 13 16 19 21 23 31
 -11145983.07007  20638799.72507  -8647194.08248  20638797.32648
  -8655386.37507  20231717.09207  -6725844.73848  20231714.66248
  -6275124.95706  22535289.70906  -4881176.93847  22535286.52147
  -1669584.94108  20003743.37308  -1296694.69149  20003739.15049
   -499290.05506  23397194.52106   -379112.51647  23397190.86947
  -3959903.99206  23511735.37306  -3080075.25046  23511731.51846
  -6629213.29707  21057086.30307  -5148011.43048  21057080.91248
   1878183.94507  21223863.60707   1462872.64848  21223860.18948
 08 11  4  0 38 59.9980000  0  8  3  6 13 16 19 21 23 31
 -11253227.02007  20618391.43607  -8730760.80548  20618389.18248
  -8731158.67207  20217298.06807  -6784888.08649  20217295.33049
  -6370195.31306  22517198.13906  -4955257.72347  22517194.93947
  -1675849.85207  20002551.01407  -1301576.43849  20002547.01849
   -635577.47306  23371259.62306   -485310.46547  23371256.46347
  -4018069.78506  23500666.34206  -3125399.26646  23500662.79546
  -6675924.92607  21048197.09207  -5184410.10248  21048191.99848
   1913616.26607  21230606.24807   1490482.23048  21230602.24848
 08 11  4  0 39 29.9980000  0  8  3  6 13 16 19 21 23 31
 -11360073.98807  20598059.57607  -8814018.18448  20598056.81848
  -8806470.60207  20202966.87307  -6843572.69948  20202964.17848
  -6464804.10506  22499194.24806  -5028978.86747  22499191.83847
  -1681886.05907  20001402.46707  -1306279.97349  20001398.42849
   -771742.66806  23345348.34206   -591413.19147  23345345.48247
  -4075871.10505  23489667.04505  -3170439.22746  23489663.72546
  -6722031.53107  21039422.99807  -5220337.33248  21039418.38148
   1949362.21507  21237408.37307   1518336.18448  21237404.55748
 08 11  4  0 39 59.9980000  0  8  3  6 13 16 19 21 23 31
 -11466524.39807  20577802.45907  -8896966.55148  20577800.21748
  -8881323.50407  20188722.56807  -6901899.63348  20188720.14348
  -6558950.38306  22481279.35706  -5102339.55947  22481276.01447
  -1687696.38707  20000296.52907  -1310807.50049  20000292.48249
   -907785.50805  23319459.62305   -697420.55947  23319456.71347
  -4133308.01205  23478735.56105  -3215195.25046  23478733.82646
  -6767534.77007  21030764.41207  -5255794.40648  21030759.51048
   1985419.45707  21244269.77907   1546432.68848  21244266.34648
 08 11  4  0 40 29.9980000  0  8  3  6 13 16 19 21 23 31
 -11572572.45307  20557622.02907  -8979601.39148  20557619.57648
  -8955712.43407  20174566.94307  -6959865.02748  20174564.60048
  -6652628.34006  22463452.92806  -5175335.37547  22463450.21347
  -1693277.85207  19999234.55307  -1315156.69549  19999230.53749
  -1043699.68005  23293596.58405   -803327.68847  23293593.01847
  -4190374.92605  23467876.27905  -3259663.01646  23467874.12746
  -6812429.93007  21022221.01407  -5290777.65248  21022215.60448
   2021791.58607  21251191.49007   1574774.58248  21251188.23248
 08 11  4  0 40 59.9980000  0  8  3  6 13 16 19 21 23 31
 -11678213.60907  20537519.42807  -9061919.16848  20537516.92848
  -9029634.05107  20160500.07607  -7017466.28148  20160497.16248
  -6745832.92606  22445716.85706  -5247962.31347  22445713.72547
  -1698628.94907  19998215.92007  -1319326.37949  19998211.93649
  -1179480.27705  23267757.46705   -909130.75447  23267754.68947
  -4247067.50806  23457088.74006  -3303839.03146  23457085.04946
  -6856714.02007  21013793.71707  -5325284.75048  21013788.59648
   2058480.82407  21258173.21707   1603363.57048  21258170.15448
 08 11  4  0 41 29.9980000  0  8  3  6 13 16 19 21 23 31
 -11783451.47307  20517493.46707  -9143922.68848  20517491.13148
  -9103092.55907  20146521.67007  -7074706.66848  20146518.99448
  -6838567.01606  22428069.34206  -5320222.62147  22428066.49847
  -1703755.57407  19997240.42007  -1323321.15649  19997236.67049
  -1315130.47704  23241944.42804  -1014832.19947  23241941.17847
  -4303389.02306  23446371.68606  -3347725.91446  23446366.21346
  -6900391.51207  21005482.07607  -5359319.16448  21005477.13148
   2095481.83607  21265214.46707   1632195.49648  21265210.78348
 08 11  4  0 41 59.9980000  0  8  3  6 13 16 19 21 23 31
 -11888285.09807  20497544.35707  -9225611.21148  20497541.68248
  -9176087.89107  20132630.63107  -7131586.14548  20132628.35048
  -6930829.51206  22410512.70906  -5392115.48447  22410509.67847
  -1708659.30107  19996307.45107  -1327142.25049  19996303.45949
  -1450648.48004  23216155.34204  -1120430.59047  23216153.10047
  -4359338.44105  23435724.46705  -3391322.85246  23435719.51846
  -6943462.42607  20997286.31807  -5392880.91848  20997281.48648
   2132793.04307  21272314.31807   1661269.13748  21272311.08048
 08 11  4  0 42 29.9980000  0  8  3  6 13 16 19 21 23 31
 -11992709.37907  20477673.17807  -9306980.76648  20477670.28748
  -9248615.97307  20118829.31107  -7188101.52048  20118826.43648
  -7022614.46506  22393046.52906  -5463636.21547  22393043.98247
  -1713338.31607  19995417.01407  -1330788.23449  19995413.17849
  -1586028.84005  23190394.33405  -1225921.75847  23190390.64347
  -4414911.16005  23425149.26405  -3434626.27746  23425145.02946
  -6985923.30507  20989206.42007  -5425967.32848  20989200.85748
   2170417.48407  21279473.63107   1690586.85548  21279471.10748
 08 11  4  0 42 59.9980000  0  8  3  6 13 16 19 21 23 31
 -12096717.89107  20457881.02107  -9388026.34848  20457878.11948
  -9320671.57407  20105117.66207  -7244248.74648  20105114.80348
  -7113915.85906  22375672.94306  -5534780.15647  22375669.59647
  -1717788.83607  19994570.48207  -1334256.17649  19994566.19349
  -1721264.98404  23164659.49804  -1331300.57847  23164655.83047
  -4470100.23006  23414648.38906  -3477630.75446  23414643.23246
  -7027769.18007  20981243.28707  -5458574.50448  20981238.24048
   2208359.03507  21286693.84207   1720151.67248  21286691.00648
 08 11  4  0 43 29.9980000  0  8  3  6 13 16 19 21 23 31
 -12200307.77307  20438168.61507  -9468745.72748  20438165.63948
  -9392252.25807  20091496.20907  -7300025.88748  20091493.45148
  -7204728.18806  22358391.92006  -5605543.02347  22358387.93247
  -1722010.02707  19993767.20907  -1337545.41049  19993763.11549
  -1856352.79705  23138953.64605  -1436563.79747  23138950.04147
  -4524902.69106  23404219.05306  -3520333.93046  23404214.44746
  -7068997.72307  20973397.81107  -5490700.65248  20973392.31848
   2246619.17607  21293974.88907   1749964.73448  21293971.55348
 08 11  4  0 43 59.9980000  0  8  3  6 13 16 19 21 23 31
 -12303471.48007  20418536.87307  -9549133.01248  20418534.50248
  -9463351.80907  20077966.82607  -7355428.12948  20077963.62348
  -7295044.92206  22341204.82606  -5675919.68847  22341201.31847
  -1725997.57007  19993008.17807  -1340652.59849  19993004.01049
  -1991284.64806  23113276.87306  -1541705.52047  23113272.70547
  -4579311.80905  23393865.24805  -3562730.65646  23393861.24046
  -7109603.25807  20965670.55307  -5522341.33648  20965666.06848
   2285202.71507  21301317.12307   1780029.81648  21301312.96748
 08 11  4  0 44 29.9980000  0  8  3  6 13 16 19 21 23 31
 -12406207.12907  20398987.07607  -9629186.76248  20398984.10048
  -9533969.58607  20064528.67007  -7410454.97348  20064525.60048
  -7384863.99206  22324112.80306  -5745908.58247  22324109.40847
  -1729752.55107  19992293.68607  -1343578.55949  19992289.49049
  -2126058.64506  23087629.64606  -1646724.23047  23087626.60747
  -4633325.93005  23383586.74805  -3604819.56346  23383582.69346
  -7149585.66007  20958062.52107  -5553496.46148  20958057.67848
   2324109.03507  21308720.49807   1810346.39848  21308717.12348
 08 11  4  0 44 59.9980000  0  8  3  6 13 16 19 21 23 31
 -12508515.43407  20379518.50607  -9708907.51648  20379516.12348
  -9604106.68807  20051181.74807  -7465107.24649  20051179.02549
  -7474185.00406  22307116.02106  -5815509.38347  22307111.98247
  -1733277.44108  19991623.02908  -1346325.23449  19991619.16249
  -2260674.23806  23062014.23206  -1751619.51647  23062010.83047
  -4686944.86305  23373383.14605  -3646600.55146  23373379.77546
  -7188945.93807  20950572.82607  -5584166.80948  20950567.12348
   2363335.95307  21316185.51407   1840912.78948  21316181.99848
 08 11  4  0 45 29.9980000  0  8  3  6 13 16 19 21 23 31
 -12610391.14807  20360131.95107  -9788291.18448  20360129.68648
  -9673759.13307  20037927.41207  -7519381.87549  20037924.60749
  -7563001.97706  22290214.77906  -5884717.39847  22290211.08447
  -1736570.26207  19990996.53707  -1348891.07049  19990992.61949
  -2395125.59406  23036428.43606  -1856386.78947  23036424.70547
  -4740163.76605  23363255.87305  -3688069.78146  23363252.18646
  -7227680.69107  20943201.33407  -5614349.73048  20943196.09648
   2402886.18407  21323711.74807   1871731.11348  21323708.68948
 08 11  4  0 45 59.9980000  0  8  3  6 13 16 19 21 23 31
 -12711838.45307  20340827.02107  -9867341.03548  20340824.66648
  -9742931.73407  20024764.50607  -7573282.60549  20024761.46749
  -7651319.32406  22273408.61506  -5953536.11747  22273404.99047
  -1739637.27707  19990412.85707  -1351280.96549  19990408.36549
  -2529416.72306  23010873.73206  -1961029.24647  23010870.02947
  -4792986.48005  23353203.86505  -3729230.34846  23353200.79546
  -7265795.05907  20935948.80307  -5644049.25848  20935943.62748
   2442753.69507  21331298.02907   1902796.69948  21331294.36548
 08 11  4  0 46 29.9980000  0  8  3  6 13 16 19 21 23 31
 -12812855.21907  20321604.11507  -9946055.38348  20321601.96348
  -9811623.44107  20011692.81107  -7626808.60549  20011690.40849
  -7739133.64806  22256697.90406  -6021962.84847  22256693.93647
  -1742479.10907  19989872.19307  -1353495.37949  19989868.22549
  -2663544.49206  22985350.17006  -2065544.38347  22985346.62347
  -4845411.25405  23343228.33405  -3770080.83246  23343224.22946
  -7303288.82007  20928813.96707  -5673265.16848  20928808.72148
   2482938.50407  21338944.63907   1934109.51648  21338941.70548
 08 11  4  0 46 59.9980000  0  9  3  6 13 16 19 21 23 25 31
 -12913441.20707  20302463.63107 -10024434.07849  20302460.92449
  -9879835.09007  19998712.31107  -7679960.53549  19998709.19349
  -7826444.23406  22240083.22506  -6089997.06347  22240079.58847
  -1745098.15607  19989373.31107  -1355536.20349  19989369.38949
  -2797508.26606  22959856.96706  -2169931.71947  22959854.00247
  -4897437.78905  23333328.21705  -3810620.98446  23333324.02546
  -7340163.18807  20921796.46707  -5701998.44548  20921792.12748
   -193427.47316  23770502.06106   -142228.51257  23770500.32247
   2523438.45307  21346651.92807   1965667.88748  21346648.60748
 08 11  4  0 47 29.9980000  0  9  3  6 13 16 19 21 23 25 31
 -13013600.77307  20283403.80307 -10102480.48848  20283401.29948
  -9947571.30507  19985822.42807  -7732742.00049  19985819.80349
  -7913254.64506  22223563.56106  -6157641.52347  22223559.83447
  -1747500.43407  19988916.39607  -1357408.12149  19988912.50249
  -2931311.14105  22934395.45905  -2274193.68047  22934392.05747
  -4949070.00806  23323502.68606  -3850853.90246  23323499.47546
  -7376422.62907  20914896.86507  -5730252.55948  20914891.65848
   -310287.63706  23748264.03706   -233288.35947  23748261.90847
   2564247.98807  21354417.67807   1997467.50448  21354414.06848
 08 11  4  0 47 59.9980000  0  9  3  6 13 16 19 21 23 25 31
 -13113330.79707  20264425.99807 -10180192.19948  20264423.00648
 -10014831.15607  19973023.64607  -7785152.26649  19973020.68649
  -7999562.25406  22207139.92806  -6224894.21547  22207136.22547
  -1749686.67207  19988500.35007  -1359111.68849  19988496.33049
  -3064950.48405  22908964.03705  -2378328.19547  22908961.07647
  -5000305.77705  23313752.63105  -3890777.84046  23313749.75246
  -7412066.53907  20908114.31107  -5758027.03148  20908109.28348
   -427133.44906  23726028.87306   -324337.02747  23726027.24447
   2605366.74207  21362242.27907   2029508.06648  21362238.92848
 08 11  4  0 48 29.9980000  0  9  3  6 13 16 19 21 23 25 31
 -13212630.37907  20245529.80307 -10257568.48048  20245527.11548
 -10081613.93807  19960315.17007  -7837190.78149  19960312.45949
  -8085365.16006  22190811.85706  -6291753.61347  22190809.22947
  -1751657.65207  19988125.29507  -1360647.52749  19988121.42849
  -3198424.16005  22883565.52105  -2482333.61347  22883562.18247
  -5051143.56605  23304078.43605  -3930391.69546  23304075.29146
  -7447095.04707  20901448.09207  -5785321.98848  20901442.64648
   -543963.53106  23703796.89606   -415373.43847  23703794.80747
   2646794.02707  21370125.55307   2061789.03548  21370122.24448
 08 11  4  0 48 59.9980000  0  9  3  6 13 16 19 21 23 25 31
 -13311494.48408  20226716.76408 -10334605.44948  20226713.97548
 -10147915.94907  19947698.35007  -7888854.68049  19947695.54149
  -8170658.18006  22174581.44306  -6358215.68047  22174578.33847
  -1753411.07807  19987791.60007  -1362013.83649  19987787.67849
  -3331726.59006  22858198.89606  -2586205.61347  22858195.65847
  -5101578.62905  23294480.32605  -3969691.75046  23294476.67846
  -7481504.77707  20894900.20907  -5812134.76248  20894895.63548
   -660773.23006  23681568.55306   -506393.96947  23681566.33847
   2688532.80507  21378068.36507   2094312.75048  21378065.07648
 08 11  4  0 49 29.9980000  0  9  3  6 13 16 19 21 23 25 31
 -13409921.69507  20207986.36507 -10411301.96948  20207983.44348
 -10213736.43407  19935173.31807  -7940143.35949  19935170.67449
  -8255438.92606  22158448.56106  -6424278.60247  22158444.70147
  -1754947.99207  19987499.47507  -1363211.42249  19987495.12349
  -3464855.48806  22832866.00606  -2689942.36347  22832861.64647
  -5151609.18805  23284959.60005  -4008676.57446  23284956.77946
  -7515295.62507  20888469.85007  -5838465.30148  20888464.73248
   -777560.81606  23659344.89606   -597397.25847  23659342.81147
   2730582.64507  21386069.80307   2127078.83648  21386066.57648
 08 11  4  0 49 59.9980000  0  9  3  6 13 16 19 21 23 25 31
 -13507909.05907  20189340.43607 -10487655.74648  20189336.86148
 -10279073.55107  19922739.63907  -7991055.39149  19922736.90449
  -8339703.73406  22142412.81106  -6489939.48447  22142409.45947
  -1756267.66007  19987248.00607  -1364239.74249  19987243.90449
  -3597807.43806  22807565.48206  -2793541.27347  22807561.81447
  -5201232.55105  23275516.66205  -4047344.11746  23275513.57246
  -7548466.00807  20882157.89607  -5864312.35248  20882153.27148
   -894323.66805  23637125.25605   -688381.27347  23637122.73247
   2772944.19107  21394131.31807   2160087.80148  21394128.18248
 08 11  4  0 50 29.9980000  0  9  3  6 13 16 19 21 23 25 31
 -13605456.46907  20170777.38907 -10563666.69948  20170774.30748
 -10343928.36307  19910398.24007  -8041591.60249  19910395.66249
  -8423452.61307  22126476.49007  -6555198.35247  22126472.62747
  -1757372.38707  19987037.66207  -1365100.56649  19987033.55749
  -3730581.74606  22782299.14606  -2897001.74647  22782295.36547
  -5250448.86305  23266151.38105  -4085694.47746  23266148.52546
  -7581017.58207  20875963.48207  -5889677.22748  20875958.67448
  -1011061.55505  23614911.14605   -779345.83646  23614908.91246
   2815615.30107  21402251.20907   2193337.98448  21402248.14348
 08 11  4  0 50 59.9980000  0  9  3  6 13 16 19 21 23 25 31
 -13702559.50407  20152299.06807 -10639331.38748  20152296.32648
 -10408297.15607  19898149.30307  -8091749.10249  19898146.49449
  -8506680.32006  22110638.99806  -6620051.10947  22110635.13947
  -1758260.32407  19986868.92807  -1365792.46549  19986864.81449
  -3863172.84006  22757068.55306  -3000319.45347  22757064.47947
  -5299253.28905  23256864.06105  -4123723.91446  23256861.05346
  -7612947.11707  20869887.54507  -5914557.38348  20869882.86148
  -1127770.13704  23592701.56104   -870287.53946  23592699.60446
   2858598.40607  21410430.73207   2226831.28948  21410427.42448
 08 11  4  0 51 29.9980000  0  9  3  6 13 16 19 21 23 25 31
 -13799215.91007  20133906.13907 -10714648.06348  20133903.54148
 -10472178.93007  19885993.06107  -8141527.09449  19885990.22949
  -8589384.08206  22094900.58406  -6684495.57847  22094897.43247
  -1758931.52307  19986741.31807  -1366315.48449  19986736.85749
  -3995578.05106  22731872.85006  -3103492.31347  22731868.54547
  -5347643.93005  23247656.00605  -4161430.87546  23247652.26046
  -7644253.80507  20863930.31107  -5938952.21948  20863925.38948
  -1244447.00805  23570498.74805   -961204.53946  23570496.10046
   2901893.46907  21418669.49007   2260567.66448  21418666.36148
 08 11  4  0 51 59.9980000  0  9  3  6 13 16 19 21 23 25 31
 -13895425.56307  20115598.17807 -10789616.61348  20115595.11948
 -10535574.44507  19873929.27107  -8190926.18449  19873926.28349
  -8671564.04306  22079261.98206  -6748531.90647  22079258.55747
  -1759388.28107  19986654.13107  -1366671.39849  19986649.87749
  -4127796.82407  22706712.80307  -3206519.93047  22706707.73647
  -5395620.57006  23238526.72506  -4198815.27046  23238523.36546
  -7674938.88707  20858091.08407  -5962862.67648  20858086.35448
  -1361092.14104  23548300.85704  -1052096.82846  23548299.51846
   2945498.65607  21426967.27107   2294545.70748  21426964.69348
 08 11  4  0 52 29.9980000  0  9  3  6 13 16 19 21 23 25 31
 -13991187.07007  20097375.10707 -10864235.97348  20097372.70948
 -10598483.31307  19861958.02907  -8239946.07849  19861954.83849
  -8753217.18406  22063723.79506  -6812157.72747  22063720.97947
  -1759631.40607  19986607.68607  -1366860.84849  19986603.52549
  -4259826.80906  22681587.90406  -3309400.39147  22681582.81147
  -5443182.03506  23229476.12306  -4235876.16446  23229473.02546
  -7705002.82407  20852370.05307  -5986289.13348  20852364.95148
  -1477703.88304  23526111.43604  -1142963.04346  23526108.90046
   2989413.34407  21435324.34207   2328764.91448  21435320.41648
 08 11  4  0 52 59.9980000  0  9  3  6 13 16 19 21 23 25 31
 -14086493.69107  20079238.06107 -10938500.87148  20079236.17048
 -10660899.93007  19850080.63107  -8288582.39549  19850077.77549
  -8834336.84006  22048287.23206  -6875367.81347  22048284.07647
  -1759656.80507  19986602.77907  -1366880.64549  19986598.97549
  -4391660.46106  22656500.73206  -3412127.91447  22656495.37347
  -5490321.95306  23220505.44306  -4272608.53546  23220502.17046
  -7734440.55507  20846768.02107  -6009227.60548  20846763.14348
  -1594275.80105  23503928.59205  -1233798.27747  23503926.28747
   3033641.96107  21443740.95107   2363228.75848  21443736.88948
 08 11  4  0 53 29.9980000  0  9  3  6 13 16 19 21 23 25 31
 -14181345.26207  20061189.17807 -11012411.18848  20061186.40048
 -10722825.16007  19838296.31807  -8336835.80949  19838293.61549
  -8914922.34406  22032952.46706  -6938161.71147  22032948.95547
  -1759466.28507  19986639.27907  -1366732.18849  19986635.39349
  -4523297.00406  22631451.24006  -3514701.81647  22631445.34247
  -5537039.50805  23211614.99005  -4309011.85246  23211612.13146
  -7763253.37107  20841285.35007  -6031679.16048  20841280.62748
  -1710807.13705  23481754.05305  -1324601.88746  23481750.98246
   3078182.87507  21452216.82607   2397935.93848  21452213.27948
 08 11  4  0 53 59.9980000  0  9  3  6 13 16 19 21 23 25 31
 -14275738.52307  20043226.58407 -11085964.37148  20043223.86948
 -10784256.58607  19826606.67007  -8384704.44549  19826603.95949
  -8994970.24606  22017719.88106  -7000536.69947  22017716.32647
  -1759059.02007  19986716.63907  -1366414.84449  19986712.85049
  -4654732.25806  22606439.24006  -3617118.88347  22606434.54547
  -5583331.72706  23202805.45106  -4345083.71946  23202802.52146
  -7791439.19107  20835921.75607  -6053642.14148  20835916.42848
  -1827294.77706  23459587.24006  -1415371.45346  23459583.81146
   3123037.10507  21460751.95107   2432887.27048  21460748.39648
 08 11  4  0 54 29.9980000  0  9  3  6 13 16 19 21 23 25 31
 -14369672.61707  20025351.92807 -11159159.76648  20025348.73248
 -10845194.85507  19815010.54507  -8432188.80949  19815007.80349
  -9074479.32006  22002590.00606  -7062491.82447  22002585.88147
  -1758436.57807  19986835.20107  -1365929.81649  19986831.17049
  -4785964.91406  22581467.01406  -3719378.06347  22581461.93647
  -5629197.96106  23194077.99006  -4380823.65246  23194074.29546
  -7818999.20307  20830677.87307  -6075117.48848  20830672.27148
  -1943737.81605  23437428.14605  -1506106.29346  23437424.84646
   3168203.12507  21469346.56107   2468081.54748  21469343.57248
 08 11  4  0 54 59.9980000  0  9  3  6 13 16 19 21 23 25 31
 -14463147.48807  20007564.13107 -11231997.31648  20007561.00648
 -10905640.50807  19803508.01407  -8479289.30949  19803505.15849
  -9153448.79706  21987561.85706  -7124026.46547  21987558.92047
  -1757600.81307  19986994.02907  -1365278.57449  19986990.35049
  -4916993.93806  22556532.56806  -3821478.57447  22556527.47147
  -5674638.07806  23185431.24806  -4416231.54746  23185426.72946
  -7845934.79707  20825551.44307  -6096106.26248  20825546.24048
  -2060135.78105  23415278.38905  -1596806.02046  23415275.28746
   3213679.43007  21478000.34207   2503517.60548  21477997.27948
 08 11  4  0 55 29.9980000  0  9  3  6 13 16 19 21 23 25 31
 -14556158.59007  19989864.77907 -11304473.49248  19989862.10748
 -10965589.69907  19792100.08407  -8526002.94949  19792097.26049
  -9231873.05506  21972638.52106  -7185136.25447  21972635.31847
  -1756549.28107  19987194.27107  -1364459.20349  19987190.56849
  -5047813.87906  22531638.75606  -3923416.16047  22531633.78347
  -5719647.60506  23176866.65406  -4451303.87546  23176862.58446
  -7872242.61307  20820545.67807  -6116605.86748  20820541.04548
  -2176483.70705  23393138.33405  -1687466.71546  23393135.52546
   3259468.72307  21486714.72507   2539197.53148  21486710.62748
 08 11  4  0 55 59.9980000  0  9  3  6 13 16 19 21 23 25 31
 -14648698.44507  19972254.99807 -11376582.45748  19972252.27548
 -11025036.47307  19780788.09207  -8572325.09449  19780784.77149
  -9309744.47706  21957820.18606  -7245815.28147  21957817.18247
  -1755276.90207  19987436.35707  -1363467.73849  19987433.01049
  -5178416.39106  22506786.00606  -4025184.33247  22506781.15047
  -5764218.87906  23168384.70106  -4486034.76646  23168380.16646
  -7897917.07807  20815660.10707  -6136611.93848  20815654.23248
  -2292774.07805  23371008.49005  -1778082.57446  23371005.91646
   3305575.81607  21495487.88907   2575125.13348  21495484.59248
 08 11  4  0 56 29.9980000  0  9  3  6 13 16 19 21 23 25 31
 -14740763.88707  19954735.52107 -11448321.75448  19954733.19348
 -11083978.24607  19769571.55307  -8618253.74649  19769568.83449
  -9387059.43806  21943107.74806  -7306060.71547  21943104.29147
  -1753782.44107  19987720.91207  -1362303.22349  19987716.85449
  -5308797.25806  22481974.77906  -4126779.76647  22481970.72947
  -5808348.76205  23159986.12305  -4520421.70346  23159983.47946
  -7922956.39107  20810895.06807  -6156123.10248  20810889.93248
  -2409003.15605  23348891.02905  -1868650.69947  23348888.50647
   3352002.24607  21504322.51407   2611301.52348  21504319.90048
 08 11  4  0 56 59.9980000  0  9  3  6 13 16 19 21 23 25 31
 -14832353.80107  19937306.30307 -11519690.50849  19937303.88949
 -11142415.54707  19758451.31807  -8663789.28949  19758448.37349
  -9463817.10206  21928500.77106  -7365871.86747  21928497.34647
  -1752067.44107  19988046.95107  -1360966.86349  19988043.37749
  -5438955.18006  22457207.52906  -4228201.48047  22457202.02147
  -5852036.70705  23151672.75605  -4554464.25846  23151669.85746
  -7947361.60507  20806251.14607  -6175140.16848  20806245.29148
  -2525169.98805  23326784.74805  -1959170.27047  23326782.63147
   3398746.73407  21513217.63107   2647725.77048  21513214.94748
 08 11  4  0 57 29.9980000  0  9  3  6 13 16 19 21 23 25 31
 -14923463.91407  19919968.99007 -11590685.37949  19919965.99449
 -11200344.87107  19747427.75607  -8708929.01249  19747425.33049
  -9540012.24606  21914001.38906  -7425244.71947  21913998.23647
  -1750129.79307  19988416.11507  -1359457.01649  19988411.97549
  -5568884.98806  22432482.69306  -4329445.47748  22432477.65048
  -5895277.95306  23143444.83406  -4588158.74647  23143441.54947
  -7971129.79707  20801728.02907  -6193660.82448  20801723.10748
  -2641269.92205  23304692.22505  -2049637.73047  23304689.45147
   3445811.61307  21522174.04507   2684399.66048  21522170.58448
 08 11  4  0 57 59.9980000  0  9  3  6 13 16 19 21 23 25 31
 -15014093.54307  19902722.49007 -11661305.85548  19902719.29948
 -11257766.82007  19736500.44307  -8753673.37549  19736498.11949
  -9615644.11306  21899609.53706  -7484178.66447  21899605.92847
  -1747970.59007  19988826.93607  -1357774.52349  19988823.56449
  -5698585.13706  22407801.55306  -4430510.50047  22407796.18247
  -5938072.21506  23135301.93606  -4621504.90246  23135297.35746
  -7994262.12907  20797326.00607  -6211686.03148  20797320.86148
  -2757301.99205  23282612.38105  -2140052.30547  23282609.65447
   3493195.47307  21531190.76407   2721322.11348  21531187.73648
 08 11  4  0 58 29.9980000  0  9  3  6 13 16 19 21 23 25 31
 -15104237.94107  19885568.31807 -11731548.23848  19885565.49448
 -11314677.19907  19725670.74007  -8798019.11749  19725668.01449
  -9690706.97306  21885325.65406  -7542669.19147  21885322.36947
  -1745587.11307  19989280.28707  -1355917.27749  19989276.57649
  -5828049.71906  22383164.46706  -4531391.97348  22383160.16248
  -5980414.59406  23127243.49006  -4654498.94946  23127239.85046
  -8016755.16407  20793045.42807  -6229213.07048  20793040.73648
  -2873260.86705  23260546.87305  -2230409.82847  23260543.18247
   3540901.33607  21540269.01407   2758495.48048  21540265.85748
 08 11  4  0 58 59.9980000  0  9  3  6 13 16 19 21 23 25 31
 -15193894.99207  19868507.31807 -11801410.86348  19868504.65848
 -11371075.28907  19714938.79507  -8841965.67649  19714936.18649
  -9765198.23406  21871150.27906  -7600714.34047  21871146.58847
  -1742979.51207  19989776.57607  -1353885.38348  19989772.45948
  -5957275.63706  22358573.99806  -4632087.47747  22358568.24847
  -6022303.00405  23119272.79505  -4687139.26247  23119268.72547
  -8038608.63307  20788887.19307  -6246241.77048  20788881.61948
  -2989144.07805  23238494.28705  -2320708.38347  23238491.68947
   3588929.35907  21549408.31107   2795919.87548  21549405.13948
 08 11  4  0 59 29.9980000  0  9  3  6 13 16 19 21 23 25 31
 -15283060.91007  19851539.58407 -11870890.78948  19851537.15848
 -11426958.01207  19704304.64607  -8885510.64549  19704302.14349
  -9839113.96506  21857084.77906  -7658311.00847  21857080.70947
  -1740146.00407  19990315.52907  -1351677.46949  19990311.89349
  -6086258.32806  22334029.29506  -4732593.44547  22334024.06147
  -6063733.79706  23111388.85006  -4719423.00847  23111385.06447
  -8059820.56307  20784850.59207  -6262770.54748  20784845.20948
  -3104947.35905  23216457.88905  -2410944.68047  23216455.08847
   3637280.85207  21558609.51407   2833596.32048  21558606.63148
 08 11  4  0 59 59.9980000  0  9  3  6 13 16 19 21 23 25 31
 -15371739.94907  19834664.54507 -11939991.33648  19834661.81848
 -11482331.06607  19693767.16207  -8928658.46549  19693764.93949
  -9912457.91006  21843127.81106  -7715462.13747  21843124.19347
  -1737092.77707  19990896.68607  -1349298.34048  19990893.14348
  -6215001.35906  22309530.18606  -4832912.65247  22309524.78747
  -6104711.31306  23103591.20106  -4751353.53947  23103587.85747
  -8080396.73807  20780935.16207  -6278803.94548  20780929.75648
  -3220674.66405  23194435.40405  -2501121.76247  23194433.27947
   3685949.72707  21567871.31807   2871520.08248  21567868.18648
 08 11  4  1  0 29.9970000  0  9  3  6 13 16 19 21 23 25 31
 -15459928.27007  19817883.06307 -12008709.49249  19817880.45849
 -11537192.80507  19683327.43107  -8971407.86349  19683324.64249
  -9985226.41006  21829280.49306  -7772164.85547  21829277.07147
  -1733821.03907  19991519.41507  -1346748.94949  19991515.29849
  -6343498.22706  22285077.97806  -4933040.06647  22285072.71647
  -6145233.13306  23095879.70406  -4782928.97747  23095876.25547
  -8100337.60907  20777140.68107  -6294342.28548  20777135.38848
  -3336320.69905  23172428.18105  -2591235.52347  23172426.32947
   3734933.38307  21577192.62607   2909689.10948  21577189.38848
 08 11  4  1  0 59.9970000  0  9  3  6 13 16 19 21 23 25 31
 -15547628.50407  19801194.11807 -12077047.33649  19801191.72449
 -11591544.39107  19672984.97007  -9013759.74649  19672982.10649
 -10057420.63306  21815542.23506  -7828420.09847  21815539.50547
  -1730329.57807  19992183.75907  -1344028.33248  19992179.89948
  -6471753.85206  22260671.63406  -5032979.49247  22260666.28247
  -6185298.98406  23088255.64906  -4814149.10547  23088251.81347
  -8119642.89507  20773466.25107  -6309385.37548  20773461.59148
  -3451889.57805  23150436.47005  -2681289.13347  23150434.10647
   3784236.12107  21586574.19607   2948106.79748  21586570.98548
 08 11  4  1  1 29.9970000  0  9  3  6 13 16 19 21 23 25 31
 -15634837.26207  19784598.83707 -12145002.20749  19784596.76749
 -11645384.86307  19662739.10307  -9055713.35549  19662736.36049
 -10129037.35906  21801913.53206  -7884225.32847  21801910.51347
  -1726620.06607  19992889.68807  -1341137.80149  19992885.84549
  -6599762.39806  22236312.27406  -5132726.39547  22236307.21647
  -6224907.25006  23080718.79806  -4845012.67647  23080715.29447
  -8138313.09007  20769913.73507  -6323933.58248  20769908.22448
  -3567376.40206  23128459.75106  -2771278.85247  23128457.78647
   3833854.82807  21596016.20407   2986770.69148  21596013.09948
 08 11  4  1  1 59.9970000  0  9  3  6 13 16 19 21 23 25 31
 -15721549.39507  19768098.11007 -12212570.09849  19768095.81349
 -11698709.81307  19652591.65707  -9097265.25449  19652588.85349
 -10200070.67606  21788396.61006  -7939575.95347  21788393.05247
  -1722688.73807  19993637.58707  -1338074.42249  19993634.20049
  -6727517.75406  22212001.18106  -5232275.98847  22211996.26747
  -6264052.34806  23073268.76706  -4875515.34447  23073265.90747
  -8156344.52707  20766482.87607  -6337984.05948  20766477.96248
  -3682775.23806  23106500.37606  -2861199.98847  23106497.81347
   3883793.04307  21605519.26707   3025683.55148  21605516.03648
 08 11  4  1  2 29.9970000  0  9  3  6 13 16 19 21 23 25 31
 -15807766.79708  19751691.73508 -12279752.47349  19751689.10349
 -11751522.30107  19642541.68807  -9138417.82849  19642538.92749
 -10270522.69506  21774990.22806  -7994473.63747  21774987.07547
  -1718539.94107  19994427.40707  -1334841.60548  19994423.89948
  -6855020.93406  22187738.09506  -5331629.09047  22187732.69647
  -6302736.81306  23065908.01706  -4905659.05947  23065904.93847
  -8173741.39807  20763172.11007  -6351540.05948  20763167.04848
  -3798087.75406  23084557.28206  -2951053.85947  23084554.46247
   3934046.55106  21615082.30606   3064842.08648  21615079.78648
 08 11  4  1  2 59.9970000  0  9  3  6 13 16 19 21 23 25 31
 -15893485.34007  19735379.52407 -12346546.13749  19735376.82949
 -11803819.36307  19632590.07107  -9179168.78149  19632587.18849
 -10340388.61706  21761695.41506  -8048914.60947  21761691.59547
  -1714171.19507  19995259.03207  -1331437.39548  19995254.98548
  -6982266.61706  22163524.48506  -5430781.53947  22163518.95047
  -6340956.52306  23058635.89206  -4935440.62947  23058631.68147
  -8190501.03507  20759983.14907  -6364599.52748  20759977.70048
  -3913309.17606  23062631.40706  -3040836.76647  23062628.43547
   3984617.63706  21624705.32106   3104248.10248  21624701.94248
 08 11  4  1  3 29.9970000  0  9  3  6 13 16 19 21 23 25 31
 -15978707.69908  19719162.47008 -12412953.17649  19719159.96249
 -11855604.79307  19622735.63407  -9219521.05149  19622732.98149
 -10409670.59406  21748511.19606  -8102900.57847  21748507.63047
  -1709587.23807  19996130.76707  -1327865.48449  19996127.28649
  -7109256.67206  22139358.64906  -5529734.80547  22139353.97047
  -6378713.89506  23051449.95406  -4964861.94147  23051446.29447
  -8206628.09807  20756914.21207  -6377166.07048  20756908.98548
  -4028441.61706  23040723.14906  -3130550.34047  23040719.27147
   4035501.48806  21634388.29006   3143897.82448  21634385.23148
 08 11  4  1  3 59.9970000  0  9  3  6 13 16 19 21 23 25 31
 -16063429.82807  19703040.29007 -12478970.41049  19703037.95449
 -11906875.53907  19612979.11807  -9259472.27049  19612976.36449
 -10478364.69906  21735439.22006  -8156428.45347  21735436.33747
  -1704785.94907  19997044.74307  -1324124.23049  19997040.83749
  -7235986.03906  22115242.72806  -5628484.94547  22115237.82547
  -6416004.80906  23044353.54006  -4993919.78547  23044350.18847
  -8222120.09807  20753966.13407  -6389237.77048  20753960.75948
  -4143480.32406  23018831.04806  -3220190.87147  23018827.67347
   4086700.09806  21644130.94606   3183792.82448  21644128.37248
 08 11  4  1  4 29.9970000  0  9  3  6 13 16 19 21 23 25 31
 -16147654.21508  19687012.97808 -12544599.80149  19687010.42349
 -11957635.03107  19603319.97807  -9299025.11749  19603317.33749
 -10546472.30107  21722478.80607  -8209499.30547  21722475.72447
  -1699771.39507  19997999.27407  -1320216.78549  19997995.13049
  -7362456.18806  22091176.91506  -5727033.08248  22091171.71248
  -6452832.15606  23037345.32106  -5022616.41847  23037342.71647
  -8236981.67207  20751137.56307  -6400818.21548  20751132.63048
  -4258427.02706  22996956.81306  -3309759.73047  22996953.63447
   4138209.31606  21653933.29006   3223929.84448  21653930.11848
 08 11  4  1  4 59.9970000  0  9  3  6 13 16 19 21 23 25 31
 -16231379.42207  19671080.42307 -12609840.21549  19671077.84549
 -12007883.62507  19593757.99307  -9338179.84849  19593755.52149
 -10613992.28506  21709630.16506  -8262112.26647  21709627.32947
  -1694544.24607  19998993.71207  -1316143.68449  19998989.58749
  -7488665.01206  22067159.18806  -5825377.59847  22067154.45447
  -6489194.71106  23030426.72806  -5050950.85947  23030423.11447
  -8251213.26607  20748430.11007  -6411907.77348  20748424.46248
  -4373280.00005  22975101.43805  -3399255.53146  22975098.60346
   4190027.98407  21663794.29807   3264307.99248  21663790.82948
 08 11  4  1  5 29.9970000  0  9  3  6 13 16 19 21 23 25 31
 -16314601.92607  19655243.84507 -12674688.91049  19655241.36849
 -12057617.78107  19584293.72007  -9376933.73449  19584291.20849
 -10680920.02006  21696894.10306  -8314263.73847  21696891.39647
  -1689102.46907  20000029.15707  -1311903.34048  20000025.00548
  -7614607.24206  22043193.25906  -5923514.36348  22043189.46648
  -6525088.51606  23023595.38406  -5078920.04747  23023592.52447
  -8264812.72307  20745841.61007  -6422504.76248  20745836.13048
  -4488034.35505  22953263.50905  -3488674.48447  22953262.00147
   4242158.53507  21673715.09507   3304929.17248  21673711.53248
 08 11  4  1  5 59.9970000  0  9  3  6 13 16 19 21 23 25 31
 -16397321.46907  19639502.95407 -12739145.68849  19639500.17349
 -12106838.53508  19574927.52408  -9415287.56349  19574924.62249
 -10747254.96506  21684270.79006  -8365953.30947  21684267.68847
  -1683447.35507  20001105.11007  -1307496.76649  20001101.56349
  -7740281.96106  22019278.54806  -6021442.66448  22019274.06048
  -6560513.34806  23016854.51706  -5106523.80147  23016851.20847
  -8277782.00807  20743373.69607  -6432610.70348  20743368.50148
  -4602689.28105  22931446.51705  -3578015.93847  22931443.60647
   4294599.53906  21683693.14906   3345792.27048  21683690.77148
 08 11  4  1  6 29.9970000  0  9  3  6 13 16 19 21 23 25 31
 -16479535.57807  19623858.35307 -12803208.62549  19623855.16949
 -12155545.13708  19565659.04008  -9453240.75049  19565656.30249
 -10812994.86306  21671761.14906  -8417179.20747  21671758.23547
  -1677578.80107  20002222.09507  -1302923.87149  20002218.11049
  -7865685.85906  21995414.75906  -6119159.95748  21995410.97848
  -6595467.22306  23010202.75906  -5133760.57047  23010199.22447
  -8290120.09807  20741025.87607  -6442224.81348  20741020.48948
  -4717241.93805  22909647.34505  -3667277.73447  22909644.82147
   4347350.75006  21693731.57906   3386897.07848  21693728.74748
 08 11  4  1  6 59.9970000  0  9  3  6 13 16 19 21 23 25 31
 -16561245.97707  19608309.00107 -12866879.05149  19608306.09949
 -12203740.10907  19556487.65707  -9490795.26649  19556484.81749
 -10878140.96906  21659364.35306  -8467942.41447  21659361.26747
  -1671500.04307  20003378.72807  -1298187.16849  20003375.02149
  -7990819.82806  21971602.24306  -6216666.92648  21971598.17348
  -6629952.14806  23003640.85306  -5160631.91047  23003636.84947
  -8301830.99607  20738797.57907  -6451350.19948  20738792.29448
  -4831693.24605  22887867.35305  -3756460.53547  22887865.47047
   4400408.80507  21703828.68807   3428240.98448  21703825.89248
 08 11  4  1  7 29.9970000  0  9  3  6 13 16 19 21 23 25 31
 -16642453.83207  19592855.98507 -12930157.89149  19592853.15349
 -12251425.25808  19547413.54808  -9527952.52349  19547410.73949
 -10942693.85906  21647080.16506  -8518243.35247  21647077.56347
  -1665213.51207  20004575.21207  -1293288.57049  20004571.68549
  -8115683.09006  21947841.28206  -6313962.94147  21947837.55247
  -6663968.59006  22997167.48506  -5187138.19547  22997164.03647
  -8312917.37107  20736688.01707  -6459988.94548  20736682.45848
  -4946042.91406  22866108.05606  -3845564.13747  22866105.22847
   4453770.77306  21713982.74306   3469821.71148  21713980.50148
 08 11  4  1  7 59.9970000  0  9  3  6 13 16 19 21 23 25 31
 -16723151.15607  19577499.28207 -12993038.90249  19577497.20849
 -12298594.16408  19538437.69608  -9564707.50049  19538434.64949
 -11006645.26206  21634910.65706  -8568075.59447  21634907.56347
  -1658713.46907  20005812.18107  -1288223.60549  20005808.09549
  -8240267.18406  21924134.09506  -6411041.43448  21924130.08348
  -6697509.30506  22990784.86006  -5213273.79347  22990781.59147
  -8323373.49207  20734698.43107  -6468136.58248  20734692.64948
  -5060282.71105  22844368.39205  -3934582.10947  22844366.12247
   4507442.44106  21724195.93106   3511643.75448  21724193.75148
 08 11  4  1  8 29.9970000  0  9  3  6 13 16 19 21 23 25 31
 -16803335.95707  19562240.72007 -13055520.55949  19562238.29049
 -12345246.12508  19529559.89908  -9601059.66849  19529557.09949
 -11069993.47706  21622855.58706  -8617437.85247  21622853.04447
  -1651999.89807  20007089.74307  -1282992.25849  20007085.37649
  -8364569.26206  21900479.86006  -6507900.17248  21900476.02148
  -6730572.69106  22984493.41506  -5239037.46547  22984489.63047
  -8333199.59407  20732828.75907  -6475793.30548  20732822.90748
  -5174410.01605  22822650.44605  -4023512.44147  22822648.68547
   4561423.82007  21734468.82907   3553707.13348  21734465.84948
 08 11  4  1  8 59.9970000  0  9  3  6 13 16 19 21 23 25 31
 -16883008.98007  19547079.34507 -13117603.41849  19547076.97049
 -12391382.32807  19520780.66507  -9637009.94549  19520777.56349
 -11132737.92206  21610915.78206  -8666329.60547  21610913.05247
  -1645074.34407  20008407.18807  -1277595.71549  20008403.31749
  -8488588.71506  21876880.31306  -6604538.67248  21876875.45848
  -6763158.32006  22978292.52406  -5264428.83247  22978288.70847
  -8342397.41807  20731077.72007  -6482960.43448  20731073.01748
  -5288424.06606  22800954.40706  -4112354.53547  22800952.38847
   4615712.61707  21744799.67307   3596010.07848  21744796.16548
 08 11  4  1  9 29.9970000  0  9  3  6 13 16 19 21 23 25 31
 -16962166.33607  19532016.36807 -13179284.47349  19532013.92749
 -12436999.93808  19512099.90708  -9672556.14149  19512096.76749
 -11194874.71906  21599091.09506  -8714747.88347  21599088.91947
  -1637934.39807  20009766.08707  -1272032.13349  20009762.46249
  -8612319.85906  21853335.16506  -6700952.52748  21853330.37648
  -6795262.50806  22972183.07106  -5289445.06647  22972179.35347
  -8350965.02707  20729447.86807  -6489636.49648  20729442.66948
  -5402319.91406  22779281.31306  -4201104.52047  22779278.64947
   4670311.06606  21755189.02406   3638554.27748  21755186.70048
 08 11  4  1  9 59.9970000  0  9  3  6 13 16 19 21 23 25 31
 -17040808.19108  19517051.52408 -13240563.83249  19517048.89249
 -12482100.74607  19503517.43107  -9707699.62149  19503514.62649
 -11256404.30106  21587383.03206  -8762693.01247  21587379.76747
  -1630582.68807  20011165.07907  -1266303.52749  20011161.00149
  -8735762.51606  21829844.79806  -6797141.58648  21829839.90748
  -6826886.37906  22966165.52406  -5314087.02347  22966162.25547
  -8358905.20307  20727936.82107  -6495823.65248  20727931.54048
  -5516097.42206  22757630.16506  -4289762.29347  22757627.85347
   4725216.59407  21765637.49307   3681337.75048  21765634.48148
 08 11  4  1 10 29.9970000  0  9  3  6 13 16 19 21 23 25 31
 -17118928.52707  19502185.60307 -13301436.79749  19502183.12649
 -12526679.43407  19495034.30607  -9742436.25049  19495031.61049
 -11317319.32806  21575791.52406  -8810159.27047  21575788.45047
  -1623014.13307  20012605.57907  -1260405.94949  20012601.42749
  -8858909.29706  21806410.86806  -6893100.10247  21806405.37647
  -6858023.44506  22960239.94606  -5338349.67647  22960236.76747
  -8366213.52707  20726546.11807  -6501518.46548  20726540.58348
  -5629749.38706  22736003.27406  -4378322.24247  22736000.53647
   4780433.43407  21776145.11807   3724363.80548  21776141.50148
 08 11  4  1 10 59.9970000  0  9  3  6 13 16 19 21 23 25 31
 -17196532.00808  19487418.32908 -13361907.03149  19487415.16949
 -12570741.80108  19486649.43108  -9776770.55549  19486646.45449
 -11377624.51606  21564315.97806  -8857150.32047  21564312.43547
  -1615234.98807  20014085.89207  -1254344.28149  20014081.91549
  -8981763.75006  21783031.88406  -6988830.81647  21783026.85347
  -6888678.69506  22954406.72806  -5362236.86347  22954403.18147
  -8372896.56607  20725274.46207  -6506726.03148  20725268.68848
  -5743279.17606  22714398.47006  -4466786.98847  22714396.25147
   4835955.73007  21786710.69607   3767627.87948  21786707.17348
 08 11  4  1 11 29.9970000  0  9  3  6 13 16 19 21 23 25 31
 -17273613.51608  19472749.84508 -13421970.53549  19472747.70049
 -12614284.14807  19478363.98507  -9810699.64849  19478360.87649
 -11437315.00406  21552956.46206  -8903662.38347  21552953.86447
  -1607241.93007  20015606.97007  -1248115.93849  20015602.82949
  -9104319.80906  21759710.82906  -7084329.02048  21759705.58748
  -6918847.07006  22948665.74306  -5385744.68047  22948661.66147
  -8378951.51207  20724122.36007  -6511444.18048  20724116.57948
  -5856681.10206  22692818.82906  -4555152.08247  22692816.93847
   4891786.13307  21797334.44607   3811132.06348  21797330.94648
 08 11  4  1 11 59.9970000  0  9  3  6 13 16 19 21 23 25 31
 -17350177.85508  19458179.92308 -13481631.04349  19458177.45049
 -12657312.21107  19470176.00907  -9844228.00049  19470173.06749
 -11496394.81606  21541714.52406  -8949698.59047  21541711.50947
  -1599041.35907  20017167.43807  -1241725.88349  20017163.61049
  -9226581.16806  21736445.40706  -7179597.57848  21736440.39648
  -6948533.35206  22943016.69606  -5408876.82847  22943013.27147
  -8384385.06307  20723088.82107  -6515678.13348  20723082.85348
  -5969958.89106  22671263.52406  -4643420.45747  22671260.66147
   4947918.00007  21808016.37607   3854871.11748  21808013.00548
 08 11  4  1 12 29.9970000  0  9  3  6 13 16 19 21 23 25 31
 -17426222.94908  19443709.14908 -13540886.95749  19443706.98149
 -12699824.69907  19462085.90707  -9877354.60949  19462083.27849
 -11554861.81306  21530588.61806  -8995257.27747  21530584.99347
  -1590632.31307  20018767.42307  -1235173.39149  20018763.64649
  -9348544.52706  21713236.04006  -7274633.96548  21713230.92348
  -6977735.47706  22937460.39206  -5431631.71947  22937456.47847
  -8389196.71107  20722172.29807  -6519427.48048  20722167.54448
  -6083109.25406  22649731.42306  -4731589.53547  22649728.94247
   5004351.60907  21818755.58707   3898845.31348  21818751.33348
 08 11  4  1 12 59.9970000  0  9  3  6 13 16 19 21 23 25 31
 -17501748.72708  19429337.15708 -13599738.21549  19429334.67349
 -12741822.69507  19454094.07907  -9910080.31649  19454091.33749
 -11612715.27306  21519579.38406  -9040337.89147  21519576.29447
  -1582016.08207  20020406.79807  -1228459.43848  20020403.39948
  -9470208.05906  21690084.31306  -7369436.70348  21690079.08748
  -7006453.97706  22931994.64206  -5454009.75847  22931990.98947
  -8393388.41407  20721374.79007  -6522693.74248  20721369.26748
  -6196130.85906  22628224.38406  -4819658.29747  22628221.14247
   5061085.67607  21829551.88407   3943053.65248  21829548.04848
 08 11  4  1 13 29.9970000  0  9  3  6 13 16 19 21 23 25 31
 -17576753.17608  19415064.51708 -13658183.22749  19415061.77149
 -12783305.28107  19446200.09507  -9942404.40649  19446197.02849
 -11669953.27706  21508687.19606  -9084938.91047  21508684.32547
  -1573192.23007  20022086.19607  -1221583.71948  20022082.71248
  -9591569.08606  21666990.20406  -7464003.71548  21666985.38048
  -7034686.13706  22926622.97006  -5476008.82847  22926619.01347
  -8396960.38707  20720695.10307  -6525477.10248  20720689.79048
  -6309020.80106  22606741.75906  -4907624.44947  22606739.27147
   5118120.04307  21840404.68807   3987495.98448  21840401.75148
 08 11  4  1 13 59.9970000  0  9  3  6 13 16 19 21 23 25 31
 -17651241.34808  19400889.81308 -13716225.94549  19400887.10649
 -12824278.84007  19438403.33707  -9974331.83649  19438400.47849
 -11726580.51606  21497911.79806  -9129064.03147  21497908.34547
  -1564167.58207  20023803.55607  -1214551.53949  20023799.82549
  -9712631.35206  21643953.00106  -7558337.94548  21643947.51348
  -7062437.31306  22921341.57906  -5497633.09047  22921337.66947
  -8399919.55507  20720132.03207  -6527782.94948  20720127.06048
  -6421783.06606  22585284.07106  -4995491.13347  22585281.05247
   5175447.82007  21851313.93107   4032166.91848  21851311.43148
 08 11  4  1 14 29.9970000  0  9  3  6 13 16 19 21 23 25 31
 -17725213.00007  19386813.42307 -13773866.18849  19386810.57949
 -12864744.21907  19430702.93807 -10005863.29349  19430699.97049
 -11782596.68806  21487252.18806  -9172712.98047  21487248.52447
  -1554943.11307  20025559.07907  -1207363.64148  20025554.89648
  -9833393.63706  21620972.77406  -7652438.40648  21620967.74348
  -7089707.46906  22916152.36006  -5518882.55147  22916148.30647
  -8402268.11707  20719684.37607  -6529613.00448  20719680.12648
  -6534416.38305  22563850.13405  -5083257.33647  22563847.55647
   5233067.10907  21862278.45407   4077065.03948  21862275.27448
 08 11  4  1 14 59.9970000  0  9  3  6 13 16 19 21 23 25 31
 -17798668.51207  19372835.22007 -13831104.25049  19372832.50149
 -12904702.54307  19423098.63407 -10036999.64849  19423096.06749
 -11838001.82806  21476708.54006  -9215885.80947  21476705.36447
  -1545520.24207  20027352.05607  -1200021.14848  20027347.94248
  -9953854.85206  21598049.43806  -7746304.27348  21598044.88848
  -7116497.47306  22911053.95406  -5539757.85947  22911050.73147
  -8404007.98007  20719353.98507  -6530968.75848  20719349.09148
  -6646919.53505  22542441.68805  -5170922.10947  22542439.27147
   5290976.20707  21873297.46207   4122188.97348  21873295.28648
 08 11  4  1 15 29.9970000  0  9  3  6 13 16 19 21 23 25 31
 -17871602.95307  19358956.40707 -13887936.27049  19358953.27149
 -12944150.35507  19415592.22007 -10067738.19549  19415589.26749
 -11892790.68806  21466282.89206  -9258578.41047  21466279.77447
  -1535895.66407  20029183.67307  -1192521.48048  20029179.68848
 -10074008.95306  21575184.93806  -7839930.81648  21575180.45848
  -7142801.88306  22906048.74306  -5560254.80147  22906044.96647
  -8405136.48007  20719139.23507  -6531848.11748  20719134.22448
  -6759286.72706  22521058.86806  -5258480.92247  22521056.56347
   5349178.32806  21884373.73506   4167541.21148  21884371.11448
 08 11  4  1 15 59.9970000  0  9  3  6 13 16 19 21 23 25 31
 -17944014.42207  19345176.63407 -13944360.78549  19345174.18849
 -12983086.39107  19408183.14207 -10098077.96549  19408180.04449
 -11946961.25006  21455974.82106  -9300789.25047  21455971.03647
  -1526068.56607  20031053.61007  -1184864.00848  20031049.91548
 -10193852.67206  21552378.94606  -7933315.53948  21552374.98548
  -7168618.94106  22901134.77406  -5580371.97747  22901131.82947
  -8405653.37907  20719041.07107  -6532250.91448  20719035.82148
