     2.10           OBSERVATION DATA    G (GPS)             RINEX VERSION / TYPE
Pinnacle 1.00                           06-NOV-08 23:50     PGM / RUN BY / DATE
build April 19, 2002                                        COMMENT
-Unknown-           -Unknown-                               OBSERVER / AGENCY
         Begin Pinnacle project                             COMMENT
1105                                                        COMMENT
                                                            COMMENT
                                                            COMMENT
November 6, 2008 11:42:26 pm                                COMMENT
                                                            COMMENT
                                                            COMMENT
D:\2008통합기준점\GPS\이정열\20081105\Pinnacle.dbd          COMMENT
         End Pinnacle project                               COMMENT
                                                            COMMENT
CH06                                                        MARKER NAME
CH06(Tail)(Head)                                            MARKER NUMBER
AFT4JXD4WSG         TPS GB1000          3.1 Jun,28,2007 p3  REC # / TYPE / VERS
-Unknown-           PG-A1                                   ANT # / TYPE
 -3128310.4903  3984268.5951  3863651.8362                  APPROX POSITION XYZ
        1.5790        0.0000        0.0000                  ANTENNA: DELTA H/E/N
     1     1                                                WAVELENGTH FACT L1/2
     7    L1    L2    C1    P1    P2    D1    D2            # / TYPES OF OBSERV
    30.000                                                  INTERVAL
  2008    11     5     3    40    0.0000000     GPS         TIME OF FIRST OBS
  2008    11     5     5    40    0.0000000     GPS         TIME OF LAST OBS
    13                                                      # OF SATELLITES
   G 3   184   184   184   184   184   184   184            PRN / # OF OBS
   G 6   111   111   111   111   111   111   111            PRN / # OF OBS
   G 7   241   241   241   241   241   241   241            PRN / # OF OBS
   G 8   241   241   241   241   241   241   241            PRN / # OF OBS
   G11   241   241   241   241   241   241   241            PRN / # OF OBS
   G16     6     6     6     6     6     6     6            PRN / # OF OBS
   G17    14    14    14    14    14    14    14            PRN / # OF OBS
   G19   241   241   241   241   241   241   241            PRN / # OF OBS
   G20    54    54    54    54    54    54    54            PRN / # OF OBS
   G25   213   213   213   213   213   213   213            PRN / # OF OBS
   G27   241   241   241   241   241   241   241            PRN / # OF OBS
   G28   146   146   146   146   146   146   146            PRN / # OF OBS
   G32    90    90    90    90    90    90    90            PRN / # OF OBS
SE TPS 00000000                                             COMMENT
                                                            END OF HEADER
 08 11  5  3 40  0.0000000  0  9G19G25G 7G 3G27G 6G11G 8G16         
 108001337.198    84156893.3844   20551968.937 8  20551968.21546  20551971.11346
     -1297.499       -1011.034  
 111939554.329    87225629.2014   21301386.398 7  21301385.80546  21301390.23446
     -1542.189       -1201.704  
 110390569.533    86018626.9774   21006625.241 7  21006625.48246  21006628.90446
      -156.129        -121.654  
 113079643.711    88114009.0434   21518337.675 7  21518336.98345  21518342.33145
     -2809.808       -2189.461  
 115258773.431    89812031.3074   21933010.824 7  21933010.49545  21933015.79445
       744.078         579.804  
 119669634.752    93249064.0424   22772369.933 7  22772369.58444  22772375.21544
     -2971.856       -2315.730  
 116819370.406    91028087.8624   22229985.923 7  22229985.53944  22229989.41344
      2735.490        2131.549  
 121133910.448    94390070.7324   23051014.136 7  23051014.05144  23051019.20544
      2474.696        1928.339  
 127861922.806    99632665.1804   24331310.184 6  24331309.37643  24331315.93043
     -3181.346       -2478.963  
 08 11  5  3 40 30.0000000  0  9G19G25G 7G 3G27G 6G11G 8G16         
 108040307.857    84187260.1284   20559384.912 8  20559384.17946  20559387.11646
     -1300.615       -1013.470  
 111985971.144    87261798.1224   21310218.792 8  21310218.65345  21310223.26645
     -1552.344       -1209.622  
 110395445.147    86022426.1504   21007552.722 7  21007553.05446  21007556.60546
      -169.001        -131.690  
 113163912.661    88179673.1424   21534373.818 7  21534373.64845  21534378.11145
     -2808.164       -2188.179  
 115236584.509    89794741.2304   21928788.221 7  21928788.03945  21928793.53445
       735.095         572.802  
 119758716.932    93318478.7014   22789321.631 7  22789321.45044  22789327.10044
     -2967.037       -2311.977  
 116737340.567    90964168.4854   22214375.571 7  22214374.88344  22214379.49844
      2733.080        2129.679  
 121059745.398    94332279.7904   23036900.807 7  23036900.32844  23036906.05044
      2469.522        1924.300  
 127957321.932    99707002.0934   24349464.332 5  24349462.95942  24349470.42742
     -3178.667       -2476.866  
 08 11  5  3 41  0.0000000  0  9G19G25G 7G 3G27G 6G11G 8G16         
 108079495.134    84217795.6604   20566841.904 8  20566840.97146  20566843.88946
     -1313.001       -1023.113  
 112032815.779    87298300.4104   21319133.368 8  21319133.07245  21319137.91945
     -1571.760       -1224.747  
 110400830.666    86026622.6384   21008577.649 8  21008577.95846  21008581.74046
      -191.184        -148.972  
 113248255.344    88245394.6994   21550423.742 7  21550423.67945  21550428.29745
     -2815.801       -2194.129  
 115214789.759    89777758.2984   21924641.205 7  21924640.86045  21924646.12245
       716.744         558.508  
 119847778.022    93387876.9114   22806269.417 7  22806269.27044  22806274.89344
     -2971.495       -2315.445  
 116655507.592    90900402.5404   22198803.630 7  22198803.51944  22198807.81644
      2721.289        2120.485  
 120985860.934    94274707.4914   23022840.790 6  23022840.13644  23022846.58844
      2454.948        1912.952  
 128052765.272    99781373.4314   24367626.863 6  24367627.23742  24367632.21143
     -3185.356       -2482.089  
 08 11  5  3 41 30.0000000  0  9G19G25G 7G 3G27G 6G11G 8G16         
 106543764.631    83021122.5454   20274602.479 8  20274601.75546  20274604.27846
     -1333.990       -1039.476  
 110504954.460    86107759.1074   21028390.761 8  21028390.65945  21028395.16245
     -1599.815       -1246.615  
 108831592.561    84803839.6934   20709961.209 8  20709961.82745  20709965.49845
      -222.052        -173.033  
 111757539.568    87083797.9754   21266750.071 7  21266749.83945  21266754.47545
     -2832.056       -2206.796  
 113618255.484    88533705.6034   21620830.743 7  21620830.24345  21620835.37745
       689.712         537.432  
 118361685.378    92229882.6084   22523475.934 6  22523475.46044  22523480.83444
     -2984.573       -2325.649  
 114998736.411    89609411.9884   21883530.529 7  21883530.34444  21883534.25744
      2700.792        2104.510  
 119337122.989    92989976.6374   22709096.480 7  22709096.27044  22709102.06244
      2431.617        1894.765  
 126573121.408    98628404.1364   24086060.062 6  24086059.96042  24086065.41342
     -3200.616       -2493.973  
 08 11  5  3 42  0.0000000  0  9G19G25G 7G 3G27G 6G11G 8G16         
 106584136.136    83052580.8514   20282285.077 8  20282283.97946  20282286.64146
     -1359.269       -1059.169  
 110553406.701    86145514.0794   21037611.240 8  21037611.07945  21037615.46645
     -1632.154       -1271.808  
 108838754.534    84809420.4354   20711324.526 7  20711324.57745  20711328.44545
      -257.261        -200.462  
 111842781.802    87150220.4664   21282971.310 7  21282970.92145  21282975.41745
     -2852.595       -2222.805  
 113598008.631    88517928.8354   21616977.853 7  21616977.30945  21616982.85645
       658.251         512.927  
 118451455.915    92299833.6404   22540558.409 7  22540558.32544  22540563.82544
     -3001.972       -2339.207  
 114918058.749    89546546.2794   21868177.991 7  21868177.71444  21868181.94644
      2675.873        2085.101  
 119264563.435    92933436.7354   22695289.151 7  22695288.31244  22695294.14444
      2403.848        1873.126  
 126669407.112    98703431.8804   24104382.961 6  24104382.65542  24104387.28642
     -3220.218       -2509.259  
 08 11  5  3 42 30.0000000  0  9G19G25G 7G 3G27G 6G11G 8G16         
 106625306.696    83084661.8044   20290119.373 8  20290118.60446  20290121.08446
     -1384.678       -1078.970  
 110602870.320    86184057.1424   21047023.638 7  21047023.50645  21047027.93245
     -1664.646       -1297.125  
 108847014.806    84815856.9974   20712896.165 7  20712897.03345  20712900.36745
      -292.681        -228.063  
 111928681.234    87217155.0844   21299317.340 7  21299316.98245  21299321.70145
     -2873.274       -2238.914  
 113578747.225    88502919.9334   21613312.745 7  21613312.54945  21613317.50145
       626.595         488.252  
 118541788.683    92370222.7624   22557748.587 7  22557748.48744  22557753.65044
     -3019.493       -2352.845  
 114838171.513    89484296.4864   21852976.045 7  21852975.76544  21852979.80444
      2650.691        2065.470  
 119192879.984    92877579.5124   22681647.562 6  22681647.14544  22681653.35144
      2375.809        1851.278  
 126766322.978    98778950.6694   24122825.683 6  24122825.90842  24122830.55142
     -3240.058       -2524.712  
 08 11  5  3 43  0.0000000  0  8G19G25G 7G 3G27G 6G11G 8            
 106667196.181    83117302.9564   20298090.585 8  20298089.64446  20298092.54546
     -1407.062       -1096.411  
 110653265.023    86223325.7224   21056613.465 8  21056613.22345  21056617.86745
     -1694.113       -1320.085  
 108856294.884    84823088.2114   20714662.156 7  20714662.61746  20714666.84446
      -325.116        -253.334  
 112015156.993    87284538.7724   21315773.176 7  21315772.85845  21315777.55945
     -2890.914       -2252.653  
 113560393.202    88488618.0904   21609820.220 7  21609820.06045  21609825.53145
       597.873         465.875  
 118632603.897    92440987.8334   22575030.130 7  22575030.21844  22575034.51944
     -3034.000       -2364.159  
 114758998.288    89422603.0694   21837909.865 7  21837909.70144  21837913.65744
      2628.406        2048.103  
 119121995.968    92822345.2134   22668159.042 7  22668158.24344  22668164.29744
      2350.648        1831.674  
 08 11  5  3 43 30.0000000  0  8G19G25G 7G 3G27G 6G11G 8            
 106709638.139    83150374.6064   20306167.089 8  20306166.36946  20306168.91146
     -1421.615       -1107.751  
 110704424.910    86263190.5494   21066348.847 8  21066349.01245  21066353.22545
     -1715.769       -1336.958  
 108866430.386    84830985.9924   20716590.888 8  20716591.03246  20716595.25846
      -349.805        -272.572  
 112102042.913    87352242.0664   21332306.685 7  21332306.53445  21332311.87345
     -2900.704       -2260.285  
 113542783.220    88474896.0104   21606469.106 7  21606468.52045  21606474.04345
       576.890         449.530  
 118723735.539    92511999.4714   22592371.551 7  22592371.64244  22592376.20244
     -3040.676       -2369.356  
 114680375.948    89361338.9104   21822948.013 7  21822947.78744  21822952.41244
      2613.827        2036.747  
 119051750.600    92767608.5784   22654792.259 7  22654791.43844  22654797.13744
      2333.159        1818.044  
 08 11  5  3 44  0.0000000  0  8G19G25G 7G 3G27G 6G11G 8            
 106752443.285    83183729.2674   20314312.710 8  20314311.71346  20314314.67746
     -1431.635       -1115.561  
 110756161.157    86303504.4884   21076194.133 8  21076193.92445  21076198.64945
     -1732.905       -1350.316  
 108877233.493    84839403.9984   20718646.820 8  20718646.93046  20718651.00646
      -369.981        -288.299  
 112189149.916    87420117.6344   21348882.759 7  21348881.83845  21348888.00445
     -2905.998       -2264.414  
 113525731.031    88461608.5804   21603224.180 7  21603223.65045  21603228.97545
       560.344         436.631  
 118814995.008    92583110.7144   22609737.834 7  22609737.61844  22609742.78444
     -3042.842       -2371.052  
 114602119.085    89300359.5444   21808056.586 7  21808056.19345  21808061.17945
      2603.692        2028.856  
 118981958.801    92713225.3684   22641511.320 7  22641510.90144  22641516.53044
      2320.066        1807.838  
 08 11  5  3 44 30.0000000  0  8G19G25G 7G 3G27G 6G11G 8            
 106795417.963    83217216.0174   20322490.348 8  20322489.34646  20322492.38346
     -1434.443       -1117.746  
 110808280.203    86344116.7084   21086112.008 8  21086111.68045  21086116.02545
     -1742.808       -1358.033  
 108888512.754    84848193.0194   20720793.067 7  20720793.09646  20720797.21646
      -383.050        -298.484  
 112276284.194    87488014.4514   21365464.075 7  21365463.88745  21365468.81345
     -2904.053       -2262.905  
 113509045.461    88448606.8254   21600049.426 7  21600049.02945  21600053.80745
       550.928         429.298  
 118906189.281    92654171.1544   22627091.347 7  22627090.89744  22627096.18744
     -3037.851       -2367.154  
 114524037.717    89239516.9414   21793198.497 7  21793197.97745  21793202.78645
      2600.633        2026.461  
 118912430.546    92659047.5044   22628280.558 7  22628280.20944  22628285.50344
      2314.045        1803.153  
 08 11  5  3 45  0.0000000  0  8G19G25G 7G 3G27G 6G11G 8            
 106838470.688    83250763.5964   20330683.227 8  20330682.44146  20330684.81946
     -1435.415       -1118.505  
 110860690.930    86384956.2204   21096085.541 8  21096085.87645  21096089.49745
     -1750.912       -1364.343  
 108900178.369    84857283.0984   20723012.970 7  20723013.41746  20723016.86346
      -394.330        -307.270  
 112363354.510    87555861.4404   21382032.636 7  21382032.37545  21382037.44145
     -2900.302       -2259.972  
 113492638.081    88435821.8434   21596927.050 7  21596926.47745  21596931.34945
       543.222         423.290  
 118997227.077    92725109.6724   22644415.654 7  22644415.64544  22644419.67544
     -3031.004       -2361.819  
 114446044.108    89178742.7094   21778356.486 7  21778356.23745  21778360.20245
      2599.253        2025.396  
 118843079.156    92605007.4744   22615083.615 7  22615082.75544  22615088.36644
      2309.688        1799.761  
 08 11  5  3 45 30.0000000  0  8G19G25G 7G 3G27G 6G11G 8            
 106881527.709    83284314.5174   20338876.551 8  20338875.80146  20338878.55346
     -1435.060       -1118.233  
 110913319.687    86425965.6314   21106100.151 8  21106100.12145  21106104.52945
     -1757.681       -1369.622  
 108912158.240    84866618.0554   20725293.260 8  20725292.97446  20725296.83646
      -404.357        -315.088  
 112450287.521    87623601.4284   21398575.327 7  21398574.95345  21398580.52045
     -2895.214       -2256.003  
 113476437.459    88423197.9754   21593844.244 7  21593844.28545  21593848.30945
       536.787         418.274  
 119088035.051    92795869.1104   22661695.500 7  22661695.38744  22661700.24044
     -3022.833       -2355.440  
 114368068.146    89117982.2374   21763518.155 7  21763517.95345  21763522.33744
      2599.112        2025.278  
 118773835.167    92551051.1244   22601907.135 7  22601906.60044  22601910.85644
      2306.523        1797.302  
 08 11  5  3 46  0.0000000  0  8G19G25G 7G 3G27G 6G11G 8            
 106924551.854    83317839.8274   20347064.078 8  20347063.11046  20347065.70746
     -1433.400       -1116.932  
 110966129.596    86467116.1934   21116149.821 7  21116149.56345  21116154.12745
     -1763.168       -1373.891  
 108924417.183    84876170.4684   20727625.639 8  20727626.08846  20727629.69146
      -413.108        -321.900  
 112537045.607    87691205.1204   21415084.954 7  21415084.62444  21415089.67345
     -2888.847       -2251.045  
 113460409.191    88410708.4074   21590794.699 7  21590794.36545  21590798.64445
       531.559         414.202  
 119178576.760    92866421.0614   22678925.632 6  22678924.91544  22678930.00344
     -3013.451       -2348.144  
 114290076.363    89057209.4364   21748677.186 7  21748677.13845  21748680.69844
      2600.131        2026.072  
 118704665.834    92497152.9564   22588744.726 7  22588744.30744  22588748.27044
      2304.556        1795.759  
 08 11  5  3 46 30.0000000  0  8G19G25G 7G 3G27G 6G11G 8            
 106967531.146    83351330.1804   20355242.490 8  20355241.63246  20355244.84846
     -1433.325       -1116.871  
 111019108.802    86508398.6734   21126231.399 8  21126231.49845  21126235.86145
     -1770.207       -1379.375  
 108936944.749    84885932.1964   20730009.746 8  20730009.79745  20730013.58645
      -423.501        -330.001  
 112623617.304    87758663.5734   21431559.174 7  21431558.85744  21431563.87045
     -2884.025       -2247.286  
 113444544.271    88398346.1164   21587775.671 7  21587775.27845  21587779.69245
       524.671         408.840  
 119268840.656    92936756.5364   22696101.510 7  22696101.54144  22696107.17744
     -3005.608       -2342.027  
 114212060.536    88996417.8994   21733830.469 7  21733829.95645  21733834.90044
      2599.465        2025.561  
 118635563.698    92443307.1404   22575594.900 7  22575594.35944  22575598.83744
      2300.839        1792.853  
 08 11  5  3 47  0.0000000  0  8G19G25G 7G 3G27G 6G11G 8            
 107010479.356    83384796.3194   20363415.470 8  20363414.49846  20363417.23646
     -1430.309       -1114.525  
 111072271.098    86549823.8264   21136347.861 8  21136347.64845  21136352.22445
     -1774.352       -1382.612  
 108949756.299    84895915.2154   20732447.461 8  20732447.62246  20732451.70146
      -431.021        -335.864  
 112710016.512    87825987.6174   21448000.751 7  21448000.31145  21448005.55545
     -2876.327       -2241.295  
 113428858.772    88386123.6384   21584790.433 7  21584790.07945  21584794.78545
       520.619         405.674  
 119358840.860    93006886.5294   22713228.182 6  22713228.35844  22713233.64744
     -2994.789       -2333.601  
 114134037.844    88935621.0284   21718983.541 7  21718983.43345  21718987.87845
      2601.615        2027.232  
 118566546.697    92389527.6674   22562461.102 6  22562460.38444  22562465.47844
      2299.874        1792.111  
 08 11  5  3 47 30.0000000  0  8G19G25G 7G 3G27G 6G11G 8            
 107053365.200    83418213.8564   20371576.216 8  20371575.36246  20371577.90046
     -1428.302       -1112.960  
 111125585.559    86591367.5534   21146493.276 7  21146493.01345  21146497.29745
     -1779.489       -1386.610  
 108962822.384    84906096.5704   20734933.853 8  20734933.93246  20734938.31945
      -439.609        -342.553  
 112796212.197    87893153.0624   21464402.727 7  21464402.75744  21464407.33644
     -2869.603       -2236.047  
 113413324.278    88374018.8314   21581834.605 7  21581834.40645  21581838.71545
       515.460         401.656  
 119448546.785    93076787.2304   22730298.775 7  22730298.60044  22730304.45744
     -2985.108       -2326.056  
 114055980.798    88874797.3914   21704129.859 7  21704129.47245  21704133.91144
      2602.606        2028.009  
 118497588.350    92335793.9034   22549338.539 7  22549338.12044  22549343.47244
      2297.761        1790.467  
 08 11  5  3 48  0.0000000  0  8G19G25G 7G 3G27G 6G11G 8            
 107096201.065    83451592.4494   20379727.768 8  20379726.82346  20379729.61246
     -1426.356       -1111.446  
 111179064.815    86633039.6864   21156669.676 7  21156669.39445  21156674.39045
     -1784.698       -1390.675  
 108976157.159    84916487.2934   20737471.603 8  20737472.12846  20737475.48346
      -448.310        -349.331  
 112882216.678    87960169.5304   21480768.945 7  21480768.03944  21480773.24544
     -2862.950       -2230.877  
 113397955.815    88362043.3864   21578910.067 7  21578909.58845  21578914.26045
       510.163         397.539  
 119537971.454    93146468.7684   22747315.761 6  22747315.72644  22747321.66144
     -2975.458       -2318.540  
 113977905.471    88813959.4984   21689272.624 7  21689272.81145  21689275.95845
      2603.458        2028.671  
 118428705.096    92282118.6504   22536230.849 7  22536230.45844  22536235.98044
      2295.495        1788.699  
 08 11  5  3 48 30.0000000  0  8G19G25G 7G 3G27G 6G11G 8            
 107138989.601    83484934.1594   20387870.287 8  20387869.17946  20387871.66346
     -1426.106       -1111.255  
 111232711.113    86674841.9814   21166878.701 8  21166878.83345  21166882.73245
     -1791.602       -1396.051  
 108989764.629    84927090.5034   20740060.850 7  20740061.28846  20740065.00945
      -458.751        -357.469  
 112968032.292    88027038.8234   21497099.469 7  21497099.28644  21497103.39344
     -2857.988       -2227.004  
 113382758.539    88350201.3414   21576017.881 7  21576017.51445  21576022.72345
       503.082         392.010  
 119627117.611    93215933.2864   22764279.888 7  22764279.66744  22764285.41044
     -2967.536       -2312.366  
 113899817.802    88753111.9994   21674412.974 7  21674412.32045  21674417.14944
      2602.458        2027.889  
 118359903.538    92228507.0614   22523138.894 7  22523138.24244  22523143.15144
      2291.365        1785.479  
 08 11  5  3 49  0.0000000  0  8G19G25G 7G 3G27G 6G11G 8            
 107181727.387    83518236.3294   20396002.418 7  20396001.31646  20396004.58846
     -1424.128       -1109.705  
 111286521.441    86716772.0924   21177118.229 7  21177118.05045  21177122.59445
     -1796.787       -1400.090  
 109003643.093    84937904.8754   20742701.985 8  20742702.17146  20742705.97346
      -467.530        -364.303  
 113053656.326    88093758.8354   21513392.848 7  21513392.77444  21513397.39444
     -2851.322       -2221.805  
 113367731.825    88338492.2014   21573158.480 7  21573158.03645  21573163.37145
       497.635         387.769  
 119715982.742    93285178.8094   22781190.436 6  22781189.97444  22781195.72344
     -2957.857       -2304.813  
 113821718.380    88692255.3414   21659551.182 7  21659550.78145  21659554.70744
      2603.080        2028.382  
 118291184.950    92174960.1184   22510062.298 7  22510061.79744  22510065.94844
      2288.814        1783.494  
 08 11  5  3 49 30.0000000  0  8G19G25G 7G 3G27G 6G11G 8            
 107224435.355    83551515.2644   20404129.711 8  20404129.13646  20404131.65146
     -1423.606       -1109.303  
 111340516.740    86758846.3414   21187393.661 8  21187393.71845  21187397.38745
     -1803.423       -1405.271  
 109017814.906    84948947.8434   20745398.878 8  20745399.14146  20745402.72146
      -477.795        -372.318  
 113139109.786    88160345.9324   21529654.322 7  21529654.02644  21529658.76344
     -2846.094       -2217.737  
 113352898.883    88326934.0564   21570335.860 7  21570335.33245  21570340.50145
       490.677         382.341  
 119804588.224    93354222.0194   22798051.288 6  22798051.25744  22798056.12844
     -2949.719       -2298.479  
 113743631.577    88631408.5204   21644691.687 7  21644691.91445  21644695.72945
      2602.147        2027.639  
 118222574.454    92121497.4064   22497006.020 7  22497005.36144  22497009.39944
      2284.674        1780.266  
 08 11  5  3 50  0.0000000  0  8G19G25G 7G 3G27G 6G11G 8            
 107267139.968    83584791.5844   20412256.191 8  20412255.45546  20412258.02446
     -1423.869       -1109.504  
 111394723.402    86801085.2734   21197708.447 8  21197708.42745  21197712.99545
     -1810.846       -1411.045  
 109032308.121    84960241.2464   20748156.838 8  20748157.32346  20748160.58746
      -488.920        -380.973  
 113224419.317    88226820.8634   21545888.084 7  21545887.60744  21545892.74144
     -2841.697       -2214.306  
 113338288.861    88315549.6084   21567555.772 7  21567555.37745  21567560.21445
       482.823         376.227  
 119892960.946    93423083.8584   22814868.536 6  22814868.09444  22814873.28344
     -2942.308       -2292.714  
 113665587.478    88570594.9684   21629840.329 7  21629840.25045  21629844.51145
      2600.286        2026.192  
 118154102.586    92068142.7074   22483975.860 7  22483975.27144  22483980.12044
      2279.604        1776.311  
 08 11  5  3 50 30.0000000  0  8G19G25G 7G 3G27G 6G11G 8            
 107309853.498    83618074.8464   20420384.144 8  20420383.19246  20420386.17646
     -1423.722       -1109.387  
 111449153.787    86843498.5464   21208066.053 7  21208065.79345  21208070.91145
     -1817.869       -1416.516  
 109047136.548    84971795.8514   20750978.570 8  20750978.89446  20750982.58446
      -499.664        -389.352  
 113309597.028    88293193.0884   21562096.486 7  21562095.95344  21562101.31144
     -2836.836       -2210.520  
 113323916.420    88304350.3024   21564820.714 7  21564820.14845  21564825.41645
       475.320         370.375  
 119981113.619    93491774.2394   22831643.135 6  22831642.69244  22831648.19244
     -2934.582       -2286.692  
 113587601.940    88509827.0484   21614999.884 7  21615000.01645  21615004.27645
      2598.723        2024.975  
 118085785.996    92014909.0064   22470975.400 7  22470974.71044  22470979.73144
      2274.805        1772.568  
 08 11  5  3 51  0.0000000  0  8G19G25G 7G 3G27G 6G11G 8            
 107352562.605    83651354.6634   20428511.449 8  20428510.71146  20428513.30846
     -1423.469       -1109.198  
 111503794.622    86886075.8014   21218464.265 7  21218463.96345  21218468.60945
     -1824.765       -1421.896  
 109062288.149    84983602.2794   20753861.816 8  20753862.17746  20753865.75546
      -510.349        -397.673  
 113394630.256    88359452.7104   21578278.463 7  21578278.01244  21578283.21044
     -2831.916       -2206.684  
 113309770.952    88293327.8334   21562128.891 8  21562128.98745  21562133.54845
       467.805         364.529  
 120069034.078    93560283.6554   22848373.740 6  22848373.59844  22848379.02944
     -2926.723       -2280.557  
 113509665.091    88449097.0634   21600170.003 7  21600169.96745  21600173.22845
      2597.138        2023.735  
 118017615.925    91961789.4794   22458003.108 7  22458002.74944  22458007.76844
      2269.952        1768.792  
 08 11  5  3 51 30.0000000  0  8G19G25G 7G 3G27G 6G11G 8            
 107395275.696    83684637.5814   20436639.560 8  20436638.67046  20436641.44946
     -1423.531       -1109.248  
 111558654.266    86928823.5674   21228903.916 8  21228903.98545  21228908.06645
     -1831.986       -1427.523  
 109077772.902    84995668.3154   20756808.465 8  20756808.92446  20756812.47646
      -521.427        -406.305  
 113479527.392    88425606.3054   21594433.868 7  21594433.58944  21594438.60044
     -2827.340       -2203.122  
 113295863.273    88282490.6734   21559482.239 7  21559481.93845  21559486.59045
       459.906         358.373  
 120156730.983    93628618.8884   22865062.076 6  22865061.91744  22865067.08144
     -2919.193       -2274.708  
 113431789.355    88388414.7034   21585350.339 7  21585350.13245  21585354.04645
      2595.113        2022.160  
 117949604.908    91908793.8914   22445060.796 7  22445060.31144  22445065.87044
      2264.648        1764.656  
 08 11  5  3 52  0.0000000  0  8G19G25G 7G 3G27G 6G11G 8            
 107438000.303    83717929.4694   20444770.062 8  20444769.42346  20444771.72646
     -1424.194       -1109.764  
 111613740.094    86971747.5644   21239386.146 8  21239385.79645  21239390.60145
     -1839.783       -1433.596  
 109093599.866    85008001.0034   20759820.424 8  20759820.85346  20759824.46346
      -533.114        -415.409  
 113564295.942    88491659.7034   21610565.117 7  21610565.03744  21610569.01844
     -2823.317       -2199.982  
 113282203.439    88271846.6384   21556882.771 7  21556882.48145  21556887.44445
       451.340         351.695  
 120244212.175    93696786.0194   22881709.432 7  22881709.35144  22881714.52644
     -2912.348       -2269.360  
 113353985.317    88327788.1994   21570544.466 7  21570544.37545  21570548.28345
      2592.407        2020.057  
 117881764.873    91855931.5344   22432150.950 7  22432150.02644  22432156.89544
      2258.592        1759.944  
 08 11  5  3 52 30.0000000  0  8G19G25G 7G 3G27G 6G11G 8            
 107480730.084    83751225.3984   20452901.086 8  20452900.26146  20452902.75546
     -1424.459       -1109.969  
 111669045.644    87014842.7814   21249909.918 7  21249909.40545  21249915.04545
     -1847.221       -1439.396  
 109109763.707    85020596.1984   20762896.066 8  20762896.50646  20762900.15246
      -544.477        -424.272  
 113648930.176    88557608.4374   21626670.194 7  21626669.81544  21626674.48444
     -2818.943       -2196.584  
 113268787.381    88261392.5624   21554330.402 7  21554329.86345  21554334.64445
       443.085         345.257  
 120331472.247    93764780.8544   22898314.819 6  22898314.83444  22898319.82944
     -2905.002       -2263.644  
 113276250.291    88267215.4764   21555752.411 7  21555752.35545  21555755.81545
      2589.938        2018.133  
 117814093.709    91803200.7644   22419273.775 7  22419273.14644  22419279.22144
      2252.831        1755.447  
 08 11  5  3 53  0.0000000  0  8G19G25G 7G 3G27G 6G11G 8            
 107523473.779    83784532.1554   20461034.956 8  20461034.09146  20461036.95846
     -1425.384       -1110.684  
 111724579.688    87058116.0394   21260478.177 8  21260478.12745  21260482.93045
     -1855.311       -1445.696  
 109126274.845    85033462.0024   20766038.052 7  20766038.40245  20766042.19145
      -556.545        -433.666  
 113733439.006    88623459.4464   21642751.731 7  21642751.29044  21642756.47544
     -2815.226       -2193.682  
 113255626.527    88251137.3314   21551825.643 7  21551825.31845  21551830.34045
       434.053         338.229  
 120418520.316    93832610.4934   22914879.136 7  22914878.85844  22914884.42044
     -2898.451       -2258.538  
 113198596.702    88206706.2104   21540975.212 7  21540975.05245  21540978.62445
      2586.693        2015.602  
 117746604.009    91750611.3914   22406430.715 7  22406429.92344  22406436.08244
      2246.212        1750.309  
 08 11  5  3 53 30.0000000  0  8G19G25G 7G 3G27G 6G11G 8            
 107566254.882    83817868.0704   20469175.762 7  20469174.94546  20469177.71746
     -1426.769       -1111.761  
 111780365.487    87101585.4754   21271093.808 8  21271093.89845  21271098.55945
     -1863.815       -1452.325  
 109143158.014    85046617.7114   20769250.994 8  20769251.23846  20769255.00346
      -569.099        -443.451  
 113817845.725    88689230.8934   21658813.997 7  21658813.68044  21658817.99244
     -2811.987       -2191.156  
 113242746.671    88241101.0724   21549374.680 7  21549374.18645  21549379.40245
       424.504         330.789  
 120505380.556    93900293.7864   22931407.882 7  22931408.07444  22931413.56844
     -2892.304       -2253.743  
 113121051.356    88146281.2844   21526218.657 7  21526218.72045  21526222.11945
      2582.890        2012.648  
 117679323.799    91698185.2634   22393627.389 7  22393626.80744  22393633.21544
      2239.021        1744.690  
 08 11  5  3 54  0.0000000  0  8G19G25G 7G 3G27G 6G11G 8            
 107609074.163    83851233.7354   20477324.026 8  20477323.20046  20477326.19046
     -1428.482       -1113.107  
 111836403.777    87145251.6504   21281757.615 8  21281757.66845  21281762.34945
     -1872.686       -1459.239  
 109160415.300    85060064.9324   20772534.872 7  20772535.33746  20772539.04445
      -582.029        -453.536  
 113902151.944    88754924.0374   21674856.850 7  21674856.91445  21674861.18644
     -2809.050       -2188.875  
 113230150.822    88231286.1144   21546977.862 7  21546977.62145  21546982.66145
       414.563         323.038  
 120592054.235    93967831.6854   22947901.656 7  22947901.88844  22947907.41644
     -2886.552       -2249.260  
 113043618.809    88085944.2594   21511483.911 7  21511483.97145  21511487.63045
      2578.619        2009.312  
 117612257.980    91645926.1974   22380865.794 7  22380865.27844  22380870.91444
      2231.381        1738.737  
 08 11  5  3 54 30.0000000  0  8G19G25G 7G 3G27G 6G11G 8            
 107651927.282    83884625.7624   20485479.019 8  20485478.19346  20485480.82446
     -1429.269       -1113.716  
 111892689.914    87189110.9634   21292468.763 8  21292468.35445  21292473.00545
     -1880.593       -1465.400  
 109178043.537    85073801.2044   20775889.189 7  20775889.57546  20775893.34145
      -594.078        -462.917  
 113986353.118    88820535.3214   21690880.164 7  21690879.65744  21690884.21544
     -2805.215       -2185.886  
 113217837.061    88221690.9664   21544634.686 7  21544634.06945  21544639.30545
       405.461         315.945  
 120678537.496    94035221.2074   22964358.890 7  22964358.49744  22964364.96344
     -2879.897       -2244.079  
 112966297.902    88025694.2164   21496770.225 7  21496770.31045  21496773.56745
      2575.194        2006.643  
 117545406.544    91593834.1704   22368144.360 7  22368143.68544  22368149.51744
      2224.490        1733.371  
 08 11  5  3 55  0.0000000  0  8G19G25G 7G 3G27G 6G11G 8            
 107694832.773    83918058.6024   20493643.414 8  20493642.73946  20493645.40246
     -1431.108       -1115.148  
 111949242.634    87233178.0014   21303230.543 7  21303230.34645  21303234.97745
     -1889.574       -1472.400  
 109196062.716    85087842.1134   20779318.402 7  20779318.59146  20779322.74246
      -607.231        -473.169  
 114070467.806    88886079.2284   21706886.562 7  21706885.87344  21706890.69544
     -2802.441       -2183.723  
 113205826.388    88212331.9974   21542348.819 7  21542348.83945  21542353.87545
       395.229         307.968  
 120764850.040    94102477.7114   22980782.744 6  22980782.46044  22980788.77944
     -2874.307       -2239.717  
 112889111.131    87965548.6894   21482081.666 7  21482081.15445  21482085.72145
      2570.564        2003.040  
 117478792.621    91541927.2294   22355468.732 7  22355468.26744  22355473.46344
      2216.413        1727.072  
 08 11  5  3 55 30.0000000  0  8G19G25G 7G 3G27G 6G11G 8            
 107737790.751    83951532.3504   20501818.155 8  20501817.29946  20501820.06346
     -1432.349       -1116.116  
 112006061.462    87277452.3944   21314042.384 7  21314042.01345  21314047.18145
     -1897.924       -1478.900  
 109214473.787    85102188.3884   20782822.030 8  20782822.11146  20782826.06646
      -619.781        -482.943  
 114154496.633    88951556.2164   21722876.382 7  21722875.85544  21722881.34444
     -2799.080       -2181.093  
 113194120.937    88203210.8524   21540121.935 7  21540121.19145  21540126.43445
       385.542         300.422  
 120850992.157    94169601.4174   22997175.561 6  22997175.13444  22997181.07244
     -2868.107       -2234.888  
 112812061.943    87905510.3824   21467419.432 7  21467418.91345  21467423.74945
      2566.388        1999.780  
 117412419.907    91490208.2384   22342838.558 7  22342837.90744  22342842.34344
      2208.832        1721.169  
 08 11  5  3 56  0.0000000  0  8G19G25G 7G 3G27G 6G11G 8            
 107780817.320    83985059.5444   20510005.883 8  20510005.11246  20510007.68746
     -1435.145       -1118.296  
 112063162.327    87321946.5564   21324908.774 7  21324908.59945  21324912.97845
     -1907.865       -1486.646  
 109233294.311    85116853.7244   20786403.633 8  20786403.57745  20786407.49245
      -633.979        -494.007  
 114238455.831    89016978.9574   21738853.287 7  21738853.05244  21738858.01044
     -2797.260       -2179.686  
 113182739.332    88194342.0604   21537955.753 7  21537955.34645  21537960.44945
       374.166         291.559  
 120936980.536    94236605.3204   23013538.761 6  23013537.79744  23013544.16244
     -2863.530       -2231.310  
 112735170.139    87845594.7004   21452787.597 7  21452787.37045  21452791.71145
      2560.618        1995.287  
 117346308.751    91438693.0624   22330257.665 7  22330257.17144  22330262.36344
      2199.520        1713.901  
 08 11  5  3 56 30.0000000  0  8G19G25G 7G 3G27G 6G11G 8            
 107823915.480    84018642.5234   20518207.146 8  20518206.37246  20518208.82746
     -1437.869       -1120.415  
 112120548.113    87366662.7284   21335828.540 7  21335828.44145  21335832.98045
     -1917.677       -1494.296  
 109252528.730    85131841.5704   20790063.511 7  20790063.89245  20790067.53945
      -648.113        -505.020  
 114322348.607    89082349.9354   21754817.746 7  21754817.34644  21754822.35544
     -2795.389       -2178.217  
 113171687.030    88185729.8654   21535852.969 7  21535852.35545  21535857.30845
       362.822         282.721  
 121022818.836    94303492.2934   23029873.350 7  23029873.27544  23029878.89544
     -2858.850       -2227.681  
 112658441.806    87785806.4114   21438186.972 7  21438186.77945  21438191.07145
      2554.774        1990.736  
 117280466.362    91387387.3084   22317728.187 7  22317727.70244  22317732.72144
      2190.151        1706.609  
 08 11  5  3 57  0.0000000  0  8G19G25G 7G 3G27G 6G11G 8            
 107867083.218    84052279.7234   20526421.679 8  20526420.85646  20526423.60546
     -1440.250       -1122.276  
 112178216.688    87411599.2654   21346802.561 8  21346802.24745  21346807.51945
     -1927.157       -1501.683  
 109272175.741    85147150.9164   20793802.688 7  20793802.61645  20793806.47445
      -661.968        -515.819  
 114406173.480    89147668.0024   21770768.826 7  21770768.71044  21770773.52944
     -2793.176       -2176.507  
 113160964.200    88177374.4074   21533812.322 8  21533812.06145  21533816.27545
       351.756         274.097  
 121108506.191    94370261.6234   23046179.269 6  23046178.89944  23046184.51244
     -2853.932       -2223.838  
 112581878.333    87726146.5774   21423617.548 7  21423617.45945  21423620.93445
      2549.167        1986.365  
 117214895.122    91336292.8384   22305250.121 7  22305249.37144  22305254.95844
      2180.967        1699.458  
 08 11  5  3 57 30.0000000  0  8G19G25G 7G 3G27G 6G11G 8            
 107910320.191    84085970.8764   20534649.478 8  20534648.34246  20534651.28446
     -1442.109       -1123.728  
 112236167.278    87456755.5474   21357830.243 7  21357830.15245  21357835.08845
     -1936.097       -1508.653  
 109292236.109    85162782.3614   20797619.529 8  20797619.87646  20797623.84646
      -675.291        -526.200  
 114489930.241    89212932.9944   21786707.312 7  21786706.83644  21786712.16244
     -2790.482       -2174.405  
 113150572.630    88169277.0724   21531834.429 7  21531834.69745  21531838.99245
       341.128         265.811  
 121194042.668    94436913.3864   23062456.197 7  23062456.03044  23062461.91844
     -2848.449       -2219.569  
 112505483.042    87666617.7944   21409079.833 7  21409079.64245  21409083.40145
      2543.958        1982.308  
 117149598.670    91285412.4964   22292824.873 7  22292824.04444  22292829.05744
      2172.208        1692.619  
 08 11  5  3 58  0.0000000  0  8G19G25G 7G 3G27G 6G11G 8            
 107953631.425    84119719.8874   20542891.438 8  20542890.71046  20542893.33746
     -1445.278       -1126.193  
 112294404.359    87502135.0714   21368912.660 8  21368912.60245  21368917.36145
     -1946.322       -1516.616  
 109312715.913    85178740.6344   20801516.797 7  20801517.19245  20801521.08145
      -690.002        -537.670  
 114573624.056    89278148.9344   21802633.756 7  21802633.37744  21802638.07544
     -2789.076       -2173.308  
 113140519.408    88161443.3794   21529921.822 7  21529921.53245  21529926.18545
       329.102         256.442  
 121279433.517    94503451.6864   23078705.890 6  23078706.22144  23078711.58744
     -2844.256       -2216.312  
 112429264.221    87607226.5234   21394576.096 7  21394575.30845  21394579.67245
      2537.301        1977.109  
 117084585.992    91234753.2724   22280453.114 7  22280452.87544  22280457.85944
      2161.980        1684.655  
 08 11  5  3 58 30.0000000  0  8G19G25G 7G 3G27G 6G11G 8            
 107997028.871    84153536.0834   20551149.587 8  20551148.85146  20551151.26545
     -1447.612       -1128.012  
 112352940.108    87547747.3284   21380051.663 7  21380051.74945  21380056.25045
     -1955.771       -1523.977  
 109333628.459    85195036.1164   20805496.384 7  20805496.37145  20805500.66545
      -703.909        -548.502  
 114657267.369    89343325.5334   21818550.595 7  21818550.29444  21818555.34944
     -2786.881       -2171.597  
 113130819.087    88153884.6774   21528076.093 7  21528075.69045  21528080.77445
       317.839         247.662  
 121364692.069    94569886.9044   23094930.404 7  23094929.80744  23094934.29044
     -2839.342       -2212.482  
 112353237.427    87547984.8724   21380108.674 7  21380108.45245  21380111.87645
      2531.381        1972.500  
 117019873.538    91184327.9884   22268139.196 7  22268138.48144  22268143.62944
      2152.451        1677.234  
 08 11  5  3 59  0.0000000  0  8G19G25G 7G 3G27G 6G11G 8            
 108040508.718    84187416.4904   20559423.570 8  20559422.77246  20559425.54645
     -1450.837       -1130.520  
 112411770.101    87593588.8564   21391246.581 8  21391246.49845  21391251.15745
     -1966.024       -1531.961  
 109354970.875    85211666.5524   20809557.596 8  20809558.00745  20809561.93945
      -718.713        -560.030  
 114740856.431    89408459.8484   21834457.444 7  21834456.78344  21834461.53744
     -2785.520       -2170.535  
 113121469.858    88146599.5544   21526296.545 7  21526296.18045  21526301.29445
       305.652         238.168  
 121449814.507    94636216.0664   23111128.282 7  23111128.05344  23111133.27144
     -2835.293       -2209.319  
 112277402.315    87488892.5924   21365677.300 7  21365676.76245  21365681.10145
      2524.492        1967.135  
 116955459.530    91134135.2584   22255880.975 7  22255879.86444  22255886.12744
      2141.958        1669.068  
 08 11  5  3 59 30.0000000  0  8G19G25G 7G 3G27G 6G11G 8            
 108084071.475    84221361.4994   20567713.095 8  20567712.31546  20567714.93546
     -1453.968       -1132.959  
 112470894.309    87639659.6534   21402497.617 8  21402497.55945  21402502.09245
     -1976.195       -1539.897  
 109376744.429    85228632.9504   20813700.966 8  20813700.89746  20813705.17845
      -733.470        -571.529  
 114824391.868    89473552.3814   21850353.275 7  21850352.72644  21850358.20744
     -2784.105       -2169.433  
 113112473.903    88139589.7044   21524584.748 7  21524584.36445  21524589.56545
       293.458         228.671  
 121534802.023    94702440.0714   23127300.388 6  23127300.05444  23127306.12444
     -2831.185       -2206.118  
 112201762.467    87429952.4594   21351283.632 7  21351282.90845  21351287.61145
      2517.550        1961.726  
 116891351.276    91084180.7874   22243681.534 7  22243680.78044  22243686.96844
      2131.315        1660.766  
 08 11  5  4  0  0.0000000  0  8G19G25G 7G 3G27G 6G11G 8            
 108127733.106    84255383.5534   20576021.774 8  20576021.04345  20576023.63746
     -1456.555       -1134.978  
 112530328.470    87685971.9644   21413807.390 8  21413807.11745  21413812.19745
     -1985.821       -1547.384  
 109398966.147    85245948.5544   20817929.589 7  20817929.57645  20817933.62945
      -747.723        -582.641  
 114907890.189    89538615.9784   21866242.389 7  21866241.71444  21866247.38744
     -2782.186       -2167.935  
 113103849.737    88132869.5634   21522943.803 7  21522943.67245  21522948.81745
       281.728         219.533  
 121619671.504    94768572.0934   23143450.303 6  23143450.57643  23143456.45543
     -2826.525       -2202.482  
 112126337.564    87371179.8194   21336931.189 7  21336930.49845  21336934.71145
      2511.027        1956.641  
 116827568.681    91034480.0614   22231544.780 7  22231544.13244  22231549.34044
      2121.104        1652.813  
 08 11  5  4  0 30.0000000  0  8G19G25G 7G 3G27G 6G11G 8            
 108171483.002    84289474.3784   20584347.097 7  20584346.11546  20584349.25346
     -1459.960       -1137.629  
 112590061.425    87732517.1084   21425174.418 7  21425174.15445  21425178.58845
     -1996.227       -1555.499  
 109421626.175    85263605.7114   20822241.837 8  20822242.24045  20822246.15945
      -762.803        -594.394  
 114991340.903    89603642.4884   21882122.447 7  21882121.91044  21882127.38044
     -2781.060       -2167.054  
 113095588.658    88126432.3504   21521371.938 8  21521371.74945  21521376.67545
       269.134         209.717  
 121704412.866    94834604.2934   23159577.250 6  23159577.08243  23159581.74643
     -2822.755       -2199.552  
 112051120.103    87312568.8194   21322617.298 7  21322616.89245  21322620.89045
      2503.582        1950.843  
 116764104.850    90985027.7394   22219468.500 7  22219468.06844  22219472.65744
      2109.954        1644.125  
 08 11  5  4  1  0.0000000  0  8G19G25G 7G 3G27G 6G11G 8            
 108215330.769    84323641.4694   20592691.062 8  20592690.17345  20592692.69845
     -1463.348       -1140.272  
 112650102.444    87779302.2994   21436599.443 7  21436599.01045  21436604.22845
     -2006.637       -1563.610  
 109444735.001    85281612.5794   20826639.318 8  20826639.30245  20826643.36545
      -777.925        -606.181  
 115074754.158    89668639.8094   21897995.943 7  21897995.38844  21898000.12144
     -2779.947       -2166.194  
 113087702.386    88120287.1934   21519870.913 8  21519870.83945  21519875.69345
       256.459         199.839  
 121789036.346    94900544.6424   23175679.965 6  23175679.54343  23175685.52243
     -2818.918       -2196.565  
 111976123.172    87254129.6684   21308346.021 7  21308345.81245  21308349.29845
      2496.049        1944.970  
 116700973.442    90935834.4414   22207455.069 7  22207454.26444  22207458.93944
      2098.656        1635.316  
 08 11  5  4  1 30.0000000  0  8G19G25G 7G 3G27G 6G11G 8            
 108259280.527    84357888.0334   20601054.589 7  20601053.41846  20601056.30146
     -1466.791       -1142.957  
 112710455.484    87826330.6184   21448084.242 7  21448084.25845  21448088.83445
     -2017.063       -1571.733  
 109468297.941    85299973.2954   20831123.138 7  20831123.46446  20831127.57145
      -793.111        -618.008  
 115158134.521    89733611.5084   21913862.033 7  21913861.51444  21913866.99244
     -2778.895       -2165.376  
 113080197.597    88114439.2974   21518442.828 7  21518442.63945  21518447.55345
       243.697         189.890  
 121873547.056    94966397.1274   23191762.142 7  23191761.78343  23191766.82643
     -2815.265       -2193.710  
 111901354.300    87195868.2164   21294118.113 7  21294117.85945  21294121.32245
      2488.357        1938.984  
 116638182.536    90886906.4714   22195505.774 7  22195505.08944  22195510.15144
      2087.236        1626.414  
 08 11  5  4  2  0.0000000  0  8G19G25G 7G 3G27G 6G11G 8            
 108303337.899    84392218.4454   20609438.370 8  20609437.43246  20609440.29046
     -1471.010       -1146.242  
 112771125.292    87873605.7704   21459629.571 7  21459629.07345  21459633.83445
     -2028.234       -1580.444  
 109492321.150    85318692.6654   20835694.758 8  20835694.93245  20835698.86445
      -809.091        -630.460  
 115241487.472    89798561.8404   21929723.880 7  21929723.77644  21929728.65344
     -2778.613       -2165.144  
 113073081.265    88108894.0904   21517088.810 7  21517088.83345  21517093.23945
       230.089         179.287  
 121957951.057    95032166.4534   23207823.139 6  23207823.26543  23207828.62743
     -2812.333       -2191.431  
 111826822.300    87137791.3474   21279934.976 7  21279934.53445  21279938.09745
      2479.779        1932.294  
 116575741.147    90838250.8594   22183623.155 7  22183622.65144  22183628.36744
      2074.867        1616.780  
 08 11  5  4  2 30.0000000  0  8G19G25G 7G 3G27G 6G11G 8            
 108347515.033    84426642.1754   20617844.845 8  20617844.04646  20617846.64645
     -1474.394       -1148.876  
 112832123.851    87921137.0914   21471237.482 7  21471237.44445  21471241.53445
     -2038.582       -1588.498  
 109516817.528    85337780.7354   20840356.330 8  20840356.46246  20840360.54946
      -824.259        -642.281  
 115324825.611    89863500.6274   21945582.538 7  21945582.33544  21945586.93044
     -2777.510       -2164.291  
 113066367.720    88103662.7444   21515811.000 7  21515810.74645  21515815.58845
       217.235         169.277  
 122042261.318    95097862.7254   23223867.407 6  23223866.85243  23223872.62143
     -2808.621       -2188.528  
 111752542.531    87079911.0194   21265799.785 7  21265799.24145  21265803.47345
      2471.944        1926.196  
 116513665.956    90789880.5834   22171811.070 7  22171810.00844  22171815.70444
      2063.197        1607.687  
 08 11  5  4  3  0.0000000  0  8G19G25G 7G 3G27G 6G11G 8            
 108391795.658    84461146.5594   20626271.186 7  20626270.50245  20626273.22345
     -1478.263       -1151.890  
 112893434.326    87968911.4674   21482904.108 7  21482904.08645  21482908.65845
     -2049.394       -1596.933  
 109541771.937    85357225.7144   20845105.019 7  20845105.91645  20845109.13045
      -839.961        -654.514  
 115408133.003    89928415.4634   21961435.564 7  21961435.61344  21961440.10544
     -2776.924       -2163.834  
 113060042.632    88098734.0984   21514607.662 8  21514607.51845  21514612.26545
       203.839         158.838  
 122126462.201    95163473.7704   23239890.022 6  23239889.96043  23239895.65143
     -2805.375       -2186.022  
 111678502.287    87022217.3404   21251710.353 7  21251710.14345  21251714.14945
      2463.476        1919.586  
 116451944.473    90741785.9274   22160065.654 7  22160064.97344  22160070.57644
      2050.942        1598.134  
 08 11  5  4  3 30.0000000  0  8G19G25G 7G 3G27G 6G11G 8            
 108436191.284    84495740.5434   20634719.409 7  20634718.45946  20634721.32046
     -1481.283       -1154.247  
 112955067.383    88016937.2054   21494632.273 7  21494632.19345  21494636.62845
     -2059.319       -1604.661  
 109567196.355    85377036.9394   20849943.529 8  20849944.07445  20849947.02945
      -854.841        -666.111  
 115491421.247    89993315.3704   21977284.638 7  21977284.07644  21977289.30444
     -2775.468       -2162.698  
 113054119.400    88094118.5814   21513480.717 8  21513480.51645  21513485.35645
       191.216         148.997  
 122210565.701    95229008.9404   23255894.482 6  23255894.43843  23255899.51843
     -2801.360       -2182.894  
 111604716.266    86964721.7494   21237669.386 7  21237668.69745  21237673.00045
      2455.739        1913.557  
 116390591.941    90693978.7644   22148391.089 7  22148390.08244  22148395.37044
      2039.366        1589.114  
 08 11  5  4  4  0.0000000  0  8G19G25G 7G 3G27G 6G11G 8            
 108480703.248    84530425.1804   20643189.482 7  20643189.07646  20643191.92746
     -1485.245       -1157.330  
 113017024.168    88065215.1914   21506422.535 7  21506422.30045  21506427.28145
     -2070.184       -1613.124  
 109593092.950    85397216.0864   20854870.827 8  20854871.93945  20854875.27846
      -870.670        -678.445  
 115574692.417    90058201.9744   21993130.952 7  21993130.28144  21993134.85144
     -2774.979       -2162.320  
 113048601.355    88089818.7894   21512430.709 7  21512430.42445  21512435.25245
       177.592         138.381  
 122294574.128    95294470.0334   23271880.607 6  23271880.51143  23271886.19943
     -2798.283       -2180.479  
 111531188.953    86907427.7544   21223677.701 7  21223677.44845  21223681.40145
      2446.976        1906.736  
 116329613.764    90646463.3174   22136787.048 7  22136786.50844  22136791.35844
      2026.745        1579.278  
 08 11  5  4  4 30.0000000  0  8G19G25G 7G 3G27G 6G11G 8            
 108525341.433    84565208.1694   20651684.236 8  20651683.23845  20651686.05045
     -1489.620       -1160.740  
 113079313.967    88113752.6754   21518275.671 7  21518275.04145  21518280.18945
     -2081.447       -1621.900  
 109619472.319    85417771.4264   20859890.777 7  20859890.92845  20859894.65645
      -886.944        -691.127  
 115657956.301    90123082.9104   22008975.184 7  22008974.88244  22008979.92344
     -2774.915       -2162.265  
 113043500.413    88085844.0174   21511459.739 8  21511459.47645  21511464.75245
       163.480         127.388  
 122378498.026    95359865.2424   23287850.715 6  23287850.51243  23287856.13143
     -2795.656       -2178.426  
 111457933.814    86850345.8354   21209737.284 7  21209736.73445  21209741.00645
      2437.688        1899.492  
 116269024.086    90599250.5854   22125257.045 7  22125256.50344  22125262.15344
      2013.565        1569.012  
 08 11  5  4  5  0.0000000  0  8G19G25G 7G 3G27G 6G11G 8            
 108570086.324    84600074.3034   20660198.910 8  20660198.02345  20660201.17045
     -1492.491       -1162.978  
 113141916.602    88162533.9394   21530188.656 7  21530188.87445  21530193.14545
     -2091.186       -1629.499  
 109646315.511    85438688.1814   20864999.045 8  20864999.22545  20865002.87545
      -901.729        -702.643  
 115741193.795    90187943.2814   22024814.842 7  22024814.64744  22024819.44744
     -2773.351       -2161.061  
 113038798.806    88082180.4174   21510565.063 7  21510564.84545  21510569.74045
       150.816         117.521  
 122462318.603    95425179.9604   23303801.466 6  23303800.98943  23303807.11843
     -2791.530       -2175.221  
 111384934.376    86793463.1694   21195846.801 8  21195846.85245  21195849.83845
      2429.788        1893.342  
 116208807.168    90552328.3184   22113798.298 7  22113797.16344  22113802.91944
      2001.752        1559.808  
 08 11  5  4  5 30.0000000  0  8G19G25G 7G 3G27G 6G11G 8            
 108614943.549    84635027.9684   20668734.721 7  20668733.50545  20668736.94145
     -1497.084       -1166.557  
 113204837.135    88211562.9034   21542162.072 7  21542162.03345  21542166.93245
     -2102.600       -1638.387  
 109673628.958    85459971.3694   20870196.753 8  20870196.71245  20870200.53445
      -918.241        -715.513  
 115824411.011    90252787.8484   22040650.888 7  22040649.96044  22040655.70244
     -2773.527       -2161.190  
 113034503.942    88078833.7644   21509747.621 8  21509747.33345  21509752.33745
       136.398         106.287  
 122546042.256    95490419.1414   23319733.901 6  23319733.26343  23319739.20043
     -2789.099       -2173.320  
 111312199.420    86736786.5934   21182005.468 7  21182005.21845  21182008.63345
      2420.089        1885.783  
 116148972.539    90505703.9334   22102412.454 7  22102411.53744  22102416.38544
      1988.113        1549.178  
 08 11  5  4  6  0.0000000  0  8G19G25G 7G 3G27G 6G11G 8            
 108659924.588    84670078.1074   20677294.432 7  20677293.58345  20677296.57845
     -1500.805       -1169.459  
 113268086.255    88260847.9064   21554198.320 7  21554198.34745  21554202.45945
     -2113.124       -1646.594  
 109701424.317    85481630.0744   20875486.073 8  20875486.27045  20875489.99545
      -933.910        -727.723  
 115907619.634    90317625.7054   22056484.320 7  22056484.05544  22056490.12744
     -2772.856       -2160.658  
 113030629.111    88075814.4054   21509010.383 7  21509010.10645  21509014.84845
       122.769          95.666  
 122629680.903    95555592.0754   23335649.933 6  23335649.77843  23335655.66943
     -2785.919       -2170.851  
 111239743.635    86680327.5534   21168217.418 7  21168217.48045  21168220.91845
      2411.127        1878.801  
 116089535.476    90459389.3514   22091101.080 7  22091100.59944  22091106.24144
      1975.212        1539.124  
 08 11  5  4  6 30.0000000  0  8G19G25G 7G 3G27G 6G11G 8            
 108705030.487    84705225.5394   20685877.961 7  20685876.96245  20685879.87245
     -1505.366       -1173.011  
 113331664.549    88310389.4154   21566296.659 7  21566296.15745  21566301.39645
     -2124.521       -1655.457  
 109729703.356    85503665.6664   20880867.353 8  20880867.56545  20880870.97445
      -950.467        -740.615  
 115990821.218    90382458.0744   22072317.564 7  22072316.91044  22072322.31744
     -2773.036       -2160.811  
 113027176.989    88073124.4314   21508353.812 8  21508353.34145  21508358.09045
       108.237          84.344  
 122713236.523    95620700.2984   23351549.081 6  23351549.07243  23351555.49243
     -2783.564       -2169.006  
 111167571.462    86624089.5114   21154483.556 8  21154483.55645  21154487.21545
      2401.204        1871.070  
 116030500.926    90413388.4094   22079867.176 7  22079866.66844  22079872.09744
      1961.291        1528.280  
 08 11  5  4  7  0.0000000  0  8G19G25G 7G 3G27G 6G11G 8            
 108750260.786    84740469.9114   20694484.952 8  20694483.91745  20694487.16645
     -1509.686       -1176.378  
 113395570.908    88360186.5614   21578457.723 7  21578457.65645  21578461.99845
     -2135.611       -1664.109  
 109758466.291    85526078.3234   20886340.719 8  20886340.83845  20886344.23445
      -966.773        -753.326  
 116074015.485    90447284.7684   22088149.149 7  22088148.24444  22088153.47644
     -2772.952       -2160.735  
 113024148.873    88070764.8494   21507777.333 7  21507777.08945  21507782.32445
        93.917          73.188  
 122796709.383    95685744.0584   23367434.180 6  23367433.59643  23367439.84243
     -2780.968       -2166.987  
 111095685.541    86568074.5224   21140804.208 8  21140803.81245  21140807.66745
      2391.458        1863.474  
 115971872.600    90367703.9924   22068711.023 7  22068710.29244  22068716.11544
      1947.535        1517.568  
 08 11  5  4  7 30.0000000  0  8G19G25G 7G 3G27G 6G11G 8            
 108795609.810    84775806.7864   20703114.492 7  20703113.64645  20703116.70045
     -1512.611       -1178.654  
 113459798.916    88410234.3404   21590679.663 7  21590679.30345  21590684.06645
     -2145.294       -1671.655  
 109787707.954    85548864.0164   20891905.453 8  20891905.53545  20891909.14945
      -981.689        -764.956  
 116157197.234    90512101.6944   22103978.356 7  22103978.18644  22103982.51744
     -2771.519       -2159.628  
 113021540.962    88068732.7014   21507281.116 8  21507280.90245  21507286.00845
        80.907          63.049  
 122880094.451    95750719.4024   23383302.169 6  23383301.76443  23383307.06443
     -2777.065       -2163.938  
 111024083.165    86512280.4774   21127178.845 8  21127178.36845  21127182.57745
      2382.987        1856.872  
 115913648.381    90322334.4734   22057631.215 7  22057630.32044  22057636.28544
      1935.046        1507.838  
 08 11  5  4  8  0.0000000  0  8G19G25G 7G 3G27G 6G11G 8            
 108841094.436    84811249.3364   20711770.102 7  20711769.36545  20711772.00445
     -1518.211       -1183.020  
 113524365.024    88460545.5674   21602966.021 7  21602965.41045  21602970.77645
     -2157.612       -1681.252  
 109817445.842    85572036.3704   20897564.092 8  20897564.31045  20897568.42845
      -999.323        -778.695  
 116240383.554    90576922.1824   22119807.934 7  22119807.97744  22119812.61244
     -2772.751       -2160.586  
 113019372.225    88067042.7664   21506868.649 7  21506868.33745  21506872.92845
        65.163          50.777  
 122963409.617    95815640.2814   23399156.567 6  23399156.56043  23399162.13843
     -2775.802       -2162.955  
 110952784.793    86456723.3164   21113611.500 8  21113611.23845  21113614.80045
      2371.726        1848.101  
 115855849.238    90277296.1794   22046632.444 7  22046631.64144  22046637.31544
      1919.714        1495.888  
 08 11  5  4  8 30.0000000  0  8G19G25G 7G 3G27G 6G11G 8            
 108886705.879    84846790.7084   20720449.775 8  20720448.88845  20720451.45845
     -1522.825       -1186.619  
 113589259.538    88511112.7084   21615315.317 7  21615314.83645  21615320.03145
     -2168.959       -1690.088  
 109847671.375    85595588.7184   20903315.844 8  20903316.22745  20903319.53545
