     2              OBSERVATION DATA                        RINEX VERSION / TYPE
DAT2RINW 3.10 001   국토지리정보원      11NOV08 21:16:36    PGM / RUN BY / DATE 
(주)범아엔지니어링  국토지리정보원                          OBSERVER / AGENCY   
0220324851          TRIMBLE 5700        Nav 1.24 Sig 1.24   REC # / TYPE / VERS 
012560323           TRM41249.00                             ANT # / TYPE        
----------------------------------------------------------- COMMENT             
Offset from BOTTOM OF ANTENNA to PHASE CENTER is  53.3 mm   COMMENT             
----------------------------------------------------------- COMMENT             
0467                                                        MARKER NAME         
0467                                                        MARKER NUMBER       
 -3100086.3003  4072235.3146  3793549.5208                  APPROX POSITION XYZ 
        0.9574        0.0000        0.0000                  ANTENNA: DELTA H/E/N
*** Above antenna height is from mark to BOTTOM OF ANTENNA. COMMENT             
----------------------------------------------------------- COMMENT             
Note: The above offsets are CORRECTED.                      COMMENT             
Raw Offsets: H=      1.0160 E=      0.0000 N=      0.0000   COMMENT             
----------------------------------------------------------- COMMENT             
     1     1     0                                          WAVELENGTH FACT L1/2
     5    L1    C1    L2    P2    D1                        # / TYPES OF OBSERV 
    15                                                      INTERVAL            
  2008    11    10    22    32   45.000000                  TIME OF FIRST OBS   
  2008    11    11     8    24   15.000000                  TIME OF LAST OBS    
    21                                                      # OF SATELLITES     
     3  1390  1390  1389  1389  1390                        PRN / # OF OBS      
     4   462   462   462   462   462                        PRN / # OF OBS      
     6  1339  1340  1339  1340  1339                        PRN / # OF OBS      
     7  1074  1078  1060  1060  1074                        PRN / # OF OBS      
     8   901   902   872   872   901                        PRN / # OF OBS      
    11  1392  1392  1392  1392  1392                        PRN / # OF OBS      
    13   793   797   777   777   793                        PRN / # OF OBS      
    14   182   182   182   182   182                        PRN / # OF OBS      
    16  1139  1139  1139  1139  1139                        PRN / # OF OBS      
    17   792   792   792   792   792                        PRN / # OF OBS      
    19  1468  1468  1468  1468  1468                        PRN / # OF OBS      
    20   905   906   903   903   905                        PRN / # OF OBS      
    21   478   478   478   478   478                        PRN / # OF OBS      
    23  1053  1058  1030  1030  1053                        PRN / # OF OBS      
    25  1144  1144  1144  1144  1144                        PRN / # OF OBS      
    27  1022  1024   992   992  1022                        PRN / # OF OBS      
    28  1046  1046  1046  1046  1046                        PRN / # OF OBS      
    29   248   248   248   248   248                        PRN / # OF OBS      
    30     8     8     8     8     8                        PRN / # OF OBS      
    31   699   699   699   699   699                        PRN / # OF OBS      
    32  1088  1090  1088  1088  1088                        PRN / # OF OBS      
                                                            END OF HEADER       
 08 11 10 23 29 59.9990000  0  6  3  6 16 23 29 31
  -8758505.46907  22172798.92507  -6806018.16447  22172796.53447      4256.15100
 -13233560.63707  21363922.48707 -10296447.12048  21363920.77648      3439.65200
  -4381312.15207  20065581.72207  -3405970.56049  20065578.21049       723.37100
 -10686287.56307  21929814.96407  -8301980.54047  21929809.68747      2983.27400
   6544888.48406  23761652.01106   5089311.10247  23761650.65947     -2433.55800
     29301.51607  20741360.26107     20931.85449  20741356.94849      -426.53800
 08 11 10 23 30 14.9990000  0  6  3  6 16 23 29 31
  -8822298.30907  22160659.12807  -6855726.85847  22160657.69047      4252.85600
 -13285077.30907  21354119.44007 -10336589.97348  21354117.47948      3434.44500
  -4392094.31307  20063529.95607  -3414372.26449  20063526.64049       718.81100
 -10730928.64507  21921319.66707  -8336765.78347  21921315.44847      2976.07200
   6581445.76206  23768608.69806   5117797.27347  23768607.37847     -2437.15200
     35766.79307  20742590.46407     25969.72848  20742586.94048      -431.01800
 08 11 10 23 30 29.9990000  0  6  3  6 16 23 29 31
  -8886041.28507  22148529.44807  -6905396.71247  22148527.39047      4249.53200
 -13336515.46107  21344331.07307 -10376671.65148  21344329.08148      3429.21000
  -4402807.98407  20061491.01107  -3422720.57849  20061487.78049       714.24500
 -10775461.23007  21912845.75307  -8371466.49648  21912840.95648      2968.83900
   6618056.74206  23775575.65906   5146325.27447  23775574.39047     -2440.73200
     42299.36707  20743833.46407     31060.05349  20743829.98749      -435.50500
 08 11 10 23 30 44.9990000  0  6  3  6 16 23 29 31
  -8949733.50807  22136408.77607  -6955027.00947  22136407.10147      4246.14800
 -13387874.44907  21334557.85407 -10416691.64848  21334556.03448      3423.93300
  -4413452.91407  20059465.19007  -3431015.33549  20059462.06549       709.66200
 -10819884.53907  21904392.55807  -8406082.05648  21904387.47648      2961.55400
   6654721.55906  23782552.83106   5174895.24747  23782551.47247     -2444.32100
     48899.74607  20745089.62007     36203.19749  20745085.87849      -440.02500
 08 11 10 23 30 59.9990000  0  6  3  6 16 23 29 31
  -9013375.68807  22124298.13607  -7004618.30647  22124295.89447      4242.81200
 -13439154.77707  21324798.96407 -10456650.32548  21324797.73748      3418.68900
  -4424029.92207  20057452.81507  -3439257.14848  20057449.35848       705.13400
 -10864199.00807  21895959.62007  -8440612.79948  21895953.90948      2954.29800
   6691439.13706  23789540.02606   5203506.33647  23789538.94047     -2447.83900
     55567.20307  20746358.38607     41398.61448  20746354.80448      -444.49700
 08 11 10 23 31 14.9990000  0  6  3  6 16 23 29 31
  -9076966.70306  22112196.44006  -7054169.75747  22112194.93347      4239.40100
 -13490355.57407  21315056.12807 -10496547.06048  21315054.73748      3413.38600
  -4434538.57007  20055453.05807  -3447445.70549  20055449.35449       700.57700
 -10908403.73407  21887547.64407  -8475058.06747  21887540.87847      2946.98200
   6728209.82006  23796537.55806   5232158.78147  23796535.55047     -2451.37900
     62302.59007  20747640.05007     46646.96849  20747636.37049      -449.02600
 08 11 10 23 31 29.9990000  0  6  3  6 16 23 29 31
  -9140505.78506  22100105.01106  -7103680.71647  22100103.35447      4235.93900
 -13541476.07007  21305328.35407 -10536381.20148  21305326.96848      3408.03300
  -4444978.59007  20053466.52607  -3455580.80349  20053462.54649       696.00100
 -10952498.08607  21879156.51907  -8509417.29747  21879150.84747      2939.62300
   6765033.55906  23803544.65906   5260852.58047  23803542.91747     -2454.91600
     69106.18407  20748934.64407     51948.45749  20748931.58149      -453.57300
 08 11 10 23 31 44.9990000  0  6  3  6 16 23 29 31
  -9203993.48006  22088024.27606  -7153151.63847  22088022.56947      4232.51300
 -13592516.67207  21295615.47907 -10576153.08848  21295613.88648      3402.70700
  -4455350.73007  20051492.40107  -3463662.99349  20051488.75749       691.47600
 -10996482.30907  21870786.80007  -8543690.71447  21870781.22947      2932.28200
   6801909.42606  23810561.47206   5289586.98347  23810560.46047     -2458.39100
     75977.42607  20750242.17507     57302.67049  20750239.07749      -458.08300
 08 11 10 23 31 59.9990000  0  6  3  6 16 23 29 31
  -9267429.71507  22075953.23707  -7202582.46447  22075951.66347      4229.08200
 -13643477.52007  21285917.97907 -10615862.83648  21285915.22648      3397.39000
  -4465655.34407  20049532.08107  -3471692.57149  20049528.12849       686.97400
 -11040356.50807  21862438.36207  -8577878.39247  21862432.13247      2924.94700
   6838836.89806  23817588.85406   5318361.61847  23817587.48347     -2461.83200
     82916.26207  20751562.69807     62709.54949  20751559.58549      -462.58900
 08 11 10 23 32 14.9990000  0  6  3  6 16 23 29 31
  -9330814.77006  22063891.16706  -7251973.41147  22063889.93747      4225.67000
 -13694358.82007  21276235.81507 -10655510.60848  21276233.14048      3392.08700
  -4475893.18007  20047583.83107  -3479670.11349  20047579.79649       682.52200
 -11084120.75807  21854110.04207  -8611980.41248  21854104.09348      2917.61700
   6875815.05906  23824625.62006   5347175.76147  23824623.95247     -2465.21100
     89922.03907  20752895.87807     68168.58749  20752892.12449      -467.05200
 08 11 10 23 32 29.9990000  0  6  3  6 16 23 29 31
  -9394147.50006  22051839.08906  -7301323.59547  22051837.74147      4222.18200
 -13745159.59807  21266568.62807 -10695095.62248  21266566.23748      3386.71800
  -4486063.58607  20045647.85407  -3487595.11049  20045644.51549       678.02700
 -11127774.15207  21845802.96407  -8645996.04248  21845797.47948      2910.22600
   6912844.26606  23831671.50306   5376029.65147  23831670.29247     -2468.61400
     96995.64807  20754241.70607     73680.48248  20754238.72248      -471.57400
 08 11 10 23 32 44.9990000  0  6  3  6 16 23 29 31
  -9457426.50007  22039797.97907  -7350631.91447  22039797.02247      4218.60000
 -13795878.37107  21256916.79207 -10734616.72348  21256914.98748      3381.25200
  -4496165.55107  20043725.87807  -3495466.77048  20043722.14748       673.46400
 -11171315.32807  21837517.01907  -8679924.23048  21837511.53048      2902.74500
   6949925.32006  23838728.35406   5404923.92647  23838727.03447     -2472.07000
    104138.28507  20755600.87007     79246.16948  20755597.96048      -476.17600
 08 11 10 23 32 59.9990000  0  6  3  6 16 23 29 31
  -9520651.32407  22027766.45607  -7399897.99247  22027765.30047      4214.98800
 -13846514.87507  21247281.05807 -10774073.72748  21247279.37048      3375.76700
  -4506199.18007  20041816.40107  -3503285.18949  20041813.05049       668.90900
 -11214743.90207  21829252.12007  -8713764.68647  21829247.44047      2895.23800
   6987058.15206  23845794.76106   5433858.58647  23845792.83147     -2475.52200
    111350.03507  20756973.15907     84865.70448  20756970.05048      -480.78300
 08 11 10 23 33 14.9990000  0  6  3  6 16 23 29 31
  -9583822.21907  22015745.73707  -7449122.05248  22015744.28448      4211.39300
 -13897069.63707  21237660.85407 -10813467.04648  21237658.17548      3370.31700
  -4516165.41807  20039920.12007  -3511051.09249  20039916.53449       664.41600
 -11258060.21507  21821009.61207  -8747517.66347  21821005.19047      2887.75400
   7024241.55506  23852870.37806   5462832.64347  23852868.32747     -2478.89300
    118630.16007  20758358.75307     90538.51848  20758355.11648      -485.34200
 08 11 10 23 33 29.9990000  0  6  3  6 16 23 29 31
  -9646939.30907  22003735.01907  -7498304.19647  22003733.48747      4207.80600
 -13947542.65207  21228056.20607 -10852796.68548  21228053.23748      3364.86800
  -4526064.48407  20038036.48707  -3518764.66149  20038032.69049       659.93800
 -11301264.19906  21812788.34706  -8781183.09648  21812783.52248      2880.26600
   7061474.99205  23859955.28405   5491845.70947  23859953.54647     -2482.22900
    125978.53907  20759757.03407     96264.53449  20759753.56549      -489.89200
 08 11 10 23 33 44.9990000  0  6  3  6 16 23 29 31
  -9710002.44107  21991734.84707  -7547444.31647  21991733.05047      4204.20900
 -13997933.52707  21218466.86207 -10892062.31648  21218464.95648      3359.39200
  -4535896.43407  20036165.08907  -3526425.92349  20036162.12049       655.46300
 -11344355.50007  21804588.38607  -8814760.73348  21804584.20648      2872.75300
   7098758.28905  23867049.82305   5520897.60847  23867048.04247     -2485.55300
    133395.25807  20761168.40907    102043.78649  20761165.08949      -494.44800
 08 11 10 23 33 59.9990000  0  6  3  6 16 23 29 31
  -9773009.43807  21979744.56507  -7596540.68647  21979743.06547      4200.46600
 -14048240.28107  21208893.66707 -10931262.36548  21208891.83148      3353.78400
  -4545659.92607  20034307.43307  -3534033.84449  20034304.18349       650.89900
 -11387332.18807  21796410.41707  -8848249.05148  21796405.64448      2865.11300
   7136092.67205  23874155.15105   5549989.27347  23874152.76147     -2488.95900
    140882.10507  20762593.27607    107877.69649  20762590.14049      -499.12300
 08 11 10 23 34 14.9990000  0  6  3  6 16 23 29 31
  -9835960.13307  21967765.38607  -7645593.18847  21967763.78047      4196.71300
 -14098463.07807  21199336.81507 -10970397.00648  21199335.17948      3348.18600
  -4555355.12107  20032462.38607  -3541588.53849  20032459.39449       646.34600
 -11430194.33207  21788253.83107  -8881648.12548  21788249.16348      2857.47600
   7173477.51605  23881269.14405   5579120.31346  23881266.64446     -2492.32300
    148438.78107  20764031.25307    113765.99349  20764027.75749      -503.77800
 08 11 10 23 34 29.9990000  0  6  3  6 16 23 29 31
  -9898854.31307  21955797.24507  -7694601.64247  21955795.40547      4192.94500
 -14148601.44107  21189795.97207 -11009465.85448  21189793.06548      3342.55800
  -4564982.19107  20030630.55007  -3549090.16449  20030626.97949       641.80500
 -11472941.51207  21780119.87007  -8914957.61348  21780114.81948      2849.81200
   7210912.60205  23888392.93305   5608290.48546  23888389.58146     -2495.67200
    156065.38707  20765482.78407    119708.80249  20765479.19049      -508.44000
 08 11 10 23 34 44.9990000  0  5  3  6 16 23 31
  -9961691.50806  21943839.12806  -7743565.66847  21943837.65547      4189.14600
 -14198655.02707  21180271.40907 -11048468.65148  21180268.25748      3336.90600
  -4574540.96107  20028811.57307  -3556538.55149  20028807.58149       637.25100
 -11515573.08207  21772006.72907  -8948177.02247  21772002.43747      2842.10500
    163762.12107  20766947.02607    125706.24749  20766944.00749      -513.11600
 08 11 10 23 34 59.9990000  0  5  3  6 16 23 31
 -10024470.85506  21931892.88606  -7792484.64847  21931890.77647      4185.29000
 -14248623.07007  21170762.26107 -11087404.80148  21170760.16348      3331.20300
  -4584031.21107  20027005.48707  -3563933.55949  20027001.99949       632.68300
 -11558088.23407  21763916.47207  -8981305.71347  21763911.92947      2834.34300
    171529.53507  20768425.04207    131758.77649  20768422.13649      -517.82800
 08 11 10 23 35 14.9990000  0  5  3  6 16 23 31
 -10087192.00407  21919957.42507  -7841358.27547  21919955.49547      4181.41000
 -14298505.53107  21161269.80807 -11126274.24848  21161268.24948      3325.49700
  -4593453.12507  20025212.69007  -3571275.31448  20025208.79248       628.12800
 -11600487.19107  21755847.63607  -9014343.86247  21755843.26147      2826.59700
    179367.64107  20769916.64407    137866.38449  20769913.98749      -522.54000
 08 11 10 23 35 29.9990000  0  5  3  6 16 23 31
 -10149852.89107  21908033.68307  -7890184.95147  21908031.80047      4177.39200
 -14348300.14507  21151794.55807 -11165075.23948  21151792.91748      3319.64100
  -4602804.93407  20023433.07307  -3578562.44949  20023429.25349       623.45400
 -11642767.59807  21747802.06507  -9047289.64147  21747797.89747      2818.69400
    187278.39107  20771422.45607    144030.58649  20771419.04249      -527.38300
 08 11 10 23 35 44.9990000  0  5  3  6 16 23 31
 -10212453.27307  21896121.22207  -7938964.47947  21896119.66347      4173.35900
 -14398006.76607  21142335.92507 -11203807.67548  21142334.07748      3313.77500
  -4612086.91807  20021666.76107  -3585795.15948  20021663.10848       618.79900
 -11684929.01607  21739779.34707  -9080142.68247  21739774.60447      2810.76100
    195261.87507  20772941.71407    150251.47449  20772938.22649      -532.23200
 08 11 10 23 35 59.9990000  0  5  3  6 16 23 31
 -10274993.44906  21884219.75306  -7987697.07047  21884218.76147      4169.34500
 -14447625.63707  21132893.30807 -11242471.73548  21132891.90948      3307.92500
  -4621299.70307  20019913.69807  -3592973.95649  20019910.17149       614.18600
 -11726971.84007  21731779.03407  -9112903.32447  21731774.08147      2802.85500
    203317.45707  20774474.58107    156528.54049  20774470.84749      -537.03900
 08 11 10 23 36 14.9990000  0  5  3  6 16 23 31
 -10337472.73807  21872330.71407  -8036382.20947  21872329.10447      4165.28600
 -14497156.20707  21123467.71407 -11281066.95548  21123466.50348      3302.03800
  -4630443.06307  20018173.62007  -3600098.64549  20018170.23749       609.55700
 -11768895.32007  21723801.56507  -9145570.98247  21723796.47647      2794.89900
    211445.62507  20776020.95607    162862.17349  20776017.76149      -541.87800
 08 11 10 23 36 29.9990000  0  5  3  6 16 23 31
 -10399891.59807  21860452.83907  -8085020.29748  21860451.42948      4161.25700
 -14546598.98007  21114059.71407 -11319593.79148  21114057.35148      3296.18500
  -4639517.93407  20016446.93307  -3607169.97649  20016443.60449       604.99100
 -11810700.12907  21715845.94007  -9178146.15047  21715841.68347      2786.98700
    219645.60507  20777581.65107    169251.76749  20777577.78849      -546.66500
 08 11 10 23 36 44.9990000  0  5  3  6 16 23 31
 -10462250.62507  21848586.05007  -8133611.74248  21848584.77648      4157.26800
 -14595954.84807  21104667.40107 -11358052.91148  21104665.50748      3290.39100
  -4648525.34407  20014732.73707  -3614188.73948  20014729.43348       600.49400
 -11852387.00007  21707913.72207  -9210629.43147  21707908.67947      2779.12500
    227916.32007  20779155.24507    175696.46849  20779151.90149      -551.38100
 08 11 10 23 36 59.9990000  0  5  3  6 16 23 31
 -10524549.29707  21836731.47207  -8182156.14848  21836729.74148      4153.24500
 -14645223.21507  21095291.94007 -11396443.84048  21095289.63648      3284.55800
  -4657465.25407  20013031.60407  -3621154.89749  20013027.92949       595.99400
 -11893955.41407  21700003.44807  -9243020.40448  21699998.24548      2771.22800
    236258.18007  20780742.51907    182196.61449  20780739.89049      -556.12400
 08 11 10 23 37 14.9990000  0  5  3  6 16 23 31
 -10586788.39507  21824888.19807  -8230654.15248  21824886.47948      4149.27300
 -14694404.72707  21085933.11207 -11434767.09348  21085930.33948      3278.76700
  -4666338.86707  20011343.15107  -3628069.40649  20011339.23349       591.57400
 -11935405.92607  21692115.14407  -9275319.49648  21692110.57348      2763.36700
    244670.33207  20782343.47207    188751.51948  20782340.45248      -560.81000
 08 11 10 23 37 29.9990000  0  5  3  6 16 23 31
 -10648966.91807  21813055.47907  -8279104.94948  21813053.93748      4145.23500
 -14743498.54707  21076590.70607 -11473022.03348  21076588.70248      3272.92100
  -4675145.53507  20009667.30007  -3634931.74949  20009663.99149       587.11100
 -11976737.60507  21684249.94807  -9307525.99948  21684245.62448      2755.44500
    253153.37107  20783957.77607    195361.67349  20783954.67149      -565.53600
 08 11 10 23 37 44.9990000  0  5  3  6 16 23 31
 -10711084.96507  21801234.83107  -8327508.60848  21801233.20248      4141.20300
 -14792504.71507  21067265.47207 -11511208.65248  21067262.96848      3267.07800
  -4683885.67607  20008004.40107  -3641742.24349  20008000.38249       582.67600
 -12017950.53907  21676407.67507  -9339639.96048  21676403.10448      2747.52900
    261707.03107  20785585.63607    202026.85148  20785582.20648      -570.24400
 08 11 10 23 37 59.9990000  0  5  3  6 16 23 31
 -10773141.51607  21789425.67507  -8375864.34848  21789424.34348      4137.10300
 -14841422.60207  21057956.37807 -11549326.48748  21057954.98348      3261.19200
  -4692558.95307  20006353.85407  -3648500.64049  20006350.22249       578.21800
 -12059043.99207  21668587.80007  -9371660.84748  21668582.67548      2739.56400
    270331.84807  20787226.91707    208747.47548  20787223.13248      -574.98800
 08 11 10 23 38 14.9990000  0  5  3  6 16 23 31
 -10835137.13707  21777628.16707  -8424172.62348  21777626.66348      4133.04100
 -14890252.74607  21048664.23707 -11587375.93648  21048662.37048      3255.34300
  -4701166.37107  20004715.63607  -3655207.72749  20004711.89049       573.82800
 -12100018.50807  21660790.88607  -9403589.03148  21660785.56548      2731.63400
    279027.03107  20788881.63607    215522.92748  20788877.94848      -579.67900
 08 11 10 23 38 29.9990000  0  5  3  6 16 23 31
 -10897071.74607  21765842.59707  -8472433.34948  21765840.95248      4128.97400
 -14938995.05107  21039388.90907 -11625356.94148  21039386.72948      3249.48700
  -4709708.22307  20003090.21407  -3661863.70749  20003086.44849       569.45700
 -12140873.98007  21653016.23707  -9435424.45748  21653011.35848      2723.69800
    287792.46507  20790549.50307    222353.13848  20790545.93748      -584.36200
 08 11 10 23 38 44.9990000  0  5  3  6 16 23 31
 -10958943.25807  21754068.56507  -8520644.92148  21754067.41748      4124.76700
 -14987647.88307  21030130.94807 -11663268.25548  21030128.55448      3243.52200
  -4718183.20307  20001477.26107  -3668467.59248  20001473.56548       564.99900
 -12181608.69907  21645264.49507  -9467165.79648  21645259.92948      2715.64800
    296629.57807  20792230.97207    229239.20248  20792227.58548      -589.14100
 08 11 10 23 38 59.9980000  0  5  3  6 16 23 31
 -11020748.57407  21742307.41207  -8568804.89848  21742305.85048      4120.35400
 -15036208.50407  21020889.85707 -11701107.69648  21020887.99048      3237.37500
  -4726591.52307  19999877.27107  -3675019.53849  19999873.32249       560.55500
 -12222220.33607  21637536.39607  -9498811.22948  21637531.56848      2707.44200
    305537.16807  20793925.95907    236180.18748  20793923.08048      -593.83900
 08 11 10 23 39 14.9980000  0  5  3  6 16 23 31
 -11082494.75807  21730557.57607  -8616918.79148  21730556.09248      4116.41200
 -15084682.33207  21011665.52907 -11738879.51248  21011663.86948      3231.58900
  -4734933.79307  19998289.99007  -3681520.01448  19998286.03348       556.15100
 -12262713.40607  21629830.92807  -9530364.26548  21629825.70948      2699.53800
    314517.27707  20795634.74807    243177.67848  20795631.92848      -598.67400
 08 11 10 23 39 29.9980000  0  5  3  6 16 23 31
 -11144177.31607  21718819.73207  -8664983.10448  21718817.98248      4112.17100
 -15133065.82007  21002458.45107 -11776580.92248  21002456.66648      3225.56600
  -4743209.62507  19996714.80307  -3687968.72249  19996711.34649       551.72200
 -12303084.75007  21622148.88907  -9561822.44548  21622143.56848      2691.42300
    323569.37507  20797357.58407    250231.25148  20797354.83448      -603.47300
 08 11 10 23 39 44.9980000  0  5  3  6 16 23 31
 -11205795.27007  21707093.90407  -8712997.10148  21707092.42048      4107.86400
 -15181358.35507  20993268.65407 -11814211.47048  20993266.67048      3219.50200
  -4751418.57407  19995152.82607  -3694365.30349  19995149.69749       547.26300
 -12343333.74607  21614489.60007  -9593185.29748  21614484.38548      2683.26600
    332693.85507  20799093.90407    257341.22548  20799090.56448      -608.29900
 08 11 10 23 39 59.9980000  0  5  3  6 16 23 31
 -11267347.65207  21695381.28707  -8760959.98648  21695379.98248      4103.49200
 -15229558.92607  20984096.33407 -11851770.36348  20984094.60748      3213.37100
  -4759560.06607  19993603.58407  -3700709.32049  19993600.38949       542.76600
 -12383459.30907  21606853.73207  -9624451.96348  21606848.71348      2675.03700
    341891.54307  20800843.95107    264508.23548  20800840.27548      -613.17900
 08 11 10 23 40 14.9980000  0  5  3  6 16 23 31
 -11328834.09407  21683680.85007  -8808871.48348  21683679.28348      4099.09600
 -15277667.24207  20974941.70107 -11889257.36148  20974940.16248      3207.22100
  -4767634.20307  19992066.96707  -3707000.84748  19992063.43648       538.27600
 -12423461.15607  21599241.27107  -9655622.23248  21599236.59248      2666.79000
    351162.43407  20802608.14607    271732.29148  20802604.77948      -618.05900
 08 11 10 23 40 29.9980000  0  5  3  6 16 23 31
 -11390253.45707  21671993.23207  -8856730.72948  21671991.43948      4094.62400
 -15325682.21107  20965804.81107 -11926671.62448  20965803.67848      3200.99800
  -4775640.12507  19990543.77107  -3713239.23349  19990540.11949       533.72800
 -12463338.09007  21591653.13907  -9686695.18148  21591647.85048      2658.46200
    360507.76207  20804387.04507    279014.36648  20804383.61548      -623.02200
 08 11 10 23 40 44.9980000  0  5  3  6 16 23 31
 -11451605.78907  21660318.01407  -8904537.73048  21660316.13148      4090.15500
 -15373603.65207  20956685.70907 -11964013.01048  20956683.98648      3194.76300
  -4783578.05907  19989033.00607  -3719424.63948  19989029.21748       529.19600
 -12503089.91407  21584088.61507  -9717670.62548  21584083.38548      2650.12200
    369927.18007  20806179.15407    286354.14748  20806176.06148      -627.96100
 08 11 10 23 40 59.9980000  0  5  3  6 16 23 31
 -11512890.78107  21648655.63907  -8952292.24148  21648654.07248      4085.66600
 -15421431.63307  20947584.45907 -12001281.55548  20947582.27948      3188.53200
  -4791448.44507  19987535.74007  -3725557.40949  19987531.60749       524.69200
 -12542716.72707  21576548.13107  -9748548.66748  21576542.80748      2641.78700
    379420.57407  20807985.99007    293751.58948  20807982.74048      -632.89300
 08 11 10 23 41 14.9980000  0  5  3  6 16 23 31
 -11574108.18407  21637006.63907  -8999994.10848  21637004.57248      4081.16000
 -15469166.00007  20938500.72507 -12038477.16848  20938498.43948      3182.29100
  -4799251.64107  19986050.60707  -3731637.82048  19986047.12348       520.21300
 -12582218.38707  21569031.60007  -9779329.18548  21569026.16248      2633.44400
    388987.63707  20809806.60707    301206.43448  20809803.00248      -637.80400
 08 11 10 23 41 29.9980000  0  6  3  6 13 16 23 31
 -11635258.04707  21625370.14607  -9047643.36348  21625367.99448      4076.65800
 -15516807.05507  20929435.23207 -12075600.08048  20929433.03348      3176.07000
         0.00000  23513791.16201         0.00000         0.00000         0.00000
  -4806988.11707  19984578.24807  -3737666.23748  19984575.06448       515.76500
 -12621595.07807  21561538.22507  -9810012.30948  21561532.47548      2625.11300
    398628.26607  20811640.84207    308718.60648  20811637.14648      -642.70900
 08 11 10 23 41 44.9980000  0  5  3  6 16 23 31
 -11696341.42207  21613746.35707  -9095240.78548  21613744.43648      4072.22500
 -15564355.47307  20920386.97507 -12112650.78848  20920385.36148      3169.89500
  -4814658.95707  19983118.14607  -3743643.51549  19983115.12749       511.38900
 -12660847.48807  21554068.44307  -9840598.59247  21554062.83847      2616.82700
    408341.42207  20813489.37307    316287.29148  20813486.08448      -647.54400
 08 11 10 23 41 59.9980000  0  5  3  6 16 23 31
 -11757358.85207  21602135.12307  -9142786.82248  21602133.76848      4067.82900
 -15611811.99207  20911355.56807 -12149629.87848  20911354.90048      3163.76800
  -4822265.19107  19981671.34207  -3749570.45449  19981668.13949       507.08200
 -12699976.19507  21546622.22507  -9871088.49048  21546616.90448      2608.58000
    418126.23007  20815351.30307    323911.81648  20815347.84248      -652.32100
 08 11 10 23 42 14.9980000  0  5  3  6 16 23 31
 -11818307.82007  21590536.81807  -9190279.51948  21590534.88148      4063.26500
 -15659174.24207  20902343.17807 -12186535.51748  20902341.49848      3157.48300
  -4829804.99207  19980236.36507  -3755445.62348  19980232.93948       502.65300
 -12738978.91007  21539200.44307  -9901480.22348  21539195.34648      2600.18100
    427984.80107  20817227.02907    331593.80548  20817223.79948      -657.23800
 08 11 10 23 42 29.9980000  0  5  3  6 16 23 31
 -11879188.52007  21578951.85007  -9237719.01648  21578949.63948      4058.71300
 -15706442.36307  20893348.64607 -12223367.83548  20893346.60448      3151.20800
  -4837278.99607  19978814.42807  -3761269.53449  19978810.42049       498.26700
 -12777855.81607  21531802.29507  -9931773.89648  21531797.56848      2591.79400
    437916.82407  20819117.17007    339333.04048  20819114.00248      -662.13500
 08 11 10 23 42 44.9980000  0  5  3  6 16 23 31
 -11939999.57007  21567379.82607  -9285104.25548  21567378.22148      4054.07000
 -15753615.05107  20884372.24807 -12260125.76948  20884370.20548      3144.84600
  -4844686.03107  19977405.00607  -3767041.24848  19977401.15848       493.80200
 -12816605.49207  21524428.67807  -9961968.46048  21524424.10048      2583.31200
    447923.43007  20821021.46707    347130.38648  20821018.48648      -667.10700
 08 11 10 23 42 59.9980000  0  5  3  6 16 23 31
 -12000740.01607  21555821.15407  -9332434.45348  21555819.98248      4049.36300
 -15800691.54307  20875413.27907 -12296808.73748  20875412.14348      3138.43300
  -4852025.79307  19976008.09207  -3772760.53749  19976004.61949       489.31700
 -12855227.12507  21517079.25607  -9992063.24548  21517075.52148      2574.77600
    458005.23007  20822939.99007    354986.32948  20822936.80348      -672.12000
 08 11 10 23 43 14.9980000  0  5  3  6 16 23 31
 -12061408.63707  21544276.40407  -9379708.70048  21544275.14348      4044.57500
 -15847670.79707  20866473.69307 -12333415.91948  20866472.48248      3131.95000
  -4859297.30107  19974624.47507  -3778426.65749  19974620.94349       484.76700
 -12893719.47707  21509754.54507 -10022057.27548  21509750.67448      2566.15700
    468163.09007  20824872.66207    362901.54248  20824869.79148      -677.19100
 08 11 10 23 43 29.9980000  0  5  3  6 16 23 31
 -12122005.44507  21532745.27907  -9426926.98248  21532743.39648      4039.78700
 -15894552.78107  20857552.64607 -12369947.33948  20857550.39348      3125.46600
  -4866501.15207  19973253.35707  -3784040.04349  19973249.62349       480.25700
 -12932082.68407  21502453.88907 -10051950.67148  21502450.17448      2557.54700
    478396.61707  20826820.03707    370875.71448  20826817.11548      -682.23500
 08 11 10 23 43 44.9980000  0  5  3  6 16 23 31
 -12182530.42607  21521227.25607  -9474089.29248  21521225.90048      4034.99900
 -15941337.49207  20848649.07607 -12406402.95548  20848647.03348      3118.98100
  -4873637.58207  19971895.29507  -3789600.89748  19971891.78348       475.76200
 -12970316.75407  21495178.06807 -10081743.46148  21495174.19748      2548.93800
    488705.72307  20828782.00607    378908.78448  20828778.66248      -687.27400
 08 11 10 23 43 59.9980000  0  6  3  6 16 21 23 31
 -12242982.03507  21509723.77107  -9521194.44048  21509722.38148      4030.10700
 -15988023.45307  20839765.45107 -12442781.64048  20839762.98648      3112.39700
  -4880705.44107  19970550.45107  -3795108.33648  19970546.61148       471.19100
    -91044.97714  24056139.63904    -60757.26956  24056137.96346      2318.04700
 -13008420.10907  21487927.46707 -10111434.39048  21487923.17448      2540.22400
    499091.89107  20830758.18607    387001.88848  20830755.06848      -692.41100
 08 11 10 23 44 14.9980000  0  6  3  6 16 21 23 31
 -12303360.75807  21498234.70907  -9568242.80448  21498233.53348      4025.24800
 -16034611.40607  20830900.27907 -12479083.91848  20830898.13548      3105.86400
  -4887706.03507  19969218.15407  -3800563.33848  19969214.78748       466.70600
   -125783.66004  24049529.34204    -87826.33746  24049527.55346      2315.91200
 -13046393.57407  21480701.23207 -10141024.09848  21480697.13948      2531.56400
    509554.03107  20832749.24807    395154.20448  20832746.00648      -697.47600
 08 11 10 23 44 29.9980000  0  6  3  6 16 21 23 31
 -12363667.02007  21486758.69307  -9615234.68448  21486758.09648      4020.41700
 -16081101.58207  20822053.70907 -12515310.02748  20822051.78748      3099.34500
  -4894639.80907  19967898.76407  -3805966.29149  19967895.74449       462.25200
   -160461.37503  24042929.77903   -114847.93546  24042928.37746      2311.84800
 -13084237.16806  21473499.91206 -10170512.61648  21473495.39348      2522.90600
    520091.78107  20834754.40407    403365.43948  20834751.27948      -702.51700
 08 11 10 23 44 44.9980000  0  7  3  6 13 16 21 23 31
 -12423900.23007  21475296.76407  -9662169.63648  21475295.89648      4015.54700
 -16127493.74207  20813225.45107 -12551459.76548  20813223.33048      3092.81100
         0.00000  23372599.81801         0.00000         0.00000         0.00000
  -4901507.02307  19966591.94307  -3811317.37449  19966589.12749       457.81400
   -195077.66004  24036342.92804   -141821.69546  24036339.16646      2307.75200
 -13121950.80507  21466323.70107 -10199899.88048  21466319.19348      2514.24200
    530705.10507  20836774.33407    411635.55648  20836771.17448      -707.55500
 08 11 10 23 44 59.9980000  0  7  3  6 13 16 21 23 31
 -12484059.71107  21463848.61507  -9709047.13148  21463848.32648      4010.63200
 -16173787.18807  20804416.06807 -12587532.59148  20804414.02948      3086.23000
   -241001.23811  23361842.24801         0.00000         0.00000      3766.39100
  -4908307.11307  19965297.70907  -3816616.13849  19965295.35049       453.33900
   -229631.45304  24029767.19304   -168746.65046  24029763.85746      2303.58600
 -13159533.64107  21459171.78707 -10229185.19348  21459167.49048      2505.52200
    541394.71507  20838808.31107    419965.11148  20838805.25248      -712.64100
 08 11 10 23 45 14.9980000  0  7  3  6 13 16 21 23 31
 -12544143.49207  21452415.38107  -9755865.65348  21452414.32648      4005.58500
 -16219979.85907  20795625.60707 -12623526.88548  20795623.78748      3079.51100
         0.00000  23351096.52101         0.00000         0.00000         0.00000
  -4915038.46907  19964016.57607  -3821861.35749  19964013.79149       448.75700
   -264121.06602  24023204.46702   -195621.74346  24023201.23646      2299.30800
 -13196983.56307  21452045.19307 -10258366.95248  21452040.80348      2496.66100
    552162.34007  20840857.68607    428355.46348  20840854.41248      -717.84200
 08 11 10 23 45 29.9980000  0  6  3  6 16 21 23 31
 -12604150.73007  21440996.34207  -9802624.53848  21440994.98248      4000.48300
 -16266071.12507  20786854.67807 -12659442.14548  20786853.07648      3072.75100
  -4921700.81307  19962749.00607  -3827052.80048  19962745.96348       444.15600
   -298545.46903  24016653.88103   -222445.89046  24016651.65846      2294.96000
 -13234299.95707  21444944.13907 -10287444.65848  21444939.36948      2487.76000
    563008.38707  20842921.49807    436806.91948  20842918.27948      -723.07000
 08 11 10 23 45 44.9980000  0  6  3  6 16 21 23 31
 -12664080.91807  21429591.38107  -9849323.38648  21429589.92448      3995.34600
 -16312060.73807  20778103.12307 -12695278.20848  20778101.37748      3065.97400
  -4928294.17607  19961494.35007  -3832190.48148  19961491.02548       439.55800
   -332904.50004  24010115.04504   -249219.12746  24010113.62746      2290.60200
 -13271482.51207  21437868.56807 -10316418.09048  21437863.36948      2478.83700
    573932.83607  20845000.50607    445319.45948  20844996.52548      -728.29700
 08 11 10 23 45 59.9980000  0  6  3  6 16 21 23 31
 -12723933.63307  21418201.79507  -9895961.87448  21418200.28348      3990.18100
 -16357947.96907  20769371.32607 -12731034.49048  20769368.83448      3059.14900
  -4934818.21907  19960253.19307  -3837274.16948  19960249.52948       434.93600
   -367197.09403  24003589.32603   -275940.59945  24003587.03345      2286.17300
 -13308530.43006  21430818.51406 -10345286.57448  21430814.03748      2469.86100
    584936.37907  20847094.49007    453893.63848  20847090.77148      -733.57000
 08 11 10 23 46 14.9980000  0  6  3  6 16 21 23 31
 -12783708.09807  21406826.74007  -9942539.36948  21406825.76848      3984.96400
 -16403732.30907  20760659.02907 -12766710.60248  20760656.19348      3052.28900
  -4941272.75807  19959024.96707  -3842303.67948  19959021.39348       430.30300
   -401422.82002  23997076.62302   -302609.93545  23997073.04545      2281.71500
 -13345443.18407  21423794.23207 -10374049.77648  21423789.27148      2460.85000
    596019.26207  20849203.40407    462529.65248  20849200.02548      -738.85900
 08 11 10 23 46 29.9980000  0  6  3  6 16 21 23 31
 -12843403.86707  21395467.63107  -9989055.55748  21395466.01848      3979.71800
 -16449413.28107  20751965.87307 -12802306.15648  20751963.77548      3045.39800
  -4947657.84007  19957810.02107  -3847279.06749  19957806.42449       425.67200
   -435581.27704  23990576.95104   -329226.95246  23990571.67046      2277.23000
 -13382220.39107  21416796.07607 -10402707.33248  21416790.43648      2451.81400
    607181.76607  20851327.24007    471227.70348  20851323.96748      -744.16700
 08 11 10 23 46 44.9980000  0  6  3  6 16 21 23 31
 -12903021.10207  21384122.81107 -10035510.54248  21384120.95148      3974.48200
 -16494991.34807  20743292.79507 -12837821.53248  20743290.86948      3038.53800
  -4953974.25007  19956608.10007  -3852200.95248  19956604.11548       421.09400
   -469672.77303  23984089.24803   -355791.76546  23984084.89346      2272.76600
 -13418862.41007  21409822.70907 -10431259.55848  21409817.92848      2442.80100
    618423.27307  20853466.60707    479987.30348  20853463.50648      -749.43400
 08 11 10 23 46 59.9980000  0  6  3  6 16 21 23 31
 -12962558.01207  21372793.21707 -10081902.95348  21372791.74048      3969.12700
 -16540464.76607  20734639.24007 -12873255.35148  20734638.02948      3031.56100
  -4960220.46107  19955419.56107  -3857068.12449  19955415.85749       416.41400
   -503695.45305  23977614.81805   -382302.89846  23977611.83046      2268.17900
 -13455367.40207  21402876.31107 -10459705.00848  21402870.82248      2433.66600
    629745.34407  20855621.01407    488809.68048  20855618.14348      -754.80500
 08 11 10 23 47 14.9980000  0  7  3  6 13 16 21 23 31
 -13022013.77707  21361479.46707 -10128232.12048  21361478.25248      3963.71800
 -16585832.84807  20726006.10007 -12908607.10548  20726004.55348      3024.53900
    -74393.37111  23265721.27901         0.00000         0.00000      3716.20300
  -4966396.10207  19954244.33407  -3861880.31648  19954240.74848       411.70900
   -537648.32804  23971152.88904   -408759.74546  23971152.11146      2263.52500
 -13491734.77707  21395956.01407 -10488043.21848  21395950.28348      2424.49200
    641148.58607  20857791.00607    497695.31848  20857788.20148      -760.21600
 08 11 10 23 47 29.9980000  0  7  3  6 13 16 21 23 31
 -13081389.32007  21350180.30307 -10174498.76748  21350178.70548      3958.37000
 -16631096.38707  20717392.73207 -12943877.40348  20717390.72948      3017.56900
   -130095.81301  23255120.89601         0.00000         0.00000      3713.49600
  -4972502.34807  19953081.96707  -3866638.43549  19953078.49849       407.08300
   -571532.23803  23964705.81803   -435162.77945  23964704.70145      2258.92700
 -13527965.34007  21389061.38107 -10516274.82548  21389055.68248      2415.37100
    652631.92607  20859976.22507    506643.36148  20859973.57648      -765.55600
 08 11 10 23 47 44.9980000  0  7  3  6 13 16 21 23 31
 -13140684.71907  21338896.44307 -10220702.96248  21338895.03348      3953.02700
 -16676255.46107  20708799.28707 -12979066.29348  20708797.58048      3010.60500
   -185712.50802  23244537.59202         0.00000         0.00000      3707.78000
  -4978539.62107  19951933.42007  -3871342.81348  19951929.64648       402.48500
   -605347.35202  23958270.74802   -461512.23045  23958269.43945      2254.34100
 -13564058.95307  21382192.70107 -10544399.72648  21382186.83048      2406.24100
    664195.11707  20862176.88907    515653.63148  20862173.84648      -770.87900
 08 11 10 23 47 59.9980000  0  7  3  6 13 16 21 23 31
 -13199899.95706  21327628.54506 -10266844.72148  21327627.04948      3947.68300
 -16721310.17207  20700225.85007 -13014173.85648  20700224.79548      3003.64700
   -241243.67602  23233971.28702         0.00000         0.00000      3702.07800
  -4984508.37907  19950797.03707  -3875993.78849  19950793.78349       397.91700
   -639093.73404  23951849.09204   -487808.09445  23951847.36145      2249.75900
 -13600015.94107  21375350.25607 -10572418.17148  21375345.63548      2397.13300
    675837.94907  20864392.33407    524725.95449  20864389.18649      -776.18900
 08 11 10 23 48 14.9980000  0  7  3  6 13 16 21 23 31
 -13259034.82406  21316375.87306 -10312923.82848  21316374.43248      3942.32400
 -16766260.52307  20691671.80307 -13049200.11148  20691670.59648      2996.69000
   -296689.29303  23223419.10003         0.00000         0.00000      3696.37400
  -4990409.05107  19949674.59207  -3880591.71948  19949671.16248       393.37800
   -672771.10903  23945440.25603   -514050.20345  23945438.15045      2245.15800
 -13635836.21107  21368534.32607 -10600330.06548  21368529.57248      2388.01800
    687560.06607  20866623.12307    533860.06948  20866620.03348      -781.47400
 08 11 10 23 48 29.9980000  0  7  3  6 13 16 21 23 31
 -13318088.26206  21305138.35706 -10358939.49848  21305136.40448      3936.89600
 -16811105.75807  20683137.65407 -13084144.41948  20683136.48648      2989.68200
   -352048.12103  23212884.82603         0.00000         0.00000      3690.58900
  -4996241.07007  19948564.92007  -3885136.15549  19948561.31449       388.80100
   -706378.57402  23939045.22502   -540237.83345  23939043.02945      2240.49800
 -13671518.65207  21361743.90407 -10628134.55548  21361739.25248      2378.82900
    699362.19107  20868869.12307    543056.51849  20868866.02949      -786.80800
 08 11 10 23 48 44.9980000  0  7  3  6 13 16 21 23 31
 -13377060.69907  21293915.70907 -10404892.03348  21293914.07648      3931.49600
 -16855846.14807  20674624.29507 -13119007.06348  20674622.53748      2982.69300
   -407320.58603  23202366.73203         0.00000         0.00000      3684.83100
  -5002004.99607  19947467.74807  -3889627.53149  19947464.85749       384.26200
   -739916.47703  23932663.49003   -566371.28545  23932660.74845      2235.86000
 -13707063.76607  21354980.13907 -10655832.06148  21354975.29148      2369.67400
    711243.83607  20871129.92007    552314.92448  20871127.00648      -792.11000
 08 11 10 23 48 59.9980000  0  7  3  6 13 16 21 23 31
 -13435951.82406  21282708.68606 -10450781.21248  21282707.35748      3926.07500
 -16900481.32407  20666130.54507 -13153787.71948  20666128.42048      2975.67800
   -462506.02303  23191865.49003         0.00000         0.00000      3679.02900
  -5007701.02707  19946383.92007  -3894066.01249  19946380.49849       379.73500
   -773384.57404  23926294.91204   -592450.28346  23926292.35046      2231.20700
 -13742471.29307  21348242.14607 -10683422.33848  21348237.85048      2360.50200
    723205.04707  20873406.06107    561635.33949  20873403.06449      -797.41400
 08 11 10 23 49 14.9980000  0  7  3  6 13 16 21 23 31
 -13494760.49607  21271518.60707 -10496606.15048  21271515.98648      3920.57800
 -16945010.34407  20657657.16207 -13188485.65148  20657655.17848      2968.60100
   -517603.28103  23181380.32603         0.00000         0.00000      3673.15100
  -5013328.55107  19945313.34207  -3898451.09248  19945309.91648       375.16800
   -806781.48805  23919939.41205   -618473.77146  23919936.59246      2226.46100
 -13777740.21907  21341530.95107 -10710904.61548  21341526.47948      2351.26200
    735246.66407  20875697.35707    571018.40548  20875694.34648      -802.77400
 08 11 10 23 49 29.9980000  0  7  3  6 13 16 21 23 31
 -13553488.12107  21260342.98207 -10542367.94248  21260341.02548      3915.17500
 -16989434.71907  20649203.46707 -13223102.04348  20649201.35448      2961.62500
   -572613.71103  23170912.38103         0.00000         0.00000      3667.36200
  -5018889.17607  19944254.71707  -3902784.05448  19944251.36948       370.70800
   -840108.65205  23913597.70905   -644442.97146  23913594.82246      2221.81100
 -13812871.78507  21334845.97507 -10738279.87848  21334840.90848      2342.10400
    747367.13307  20878003.97507    580462.93048  20878001.01848      -808.03100
 08 11 10 23 49 44.9980000  0  7  3  6 13 16 21 23 31
 -13612132.68807  21249183.34207 -10588065.00648  21249181.51048      3909.63800
 -17033752.64507  20640769.87307 -13257635.48548  20640768.16248      2954.52800
   -627535.50004  23160461.11504         0.00000         0.00000      3661.45300
  -5024381.59407  19943209.71707  -3907063.87548  19943206.48648       366.16100
   -873364.24205  23907268.86505   -670356.37346  23907266.76846      2217.03900
 -13847864.32007  21328186.37307 -10765546.79548  21328182.04148      2332.83600
    759567.79707  20880325.56107    589969.93548  20880323.10748      -813.37800
 08 11 10 23 49 59.9980000  0  7  3  6 13 16 21 23 31
 -13670694.15607  21238039.62307 -10633697.31548  21238037.73248      3904.09800
 -17077964.00407  20632356.63107 -13292085.90148  20632355.17048      2947.42400
   -682368.42603  23150026.50603         0.00000         0.00000      3655.52800
  -5029806.09807  19942177.81107  -3911290.76349  19942174.10749       361.63400
   -906548.15605  23900954.42005   -696213.96246  23900952.13546      2212.26100
 -13882717.77306  21321553.55306 -10792705.32848  21321550.07648      2323.56400
    771848.62907  20882662.44307    599539.41248  20882659.64348      -818.72200
 08 11 10 23 50 14.9980000  0  7  3  6 13 16 21 23 31
 -13729173.09006  21226911.45106 -10679265.29648  21226909.18648      3898.59600
 -17122069.45707  20623963.70907 -13326453.78648  20623962.09248      2940.36400
   -737112.95703  23139609.85703         0.00000         0.00000      3649.63500
  -5035163.59807  19941158.40407  -3915465.44148  19941154.52148       357.16700
   -939660.85905  23894653.71705   -722016.12246  23894651.66646      2207.51400
 -13917432.66407  21314947.84207 -10819755.89148  21314943.66248      2314.32600
    784209.02007  20885014.34207    609170.86848  20885012.31148      -824.02600
 08 11 10 23 50 29.9980000  0  7  3  6 13 16 21 23 31
 -13787569.09007  21215798.73207 -10724768.66548  21215796.48248      3893.06700
 -17166068.80907  20615590.85707 -13360738.99648  20615588.89648      2933.29000
   -791768.70304  23129208.00604         0.00000         0.00000      3643.71600
  -5040454.13707  19940151.36507  -3919587.94649  19940147.99849       352.70300
   -972702.06605  23888366.31105   -747762.43346  23888364.41646      2202.74700
 -13952008.76607  21308368.60707 -10846698.32148  21308363.95548      2305.07300
    796648.97707  20887381.45107    618864.32948  20887379.06148      -829.33000
 08 11 10 23 50 44.9980000  0  7  3  6 13 16 21 23 31
 -13845881.54707  21204702.88107 -10770206.93148  21204700.27948      3887.49700
 -17209961.33607  20607238.71707 -13394940.96548  20607236.67448      2926.16800
   -846334.91104  23118824.49804         0.00000         0.00000      3637.74700
  -5045677.27707  19939157.28707  -3923657.92848  19939153.90448       348.20900
  -1005670.94505  23882091.72505   -773452.47046  23882089.56146      2197.92500
 -13986445.51206  21301815.09206 -10873532.12848  21301811.26848      2295.78300
    809169.00807  20889764.25607    628620.19348  20889761.42848      -834.66900
 08 11 10 23 50 59.9980000  0  7  3  6 13 16 21 23 31
 -13904110.21507  21193621.90407 -10815579.92048  21193619.86548      3881.91100
 -17253746.80507  20598906.63907 -13429059.52448  20598904.99848      2919.03100
   -900811.14504  23108458.96704   -964016.29755  23108452.98645      3631.74900
  -5050833.37507  19938176.02907  -3927675.66849  19938172.55749       343.74000
  -1038567.32005  23875831.69305   -799085.97246  23875828.44346      2193.09200
 -14020742.48007  21295288.84207 -10900257.03848  21295284.54148      2286.46500
    821769.06307  20892161.99007    638438.40448  20892159.28348      -840.00400
 08 11 10 23 51 14.9980000  0  7  3  6 13 16 21 23 31
 -13962254.94107  21182556.88907 -10860887.49448  21182555.68948      3876.31500
 -17297425.41807  20590594.47507 -13463094.80348  20590592.64648      2911.90800
   -955197.40604  23098109.02104  -1006395.22745  23098103.06845      3625.75100
  -5055922.74207  19937207.63107  -3931641.42148  19937204.49448       339.29100
  -1071391.33605  23869586.11505   -824663.09746  23869582.15446      2188.26800
 -14054899.74207  21288789.07607 -10926873.08248  21288784.87348      2277.15100
    834448.77007  20894574.96707    648318.68648  20894572.06848      -845.31400
 08 11 10 23 51 29.9980000  0  7  3  6 13 16 21 23 31
 -14020315.56606  21171508.91206 -10906129.51348  21171507.13548      3870.70800
 -17340996.97307  20582303.40407 -13497046.64048  20582301.26048      2904.77000
  -1009493.41405  23087776.95905  -1048703.77345  23087771.29945      3619.73400
  -5060945.55107  19936252.03707  -3935555.31349  19936248.66649       334.85400
  -1104142.57405  23863353.64605   -850183.43046  23863349.82246      2183.41600
 -14088917.21107  21282315.42807 -10953380.20348  21282311.24048      2267.83100
    847208.19907  20897003.24807    658261.08948  20896999.92848      -850.62900
 08 11 10 23 51 44.9980000  0  7  3  6 13 16 21 23 31
 -14078291.88307  21160476.38907 -10951305.85148  21160473.53348      3865.08800
 -17384461.55507  20574031.89607 -13530915.14748  20574030.16248      2897.63900
  -1063698.92204  23077461.98204  -1090941.79745  23077456.63945      3613.70100
  -5065902.30507  19935309.02107  -3939417.72848  19935305.26048       330.45000
  -1136821.01605  23857135.26405   -875647.14446  23857132.17846      2178.56300
 -14122795.04307  21275868.57607 -10979778.51448  21275864.08848      2258.52200
    860047.12507  20899446.13907    668265.42848  20899443.42048      -855.92800
 08 11 10 23 51 59.9980000  0  7  3  6 13 16 21 23 31
 -14136184.05107  21149459.78707 -10996416.64048  21149456.63148      3859.47800
 -17427819.09807  20565781.48207 -13564700.25848  20565779.50248      2890.50300
  -1117813.88704  23067163.02104  -1133109.30145  23067158.82245      3607.66400
  -5070793.07807  19934378.23207  -3943228.71749  19934374.72949       326.05200
  -1169426.55505  23850930.18605   -901054.09346  23850927.41246      2173.70300
 -14156533.09407  21269448.82607 -11006067.91548  21269443.85048      2249.20300
    872965.36707  20901904.45107    678331.59948  20901901.93948      -861.21600
 08 11 10 23 52 14.9980000  0  7  3  6 13 16 21 23 31
 -14193991.41007  21138459.58407 -11041461.33848  21138456.59648      3853.82400
 -17471069.16007  20557551.24007 -13598401.61148  20557549.41248      2883.33800
  -1171837.57404  23056882.97504  -1175205.68445  23056878.70145      3601.57900
  -5075617.99207  19933459.98207  -3946988.38948  19933456.96348       321.66100
  -1201958.57405  23844739.20905   -926403.64946  23844735.84646      2168.80100
 -14190130.82807  21263055.67807 -11032247.96548  21263050.52948      2239.84900
    885963.19107  20904378.02107    688459.75648  20904375.07648      -866.52200
 08 11 10 23 52 29.9980000  0  7  3  6 13 16 21 23 31
 -14251713.85507  21127475.22507 -11086439.87548  21127472.77148      3848.16300
 -17514211.93007  20549341.51407 -13632019.32848  20549339.79948      2876.18500
  -1225770.15204  23046619.89604  -1217231.09845  23046615.67045      3595.50500
  -5080377.50007  19932554.19307  -3950697.08349  19932551.32249       317.30100
  -1234417.21904  23838563.32604   -951696.08546  23838558.40446      2163.91000
 -14223588.39507  21256688.60707 -11058318.79248  21256683.83848      2230.50400
    899040.19507  20906866.62307    698649.63148  20906863.01448      -871.80000
 08 11 10 23 52 44.9980000  0  7  3  6 13 16 21 23 31
 -14309350.52006  21116506.94306 -11131351.54148  21116504.99048      3842.44400
 -17557246.20707  20541152.28707 -13665552.54348  20541150.78348      2868.95200
  -1279610.35204  23036374.95904  -1259184.45345  23036369.52545      3589.34700
  -5085070.78907  19931661.16207  -3954354.18848  19931657.66248       312.88600
  -1266801.25805  23832400.85005   -976930.38446  23832395.54546      2158.93600
 -14256904.76607  21250348.63907 -11084279.59748  21250343.83448      2221.09100
    912197.42607  20909370.04507    708902.01148  20909366.74448      -877.14900
 08 11 10 23 52 59.9980000  0  7  3  6 13 16 21 23 31
 -14366901.30906  21105555.63106 -11176196.29648  21105553.46348      3836.71900
 -17600172.24207  20532983.88107 -13699001.39948  20532982.06148      2861.73600
  -1333358.16005  23026146.85705  -1301065.88345  23026141.34645      3583.18700
  -5089698.31607  19930780.65407  -3957960.06749  19930776.75249       308.50200
  -1299110.90205  23826252.15405  -1002106.70746  23826248.08046      2153.97600
 -14290080.10907  21244036.06107 -11110130.52648  21244030.99848      2211.69000
    925434.55507  20911888.95907    719216.65148  20911886.51448      -882.47500
 08 11 10 23 53 14.9980000  0  7  3  6 13 16 21 23 31
 -14424366.09807  21094620.45907 -11220974.04648  21094617.98248      3830.98600
 -17642990.08207  20524835.52107 -13732365.93048  20524834.14348      2854.52300
  -1387013.49605  23015936.51405  -1342875.22345  23015930.89345      3577.02200
  -5094260.40607  19929912.36507  -3961514.94648  19929908.63148       304.13900
  -1331346.07004  23820117.99004  -1027225.04446  23820114.82246      2149.01100
 -14323114.32807  21237749.54507 -11135871.47848  21237744.62348      2202.28100
    938751.34407  20914423.16207    729593.35748  20914420.94348      -887.78600
 08 11 10 23 53 29.9980000  0  7  3  6 13 16 21 23 31
 -14481744.21907  21083701.74007 -11265684.27848  21083699.04148      3825.20800
 -17685698.96907  20516708.45107 -13765645.58648  20516707.42048      2847.25900
  -1440575.45305  23005744.91205  -1384611.81645  23005738.46345      3570.79700
  -5098756.68407  19929056.72507  -3965018.54949  19929053.26049       299.75200
  -1363505.96904  23813997.86504  -1052284.66646  23813995.03746      2143.99300
 -14356006.66807  21231489.92807 -11161501.87248  21231486.15848      2192.82300
    952148.25007  20916972.97507    740032.49748  20916969.95948      -893.12700
 08 11 10 23 53 44.9980000  0  7  3  6 13 16 21 23 31
 -14539035.67607  21072799.56807 -11310326.97248  21072796.76048      3819.43000
 -17728298.88707  20508602.18607 -13798840.32648  20508600.76848      2839.99500
  -1494043.94905  22995569.71705  -1426275.53645  22995563.86945      3564.56600
  -5103187.51207  19928213.74007  -3968471.13048  19928210.62748       295.38900
  -1395590.50804  23807893.67004  -1077285.52246  23807889.72946      2138.96900
 -14388757.18807  21225257.59207 -11187021.75748  21225253.79548      2183.36800
    965625.04307  20919537.17007    750533.89048  20919534.14348      -898.45300
 08 11 10 23 53 59.9980000  0  7  3  6 13 16 21 23 31
 -14596240.26607  21061913.44307 -11354901.95248  21061911.40848      3813.63900
 -17770790.01607  20500516.27907 -13831950.29948  20500514.31848      2832.74200
  -1547418.60205  22985413.41205  -1467866.23445  22985407.37745      3558.31000
  -5107553.18807  19927382.91207  -3971872.95349  19927379.85749       291.04500
  -1427599.57005  23801801.26405  -1102227.62746  23801797.05746      2133.93800
 -14421365.89507  21219052.79507 -11212431.14248  21219048.84248      2173.91400
    979181.64107  20922116.60007    761097.44948  20922113.49048      -903.77300
 08 11 10 23 54 14.9980000  0  7  3  6 13 16 21 23 31
 -14653357.12507  21051044.56107 -11399408.58148  21051043.35748      3807.79100
 -17813171.38707  20492451.08407 -13864974.73748  20492448.94348      2825.42500
  -1600698.64505  22975274.25605  -1509383.13845  22975269.10745      3552.00300
  -5111853.31607  19926564.67807  -3975223.70148  19926561.43648       286.67500
  -1459532.22305  23795723.68605  -1127110.17746  23795720.51446      2128.84300
 -14453831.98407  21212874.37307 -11237729.39048  21212870.80748      2164.40600
    992818.69907  20924711.84207    771723.74248  20924708.59248      -909.13700
 08 11 10 23 54 29.9980000  0  7  3  6 13 16 21 23 31
 -14710385.91007  21040192.59207 -11443846.61648  21040190.97148      3801.91900
 -17855443.02007  20484407.23207 -13897913.67548  20484405.26848      2818.10900
  -1653883.84005  22965152.62305  -1550826.17845  22965148.41645      3545.68000
  -5116088.07807  19925758.60707  -3978523.51849  19925755.28749       282.31700
  -1491388.31305  23789662.54505  -1151933.05946  23789658.63146      2123.73900
 -14486155.37907  21206723.77107 -11262916.46248  21206719.67448      2154.89300
   1006536.02707  20927322.38107    782412.54648  20927319.13548      -914.48900
 08 11 10 23 54 44.9980000  0  7  3  6 13 16 21 23 31
 -14767326.61707  21029357.27107 -11488215.98548  21029355.39348      3796.04700
 -17897604.85907  20476384.09207 -13930767.05448  20476382.67048      2810.78900
  -1706974.03905  22955050.14605  -1592195.15646  22955045.81446      3539.34700
  -5120257.82807  19924965.38107  -3981772.66848  19924961.66248       277.98300
  -1523167.68805  23783615.70105  -1176696.25246  23783611.92446      2118.62500
 -14518336.02307  21200599.79507 -11287992.27448  21200595.92048      2145.37600
   1020333.47707  20929947.51407    793163.80748  20929944.57648      -919.83000
 08 11 10 23 54 59.9980000  0  7  3  6 13 16 21 23 31
 -14824178.57007  21018538.64607 -11532516.20448  21018535.97548      3790.13000
 -17939656.12907  20468381.90407 -13963534.28048  20468380.32648      2803.41800
  -1759968.26605  22944966.20105  -1633489.34945  22944961.30345      3532.94800
  -5124362.02007  19924184.17807  -3984970.76149  19924181.11549       273.61300
  -1554869.46105  23777583.38105  -1201398.94646  23777580.07246      2113.45200
 -14550373.21107  21194503.14607 -11312956.32448  21194498.73648      2135.81300
   1034211.70707  20932588.38907    803977.99948  20932585.46748      -925.21500
 08 11 10 23 55 14.9980000  0  7  3  6 13 16 21 23 31
 -14880941.50807  21007736.90407 -11576747.05448  21007734.11148      3784.19600
 -17981596.80907  20460400.94307 -13996215.32448  20460398.76848      2796.04500
  -1812866.36305  22934900.09205  -1674708.63946  22934895.20946      3526.54000
  -5128400.83207  19923415.69307  -3988117.87948  19923412.50648       269.25400
  -1586493.65605  23771565.63105  -1226041.14546  23771562.35046      2108.28000
 -14582266.62906  21188434.09206 -11337808.33548  21188428.99848      2126.22800
   1048170.46907  20935244.78707    814854.95248  20935241.61148      -930.58400
 08 11 10 23 55 29.9980000  0  7  3  6 13 16 21 23 31
 -14937614.50407  20996952.62307 -11620907.83748  20996949.89348      3778.20000
 -18023426.13307  20452441.34207 -14028809.61048  20452439.13548      2788.62200
  -1865667.38305  22924851.70105  -1715852.22146  22924848.54146      3520.06800
  -5132373.81307  19922659.53707  -3991213.71348  19922656.28748       264.86500
  -1618039.44505  23765561.97505  -1250622.28746  23765559.73246      2103.05300
 -14614015.56307  21182392.82607 -11362547.76848  21182387.14348      2116.59600
   1062210.39107  20937916.27107    825795.14648  20937913.24848      -935.99500
 08 11 10 23 55 44.9980000  0  7  3  6 13 16 21 23 31
 -14994197.59407  20986184.88907 -11664998.55448  20986182.91648      3772.20600
 -18065144.14507  20444502.52107 -14061317.13648  20444500.46748      2781.20100
  -1918371.27005  22914822.49005  -1756920.22946  22914819.53346      3513.59200
  -5136281.56607  19921915.82607  -3994258.70648  19921912.67048       260.51700
  -1649506.76605  23759574.09205  -1275142.25146  23759571.05746      2097.82100
 -14645620.24607  21176378.72507 -11387174.79048  21176373.31148      2106.97900
   1076331.22307  20940603.88907    836798.38248  20940600.54148      -941.38900
 08 11 10 23 55 59.9980000  0  7  3  6 13 16 21 23 31
 -15050690.15607  20975434.83407 -11709018.72248  20975433.16648      3766.17100
 -18106750.24207  20436585.52107 -14093737.47448  20436583.07648      2773.74000
  -1970977.03205  22904812.74805  -1797911.68146  22904808.89646      3507.05100
