     2              OBSERVATION DATA                        RINEX VERSION / TYPE
DAT2RINW 3.10 001   국토지리정보원      11NOV08 21:23:51    PGM / RUN BY / DATE 
(주)범아엔지니어링  국토지리정보원                          OBSERVER / AGENCY   
220189013           TRIMBLE4700         Nav 1.30 Sig 0.00   REC # / TYPE / VERS 
080097092           TRM22020.00-GP                          ANT # / TYPE        
----------------------------------------------------------- COMMENT             
Offset from BOTTOM OF ANTENNA to PHASE CENTER is  62.5 mm   COMMENT             
----------------------------------------------------------- COMMENT             
0461                                                        MARKER NAME         
0461                                                        MARKER NUMBER       
 -3096079.5735  4079482.0289  3789084.0162                  APPROX POSITION XYZ 
        1.1018        0.0000        0.0000                  ANTENNA: DELTA H/E/N
*** Above antenna height is from mark to BOTTOM OF ANTENNA. COMMENT             
----------------------------------------------------------- COMMENT             
Note: The above offsets are CORRECTED.                      COMMENT             
Raw Offsets: H=      1.1610 E=      0.0000 N=      0.0000   COMMENT             
----------------------------------------------------------- COMMENT             
     1     1     0                                          WAVELENGTH FACT L1/2
     5    L1    C1    L2    P2    D1                        # / TYPES OF OBSERV 
    15                                                      INTERVAL            
  2008    11    10    23     3   30.000000                  TIME OF FIRST OBS   
  2008    11    11     7    40   15.000000                  TIME OF LAST OBS    
    20                                                      # OF SATELLITES     
     3  1365  1365  1365  1365  1365                        PRN / # OF OBS      
     4   286   286   286   286   286                        PRN / # OF OBS      
     6  1219  1219  1219  1219  1219                        PRN / # OF OBS      
     7  1042  1042  1042  1042  1042                        PRN / # OF OBS      
     8   889   889   889   889   889                        PRN / # OF OBS      
    11  1261  1261  1261  1261  1261                        PRN / # OF OBS      
    13   744   744   744   744   744                        PRN / # OF OBS      
    14    60    60    60    60    60                        PRN / # OF OBS      
    16  1016  1016  1016  1016  1016                        PRN / # OF OBS      
    17   616   616   616   616   616                        PRN / # OF OBS      
    19  1468  1468  1468  1468  1468                        PRN / # OF OBS      
    20   688   688   688   688   688                        PRN / # OF OBS      
    21   447   447   447   447   447                        PRN / # OF OBS      
    23   803   803   803   803   803                        PRN / # OF OBS      
    25  1146  1146  1146  1146  1146                        PRN / # OF OBS      
    27  1011  1011  1011  1011  1011                        PRN / # OF OBS      
    28   871   871   871   871   871                        PRN / # OF OBS      
    29   125   125   125   125   125                        PRN / # OF OBS      
    31   539   539   539   539   539                        PRN / # OF OBS      
    32   791   791   791   791   791                        PRN / # OF OBS      
                                                            END OF HEADER       
 08 11 10 23 29 59.9990000  0  6  3  6 16 23 29 31
  -7935075.90707  22280475.48707  -6154684.59948  22280471.82348      4706.04700
  -6798407.58507  21473604.08107  -5279166.08948  21473601.18748      3887.43800
  -2411296.20007  20179616.64407  -1875509.96349  20179611.75349      1167.87500
  -6232814.36807  22042443.62007  -4839690.39648  22042437.74948      3436.90600
   2743814.46203  23885086.11203   2127534.20746  23885082.31546     -1982.60900
   -508555.79207  20860041.61207   -397911.72849  20860036.95249        25.50000
 08 11 10 23 30 14.9990000  0  6  3  6 16 23 29 31
  -8005636.53707  22267048.58907  -6209666.90848  22267044.98348      4701.79700
  -6856674.91707  21462516.16707  -5324569.20248  21462513.18348      3881.39100
  -2428775.39807  20176290.55807  -1889130.11849  20176285.80449      1162.46900
  -6284308.66007  22032644.55807  -4879815.82048  22032638.71448      3428.82800
   2773585.56504  23890751.40904   2150732.47146  23890748.37046     -1987.01600
   -508900.04807  20859976.60407   -398179.98949  20859971.09749        20.18800
 08 11 10 23 30 29.9990000  0  6  3  6 16 23 29 31
  -8076131.12306  22253633.62806  -6264597.74748  22253630.17148      4697.60900
  -6914847.54807  21451446.49507  -5369898.53048  21451443.06948      3875.15600
  -2446170.11007  20172980.40907  -1902684.44049  20172976.31249      1157.03100
  -6335678.62307  22022869.10407  -4919844.34948  22022862.39748      3420.68800
   2803426.26404  23896429.90104   2173984.91046  23896427.50746     -1991.43800
   -509161.17707  20859926.05807   -398383.46849  20859921.31949        14.81300
 08 11 10 23 30 44.9990000  0  6  3  6 16 23 29 31
  -8146559.66407  22240231.38607  -6319477.11948  22240228.53448      4693.23400
  -6972925.75207  21440394.53407  -5415154.27748  21440390.87848      3868.84400
  -2463480.90407  20169686.15107  -1916173.38349  20169681.83949      1151.35900
  -6386924.29207  22013117.29207  -4959776.03148  22013110.51148      3412.35900
   2833335.91904  23902120.84704   2197291.18046  23902118.86246     -1996.10900
   -509339.55607  20859892.39407   -398522.47649  20859887.42149         9.31300
 08 11 10 23 30 59.9990000  0  6  3  6 16 23 29 31
  -8216923.85906  22226841.15906  -6374306.36548  22226838.56948      4688.92200
  -7030911.00007  21429360.19807  -5460337.58848  21429357.10848      3862.67200
  -2480709.68408  20166407.69808  -1929598.39749  20166402.58949      1145.96900
  -6438047.16907  22003388.54207  -4999612.03448  22003381.85848      3404.21900
   2863312.35103  23907826.44003   2220649.40746  23907823.51546     -2000.50000
   -509436.90807  20859874.06507   -398598.33949  20859869.04249         3.92200
 08 11 10 23 31 14.9990000  0  6  3  6 16 23 29 31
  -8287221.70306  22213463.94806  -6429083.88648  22213461.33148      4684.20300
  -7088801.56907  21418344.30807  -5505447.12548  21418340.93348      3856.09400
  -2497855.06107  20163144.92507  -1942958.43549  20163139.92949      1140.09400
  -6489045.40207  21993683.93307  -5039350.93148  21993677.99948      3395.54700
   2893356.88002  23913543.08902   2244060.70346  23913541.20646     -2005.29700
   -509451.50407  20859871.55807   -398609.71449  20859866.37049        -1.85900
 08 11 10 23 31 29.9990000  0  6  3  6 16 23 29 31
  -8357454.23407  22200099.56507  -6483810.54348  22200096.39048      4679.68800
  -7146598.42407  21407346.20607  -5550483.62148  21407343.09348      3849.81300
  -2514918.58707  20159897.73707  -1956254.69149  20159893.41349      1134.64100
  -6539920.18207  21984002.97907  -5078993.60248  21983997.63248      3387.35900
   2923467.65601  23919272.65901   2267523.67346  23919271.14446     -2009.75000
   -509384.86307  20859884.36207   -398557.79549  20859879.19049        -7.34400
 08 11 10 23 31 44.9990000  0  6  3  6 16 23 29 31
  -8427620.23107  22186747.14407  -6538485.34248  22186743.87448      4675.45300
  -7204300.28907  21396366.03407  -5595446.10848  21396362.26148      3843.56300
  -2531899.27707  20156666.72907  -1969486.40949  20156662.22949      1129.20300
  -6590670.05207  21974346.08107  -5118538.96948  21974340.06948      3379.09400
   2953645.39302  23925016.32302   2291038.72546  23925013.36646     -2013.82800
   -509235.80307  20859912.03407   -398441.65349  20859907.61649       -12.75000
 08 11 10 23 31 59.9990000  0  6  3  6 16 23 29 31
  -8497719.16807  22173408.39407  -6593107.87848  22173404.03048      4671.12500
  -7261906.78607  21385403.21407  -5640334.28548  21385400.23748      3837.31300
  -2548796.94408  20153451.24508  -1982653.42549  20153445.90549      1123.87500
  -6641294.53707  21964712.48707  -5157986.60448  21964706.86248      3370.87500
   2983890.26702  23930772.01902   2314606.10946  23930768.42946     -2018.67200
   -509003.84707  20859956.65907   -398260.90849  20859951.68349       -18.17200
 08 11 10 23 32 14.9990000  0  6  3  6 16 23 29 31
  -8567750.80407  22160081.51107  -6647677.98048  22160077.30048      4666.50000
  -7319417.63107  21374459.68307  -5685147.93948  21374455.21448      3830.87500
  -2565611.90007  20150251.36207  -1995755.98949  20150246.32749      1118.20300
  -6691793.27907  21955102.94007  -5197336.27548  21955097.10148      3362.37500
   3014201.60802  23936540.81502   2338225.31846  23936536.21446     -2023.09400
   -508689.22607  20860016.89407   -398015.75749  20860011.71049       -23.76600
 08 11 10 23 32 29.9990000  0  6  3  6 16 23 29 31
  -8637715.28807  22146767.58107  -6702195.76648  22146763.67948      4662.26600
  -7376833.11407  21363533.22907  -5729887.27248  21363529.55448      3824.64100
  -2582344.75807  20147067.36207  -2008794.59649  20147061.62449      1112.95300
  -6742166.62007  21945516.94807  -5236588.23348  21945510.87048      3354.20300
   3044578.64203  23942320.37803   2361895.73946  23942316.76546     -2027.25000
   -508292.23007  20860091.90907   -397706.41449  20860087.55849       -29.10900
 08 11 10 23 32 44.9990000  0  6  3  6 16 23 29 31
  -8707612.72007  22133465.97907  -6756661.29648  22133462.52248      4657.46900
  -7434153.30507  21352625.86207  -5774552.34448  21352622.69048      3818.01600
  -2598996.04907  20143898.66707  -2021769.63649  20143893.89749      1107.23400
  -6792414.75607  21935954.90107  -5275742.63548  21935949.11648      3345.51600
   3075020.60302  23948113.15102   2385616.65946  23948108.61246     -2031.90600
   -507813.26307  20860182.71407   -397333.20649  20860178.00749       -34.81300
 08 11 10 23 32 59.9990000  0  6  3  6 16 23 29 31
  -8777443.73207  22120177.73707  -6811075.07148  22120174.02248      4653.28100
  -7491379.02207  21341736.05807  -5819143.80548  21341732.83148      3812.06300
  -2615566.93007  20140745.34707  -2034682.01649  20140740.66749      1102.17200
  -6842538.36307  21926416.68307  -5314800.00348  21926410.66348      3337.56300
   3105526.30402  23953917.82302   2409387.31646  23953914.23346     -2035.87500
   -507253.33207  20860289.28407   -396896.90649  20860284.51149       -39.95300
 08 11 10 23 33 14.9990000  0  6  3  6 16 23 29 31
  -8847207.90907  22106902.25307  -6865436.77148  22106899.25348      4648.67200
  -7548510.07007  21330865.06507  -5863661.50148  21330861.24148      3805.43800
  -2632057.68207  20137607.15107  -2047531.94849  20137602.37049      1096.64100
  -6892537.07307  21916902.30807  -5353760.03848  21916896.44848      3329.00000
   3136095.25201  23959734.82301   2433207.22246  23959731.19446     -2040.25000
   -506612.45707  20860411.46407   -396397.53149  20860406.69049       -45.45300
 08 11 10 23 33 29.9990000  0  6  3  6 16 23 29 31
  -8916905.27307  22093639.19807  -6919746.40348  22093636.01148      4644.25000
  -7605546.38307  21320011.06507  -5908105.37948  21320007.78048      3799.25000
  -2648468.38407  20134484.08907  -2060319.51749  20134479.42949      1091.31300
  -6942410.75307  21907411.71407  -5392622.64248  21907405.18748      3320.71900
   3166727.08802  23965562.70602   2457076.18146  23965561.08546     -2044.17200
   -505890.62307  20860548.80007   -395835.06149  20860544.68349       -50.90600
 08 11 10 23 33 44.9990000  0  6  3  6 16 23 29 31
  -8986534.23707  22080389.49507  -6974002.73348  22080386.45248      4639.50000
  -7662486.12707  21309175.50307  -5952474.00948  21309172.97648      3792.71900
  -2664797.72407  20131376.69807  -2073043.67849  20131372.15549      1085.81300
  -6992157.63807  21897945.73707  -5431386.44548  21897937.57348      3312.10900
   3197422.94401  23971405.62001   2480995.02846  23971402.48346     -2048.67200
   -505086.36407  20860701.97207   -395208.38149  20860697.83149       -56.48400
 08 11 10 23 33 59.9990000  0  6  3  6 16 23 29 31
  -9056095.51607  22067151.77607  -7028206.32448  22067149.59748      4635.15600
  -7719330.17707  21298358.70607  -5996768.05948  21298355.85148      3786.31300
  -2681047.20507  20128284.94007  -2085705.61849  20128279.88249      1080.57800
  -7041778.63507  21888503.33907  -5470052.15148  21888495.18348      3303.82800
   3228181.31111  23977258.22201   2504962.51856  23977256.85146     -2052.93800
   -504200.77707  20860870.83907   -394518.30649  20860866.04649       -61.75000
 08 11 10 23 34 14.9990000  0  6  3  6 16 23 29 31
  -9125586.50907  22053928.30007  -7082355.14548  22053925.58148      4630.56300
  -7776076.31807  21287560.14407  -6040985.82148  21287557.61248      3780.04700
  -2697214.59107  20125208.40907  -2098303.58549  20125203.78449      1075.32800
  -7091271.42607  21879085.13607  -5508617.96848  21879076.90548      3295.45300
   3259003.80211  23983123.45601   2528980.00756  23983123.50346     -2056.93800
   -503231.73107  20861054.72207   -393763.21249  20861050.22249       -67.17200
 08 11 10 23 34 29.9990000  0  6  3  6 16 23 29 31
  -9195007.27707  22040718.17507  -7136449.25348  22040714.99548      4625.98400
  -7832724.30607  21276780.27607  -6085127.10849  21276777.67949      3773.56300
  -2713300.29607  20122147.00307  -2110837.90049  20122142.64449      1069.89100
  -7140635.83507  21869690.91707  -5547083.73048  21869684.70648      3286.96900
   3289890.01201  23989000.56501   2553047.18146  23989001.08146     -2060.82800
   -502179.38507  20861255.20607   -392943.20349  20861250.84349       -72.68800
 08 11 10 23 34 44.9990000  0  5  3  6 16 23 31
  -9264361.01107  22027520.54207  -7190491.11948  22027517.55448      4621.31300
  -7889277.54007  21266018.62807  -6129194.56948  21266015.93748      3766.93800
  -2729307.86207  20119101.11207  -2123311.34449  20119096.35849      1064.43800
  -7189874.90007  21860320.76107  -5585451.83348  21860315.17548      3278.31300
   -501047.21807  20861470.37007   -392061.01349  20861466.14749       -78.21900
 08 11 10 23 34 59.9990000  0  5  3  6 16 23 31
  -9333643.15207  22014336.54207  -7244477.20848  22014333.23748      4616.46900
  -7945731.51207  21255276.04207  -6173184.67148  21255273.33148      3760.34400
  -2745233.35907  20116070.55807  -2135720.82049  20116065.23349      1059.03100
  -7238984.14207  21850975.74507  -5623718.76448  21850969.84748      3269.75000
   -499830.99207  20861701.50307   -391113.31449  20861697.33149       -83.79700
 08 11 10 23 35 14.9990000  0  5  3  6 16 23 31
  -9402857.72907  22001165.88607  -7298410.64548  22001162.79248      4611.65600
  -8002090.53307  21244550.83907  -6217100.79349  21244548.43349      3753.75000
  -2761081.33408  20113054.72908  -2148069.90749  20113049.89049      1053.65600
  -7287968.12107  21841654.21407  -5661888.12348  21841648.63248      3261.12500
   -498535.10207  20861948.68307   -390103.53249  20861943.71449       -89.40600
 08 11 10 23 35 29.9990000  0  5  3  6 16 23 31
  -9472000.07107  21988008.48707  -7352287.79548  21988005.26548      4607.21900
  -8058349.67707  21233845.01907  -6260939.08349  21233841.78849      3747.40600
  -2776847.37108  20110054.48708  -2160355.13649  20110049.54249      1048.46900
  -7336821.78507  21832358.15907  -5699955.91948  21832352.12048      3252.62500
   -497154.84107  20862211.27607   -389028.01449  20862206.22949       -94.75000
 08 11 10 23 35 44.9990000  0  5  3  6 16 23 31
  -9541071.45707  21974864.62007  -7406109.66348  21974861.87048      4602.51600
  -8114510.44807  21223158.61207  -6304700.72948  21223155.88648      3740.81300
  -2792533.29407  20107069.73707  -2172577.93049  20107064.76149      1043.12500
  -7385546.36007  21823086.01907  -5737923.12248  21823080.02648      3244.00000
   -495691.78207  20862489.62007   -387887.97649  20862484.94049      -100.20300
 08 11 10 23 35 59.9990000  0  5  3  6 16 23 31
  -9610071.38207  21961734.21407  -7459875.82748  21961731.27248      4597.40600
  -8170572.21407  21212490.41707  -6348385.22349  21212486.87449      3733.93800
  -2808138.99308  20104099.92508  -2184738.21849  20104095.01549      1037.53100
  -7434141.43307  21813838.94007  -5775789.41048  21813832.51148      3235.12500
   -494145.73507  20862784.12007   -386683.27149  20862779.15149      -106.00000
 08 11 10 23 36 14.9990000  0  5  3  6 16 23 31
  -9678998.68007  21948617.42507  -7513585.41848  21948615.48748      4592.90600
  -8226533.95107  21201841.05807  -6391991.76148  21201838.07748      3727.62500
  -2823663.69507  20101145.62007  -2196835.39149  20101140.84749      1032.53100
  -7482605.72407  21804616.51907  -5813553.78448  21804609.90548      3226.78100
   -492515.69807  20863093.90907   -385413.11649  20863089.63249      -111.26600
 08 11 10 23 36 29.9990000  0  5  3  6 16 23 31
  -9747855.33807  21935514.85407  -7567239.96948  21935512.23748      4587.95300
  -8282397.73307  21191210.47207  -6435521.98548  21191206.83148      3720.96900
  -2839109.88507  20098206.35407  -2208871.38649  20098201.88249      1027.03100
  -7530941.44007  21795418.95607  -5851217.97748  21795412.33148      3217.98400
   -490804.00707  20863419.85407   -384079.34449  20863415.57349      -116.89100
 08 11 10 23 36 44.9990000  0  5  3  6 16 23 31
  -9816638.05007  21922425.77607  -7620836.89348  21922423.45248      4583.17200
  -8338160.47807  21180599.06507  -6478973.48148  21180595.44448      3714.29700
  -2854474.65807  20095282.84707  -2220843.93549  20095278.51549      1021.71900
  -7579145.35707  21786245.75307  -5888779.45348  21786239.65548      3209.32800
   -489007.75607  20863761.44807   -382679.66949  20863757.27649      -122.45300
 08 11 10 23 36 59.9990000  0  5  3  6 16 23 31
  -9885349.49507  21909350.64407  -7674378.26048  21909348.07748      4578.46900
  -8393824.82707  21170006.72207  -6522348.29948  21170003.01948      3707.73400
  -2869761.20908  20092373.84708  -2232755.53149  20092368.97249      1016.57800
  -7627220.26507  21777096.96407  -5926240.42548  21777090.72248      3200.81300
   -487129.82307  20864118.82307   -381216.36749  20864114.62049      -127.81300
 08 11 10 23 37 14.9990000  0  5  3  6 16 23 31
  -9953987.14907  21896289.71407  -7727862.13848  21896286.29248      4573.37500
  -8449388.15507  21159433.27607  -6565644.39149  21159429.85149      3700.89100
  -2884967.45707  20089480.05807  -2244604.56249  20089474.96849      1011.12500
  -7675163.34507  21767973.25307  -5963598.65248  21767967.89448      3191.82800
   -485167.76007  20864492.37807   -379687.49849  20864487.40949      -133.50000
 08 11 10 23 37 29.9990000  0  5  3  6 16 23 31
 -10022552.65907  21883241.77607  -7781289.81048  21883238.56948      4568.51600
  -8504852.21207  21148878.44007  -6608863.12949  21148875.49949      3694.28100
  -2900095.37308  20086601.64408  -2256392.54149  20086596.30849      1005.85900
  -7722976.28007  21758875.07307  -6000855.49648  21758870.40148      3183.21900
   -483123.57307  20864881.45607   -378094.63549  20864876.96449      -139.09400
 08 11 10 23 37 44.9990000  0  5  3  6 16 23 31
 -10091044.06607  21870208.08907  -7834659.73148  21870205.24548      4563.76600
  -8560214.95607  21138343.59707  -6652002.93548  21138340.24148      3687.68800
  -2915143.29407  20083737.92507  -2268118.20549  20083733.18749      1000.70300
  -7770657.15807  21749801.40107  -6038009.42948  21749796.97648      3174.59400
   -480995.46907  20865286.83107   -376436.37649  20865282.10849      -144.48400
 08 11 10 23 37 59.9990000  0  5  3  6 16 23 31
 -10159462.39007  21857188.53407  -7887972.71448  21857185.76148      4558.42200
  -8615477.89307  21127827.33107  -6695064.95549  21127824.29649      3680.48400
  -2930112.97508  20080889.13608  -2279782.89049  20080884.55449       995.01600
  -7818207.26507  21740753.15907  -6075061.47348  21740748.09748      3165.26600
   -478784.98507  20865706.91707   -374713.93549  20865702.69049      -150.50000
 08 11 10 23 38 14.9990000  0  5  3  6 16 23 31
 -10227804.58607  21844183.66707  -7941226.36648  21844180.54248      4553.90600
  -8670637.91007  21117330.76907  -6738046.77949  21117327.87049      3674.23400
  -2945001.79707  20078055.92507  -2291384.58049  20078050.92549       990.26600
  -7865623.58607  21731730.28407  -6112009.25148  21731724.11248      3156.98400
   -476489.29607  20866143.73707   -372925.09949  20866139.22249      -155.59400
 08 11 10 23 38 29.9990000  0  5  3  6 16 23 31
 -10296074.62007  21831192.05807  -7994423.78748  21831189.14748      4548.92200
  -8725698.96407  21106852.65107  -6780951.48749  21106849.91749      3667.46900
  -2959814.08608  20075237.41708  -2302926.62749  20075232.42549       984.89100
  -7912909.99407  21722732.17507  -6148855.79748  21722725.77248      3148.07800
   -474112.53007  20866596.05807   -371073.06849  20866591.56549      -161.15600
 08 11 10 23 38 44.9990000  0  5  3  6 16 23 31
 -10364269.87007  21818215.17507  -8047562.92948  21818212.27248      4543.70300
  -8780658.84307  21096394.13607  -6823777.36949  21096390.92149      3660.50000
  -2974548.00608  20072433.54208  -2314407.60149  20072428.22949       979.56300
  -7960064.26807  21713758.94807  -6185599.37248  21713752.43748      3139.09400
   -471652.75307  20867064.01107   -369156.35249  20867059.89749      -166.87500
 08 11 10 23 38 59.9990000  0  5  3  6 16 23 31
 -10432390.21107  21805252.22907  -8100643.71248  21805249.16348      4538.79700
  -8835516.98007  21085955.16707  -6866523.97149  21085952.10849      3653.75000
  -2989203.19808  20069644.58908  -2325827.22549  20069639.56249       974.39100
  -8007085.64507  21704810.94807  -6222239.38948  21704804.78848      3130.26600
   -469109.42707  20867547.74507   -367174.55149  20867543.23749      -172.37500
 08 11 10 23 39 14.9990000  0  5  3  6 16 23 31
 -10500437.70807  21792302.90907  -8153667.73148  21792300.04248      4534.09400
  -8890275.48307  21075534.85407  -6909192.93749  21075532.27249      3647.20300
  -3003782.37707  20066870.45607  -2337187.63449  20066865.46449       969.35900
  -8053976.41907  21695887.18307  -6258777.65848  21695881.86648      3121.62500
   -466484.90207  20868046.95607   -365129.46849  20868043.46849      -177.71900
 08 11 10 23 39 29.9990000  0  5  3  6 16 23 31
 -10568407.96707  21779368.38607  -8206631.55648  21779366.04248      4528.40600
  -8944930.04207  21065134.12807  -6951780.89149  21065131.60449      3639.90600
  -3018281.69307  20064111.11207  -2348485.79949  20064106.71849       963.70300
  -8100732.16407  21686989.97207  -6295210.71448  21686984.99148      3112.23400
   -463775.14407  20868562.80807   -363017.98049  20868558.47949      -183.76600
 08 11 10 23 39 44.9990000  0  5  3  6 16 23 31
 -10636299.13707  21766448.83907  -8259533.75948  21766446.76548      4523.89100
  -8999479.17307  21054754.07307  -6994286.70949  21054751.26549      3633.60900
  -3032699.80907  20061367.44007  -2359720.69749  20061362.99149       958.92200
  -8147351.36107  21678118.53407  -6331537.37048  21678114.08948      3103.81300
   -460978.83307  20869095.12007   -360839.04449  20869090.52249      -188.90600
 08 11 10 23 39 59.9990000  0  5  3  6 16 23 31
 -10704117.52307  21753543.64407  -8312379.22548  21753541.43748      4518.67200
  -9053929.13807  21044392.91707  -7036715.25449  21044389.97249      3626.45300
  -3047043.46907  20058638.13607  -2370897.56849  20058633.25349       953.56300
  -8193840.21807  21669272.55007  -6367762.45348  21669267.18348      3094.73400
   -458102.48507  20869642.78407   -358597.74549  20869638.56949      -194.67200
 08 11 10 23 40 14.9990000  0  5  3  6 16 23 31
 -10771859.19907  21740652.87807  -8365164.94348  21740650.64448      4513.76600
  -9108276.13107  21034051.07307  -7079063.56249  21034047.62849      3619.89100
  -3061309.21907  20055923.45607  -2382013.74149  20055918.64449       948.67200
  -8240194.91907  21660451.69007  -6403882.99148  21660446.08148      3086.00000
   -455142.50707  20870205.87807   -356291.27449  20870201.98749      -199.98400
 08 11 10 23 40 29.9990000  0  5  3  6 16 23 31
 -10839523.89807  21727776.65907  -8417890.66948  21727773.96048      4508.34400
  -9162519.87507  21023728.45607  -7121331.41649  21023725.39749      3612.73400
  -3075497.06307  20053223.32307  -2393069.20149  20053218.53449       943.18800
  -8286415.08807  21651657.01107  -6439898.69948  21651649.92948      3076.75000
   -452098.54207  20870785.22907   -353919.36449  20870781.15149      -205.84400
 08 11 10 23 40 44.9990000  0  5  3  6 16 23 31
 -10907113.53407  21714915.33107  -8470557.92348  21714912.22248      4503.39100
  -9216662.08907  21013425.83107  -7163520.14648  21013422.27248      3606.04700
  -3089609.09107  20050538.01107  -2404065.58649  20050533.37849       938.29700
  -8332502.43007  21642886.56507  -6475810.91148  21642880.38648      3068.04700
   -448972.78107  20871379.63607   -351483.72149  20871375.73349      -211.15600
 08 11 10 23 40 59.9990000  0  5  3  6 16 23 31
 -10974626.60007  21702067.99507  -8523165.49948  21702064.98748      4498.53100
  -9270701.65507  21003142.58107  -7205628.89749  21003139.00749      3599.46900
  -3103644.55707  20047867.06507  -2415002.31749  20047862.39749       933.37500
  -8378455.86007  21634141.31507  -6511618.78148  21634135.58148      3059.28100
   -445764.20307  20871990.56507   -348983.53249  20871986.21449      -216.50000
 08 11 10 23 41 14.9990000  0  6  3  6 13 16 23 31
 -11042064.11107  21689234.70607  -8575714.19948  21689232.13248      4493.15600
  -9324639.62507  20992878.52607  -7247658.49949  20992874.96849      3592.31300
   -163347.50216  23583299.34706   -102225.52757  23583296.46847      4260.71900
  -3117605.03008  20045210.51108  -2425880.60749  20045206.07749       928.09400
  -8424276.42007  21625421.79207  -6547323.12148  21625416.87448      3050.09400
   -442474.29607  20872616.47207   -346419.98449  20872612.42949      -222.14100
 08 11 10 23 41 29.9990000  0  6  3  6 13 16 23 31
 -11109424.21607  21676416.55007  -8628202.58248  21676413.61648      4488.12500
  -9378474.44707  20982634.06507  -7289607.70949  20982631.01949      3585.56300
   -227219.02206  23571144.82306   -151995.52947  23571141.66747      4255.51600
  -3131489.11708  20042568.66708  -2436699.38049  20042563.78049       923.10900
  -8469962.44407  21616728.33907  -6582922.63048  21616722.87048      3041.23400
   -439101.30907  20873258.51907   -343791.69649  20873253.55049      -227.57800
 08 11 10 23 41 44.9990000  0  6  3  6 13 16 23 31
 -11176706.01107  21663613.34707  -8680629.94348  21663610.31248      4482.92200
  -9432204.85707  20972409.65907  -7331475.56649  20972406.37449      3578.62500
   -291008.50406  23559006.48706   -201701.61147  23559002.79647      4249.98400
  -3145295.97907  20039940.82307  -2447457.97649  20039936.25349       917.89100
  -8515512.67307  21608060.43307  -6618416.31448  21608054.23348      3032.17200
   -435644.33507  20873916.61207   -341097.96149  20873911.51949      -233.25000
 08 11 10 23 41 59.9990000  0  6  3  6 13 16 23 31
 -11243908.76907  21650825.34707  -8732995.71748  21650821.51148      4477.59400
  -9485830.24807  20962204.88607  -7373261.58949  20962202.05449      3571.64100
   -354715.22206  23546883.77606   -251343.22747  23546879.78447      4244.45300
  -3159025.34207  20037328.66707  -2458156.18849  20037323.81249       912.85900
  -8560926.36907  21599419.23707  -6653803.60448  21599412.56548      3023.12500
   -432102.93707  20874590.32307   -338338.43749  20874585.36649      -238.79700
 08 11 10 23 42 14.9990000  0  6  3  6 13 16 23 31
 -11311033.91707  21638051.87807  -8785301.03148  21638048.35448      4472.32800
  -9539352.30007  20952019.82307  -7414967.09149  20952017.37049      3564.57800
   -418340.79806  23534776.51106   -300921.57647  23534771.54247      4238.87500
  -3172679.34307  20034730.15107  -2468795.66849  20034725.48749       907.70300
  -8606205.30407  21590802.83107  -6689085.88448  21590796.13648      3014.03100
   -428478.98307  20875280.07307   -335514.59149  20875275.39749      -244.45300
 08 11 10 23 42 29.9990000  0  6  3  6 13 16 23 31
 -11378085.22107  21625292.29207  -8837548.78448  21625288.48748      4467.37500
  -9592774.66307  20941854.26107  -7456594.88349  20941850.67149      3557.96900
   -481888.78306  23522683.25306   -350439.48547  23522678.60447      4233.67200
  -3186262.17508  20032145.77608  -2479379.69049  20032141.17949       902.96900
  -8651353.10607  21582211.39407  -6724265.98248  21582204.40948      3005.23400
   -424776.36807  20875984.26107   -332629.44749  20875980.31549      -249.67200
 08 11 10 23 42 44.9990000  0  6  3  6 13 16 23 31
 -11445058.58607  21612546.99507  -8889735.82248  21612544.38248      4462.53100
  -9646093.29207  20931707.81507  -7498141.87049  20931704.30049      3551.39100
   -545355.00306  23510605.65106   -399893.65847  23510601.00747      4228.56300
  -3199769.92007  20029575.56507  -2489905.21049  20029570.51149       898.29700
  -8696365.69007  21573645.76107  -6759340.70848  21573639.44848      2996.56300
   -420991.18307  20876704.66707   -329679.96049  20876699.96049      -254.84400
 08 11 10 23 42 59.9990000  0  6  3  6 13 16 23 31
 -11511953.74007  21599817.99507  -8941861.90848  21599814.93348      4457.09400
  -9699308.12407  20921581.18307  -7539607.97649  20921578.10849      3544.25000
   -608739.29606  23498543.75306   -449284.00447  23498539.52647      4222.95300
  -3213202.99708  20027018.94808  -2500372.54749  20027014.25749       893.09400
  -8741242.90007  21565105.08907  -6794309.96148  21565099.26948      2987.31300
   -417123.53407  20877440.62007   -326666.21749  20877435.55849      -260.54700
 08 11 10 23 43 14.9990000  0  6  3  6 13 16 23 31
 -11578771.34407  21587102.94807  -8993927.55448  21587100.03048      4451.79700
  -9752420.02107  20911474.01907  -7580993.87049  20911471.56249      3537.28100
   -672042.19306  23486497.63606   -498610.92847  23486492.75347      4217.40600
  -3226562.33907  20024476.65107  -2510782.41749  20024471.97649       888.04700
  -8785985.44107  21556590.74507  -6829174.28048  21556585.25348      2978.25000
   -413174.48107  20878192.23707   -323589.04749  20878187.76549      -266.06300
 08 11 10 23 43 29.9990000  0  6  3  6 13 16 23 31
 -11645509.77307  21574402.98707  -9045931.52848  21574399.76148      4446.46900
  -9805427.33807  20901387.30007  -7622298.25949  20901385.05449      3530.26600
   -735261.94806  23474466.93306   -547873.06747  23474463.37447      4211.75000
  -3239846.87707  20021948.50307  -2521134.00549  20021943.91349       883.07800
  -8830591.72407  21548102.39407  -6863932.42748  21548096.93748      2969.09400
   -409142.71707  20878959.69007   -320447.42149  20878955.17549      -271.62500
 08 11 10 23 43 44.9990000  0  6  3  6 13 16 23 31
 -11712167.73607  21561717.89407  -9097872.79848  21561714.89448      4441.15600
  -9858328.71707  20891320.45607  -7663520.10849  20891317.49549      3523.15600
   -798397.23406  23462453.06506   -597069.42947  23462448.69847      4206.15600
  -3253055.54107  20019435.29207  -2531426.47149  20019430.46849       877.93800
  -8875060.56607  21539640.40907  -6898583.47148  21539635.20648      2959.95300
   -405027.09507  20879742.74507   -317240.44749  20879737.96449      -277.23400
 08 11 10 23 43 59.9990000  0  6  3  6 13 16 23 31
 -11778747.96707  21549048.47207  -9149753.49248  21549045.52248      4436.15600
  -9911127.02807  20881273.70607  -7704661.64349  20881270.11649      3516.46900
   -861450.66106  23450454.80006   -646201.95147  23450450.64747      4200.82800
  -3266191.50007  20016935.54207  -2541662.27949  20016930.41749       873.37500
  -8919394.61507  21531204.35407  -6933129.48648  21531198.36248      2951.18800
   -400830.39207  20880541.49507   -313970.27949  20880536.78849      -282.43800
 08 11 10 23 44 14.9990000  0  6  3  6 13 16 23 31
 -11845250.76507  21536392.92507  -9201573.84648  21536390.31248      4430.54700
  -9963822.78407  20871245.94007  -7745723.26349  20871242.37849      3509.26600
   -924422.81106  23438472.02606   -695271.14847  23438468.23747      4195.12500
  -3279255.84507  20014449.48707  -2551842.30049  20014444.37049       868.18800
  -8963594.49707  21522793.62007  -6967570.95548  21522787.00748      2941.84400
   -396553.51107  20881355.46407   -310637.64749  20881350.42949      -288.18800
 08 11 10 23 44 29.9980000  0  6  3  6 13 16 23 31
 -11911665.71407  21523754.92007  -9253325.73348  21523752.22548      4425.29700
 -10016406.35207  20861239.43607  -7786697.46649  20861236.03349      3502.34400
   -987303.10506  23426505.64606   -744268.78247  23426502.86547      4189.51600
  -3292241.77107  20011978.60007  -2561961.20649  20011973.04949       863.32800
  -9007650.93007  21514409.96707  -7001900.65048  21514403.11548      2932.78100
   -392190.69007  20882185.57607   -307238.04649  20882181.16649      -293.56300
 08 11 10 23 44 44.9980000  0  7  3  6 13 16 21 23 31
 -11978003.00707  21511131.85707  -9305017.12448  21511128.53748      4419.75000
 -10068886.38507  20851252.95107  -7827590.99149  20851249.30349      3495.04700
  -1050101.48706  23414554.87306   -793202.58647  23414552.52547      4183.62500
  -3305153.21507  20009521.67807  -2572022.06949  20009516.57249       858.20300
   -100689.58415  24085523.07605    -66678.13456  24085518.27146      2711.93800
  -9051571.63307  21506052.50607  -7036124.55948  21506045.12748      2923.35900
   -387743.32807  20883031.58407   -303772.56749  20883026.94749      -299.34400
 08 11 10 23 44 59.9980000  0  7  3  6 13 16 21 23 31
 -12044260.37607  21498523.60007  -9356646.24148  21498519.71748      4414.53100
 -10121261.56107  20841286.44307  -7868402.81149  20841282.20149      3488.26600
  -1112815.72806  23402621.07606   -842070.81546  23402617.88546      4178.15600
  -3317991.57407  20007078.13907  -2582026.00049  20007073.34249       853.56300
   -141337.90005  24077788.67805    -98352.11446  24077782.49446      2707.62500
  -9095355.58807  21497720.29507  -7070241.92048  21497713.24448      2914.39100
   -383213.83007  20883893.95107   -300243.10049  20883889.44749      -304.64100
 08 11 10 23 45 14.9980000  0  7  3  6 13 16 21 23 31
 -12110439.25906  21485929.56806  -9408214.20148  21485926.71748      4409.46900
 -10173533.16007  20831339.41207  -7909133.93349  20831335.69349      3481.43800
  -1175447.03906  23390702.71706   -890874.46846  23390699.31846      4172.79700
  -3330758.59307  20004648.77107  -2591974.31649  20004644.09249       848.93800
   -181919.41705  24070065.39605   -129974.08746  24070060.40446      2703.34400
  -9139004.20607  21489413.77907  -7104253.82448  21489407.47948      2905.54700
   -378603.88407  20884771.02107   -296650.94749  20884766.66649      -309.89100
 08 11 10 23 45 29.9980000  0  7  3  6 13 16 21 23 31
 -12176536.71207  21473351.60007  -9459718.70948  21473348.70548      4403.50000
 -10225698.48907  20821412.48207  -7949782.24149  20821409.29949      3473.89100
  -1237992.58606  23378801.17006   -939611.26846  23378796.64346      4166.59400
  -3343451.92007  20002233.00607  -2601865.23549  20002228.55749       843.51600
   -222431.05805  24062356.44305   -161541.60346  24062350.84646      2698.14100
  -9182514.62807  21481134.02907  -7138158.04248  21481127.84648      2895.82800
   -373910.93407  20885664.16207   -292994.11249  20885659.88549      -315.85900
 08 11 10 23 45 44.9980000  0  7  3  6 13 16 21 23 31
 -12242549.39607  21460789.61507  -9511157.15148  21460786.70948      4397.92200
 -10277754.48807  20811506.56107  -7990345.34449  20811503.30749      3466.67200
  -1300449.16806  23366916.16206   -988278.70746  23366911.40446      4160.68800
  -3356068.78507  19999832.63907  -2611696.56249  19999827.93949       838.42200
   -262869.79705  24054661.14605   -193052.29246  24054656.43946      2693.37500
  -9225883.81406  21472880.97506  -7171952.21848  21472875.82248      2886.53100
   -369132.21607  20886573.54507   -289270.44549  20886568.83849      -321.59400
 08 11 10 23 45 59.9980000  0  7  3  6 13 16 21 23 31
 -12308478.23507  21448243.93607  -9562530.26148  21448241.08448      4392.64100
 -10329701.73607  20801621.88107  -8030823.72449  20801618.12349      3459.71900
  -1362817.28606  23355047.02906  -1036877.25246  23355042.74446      4155.10900
  -3368610.18007  19997445.77107  -2621469.07549  19997441.58449       833.76600
   -303236.09104  24046979.30304   -224506.55046  24046975.39346      2688.92200
  -9269112.26507  21464655.06107  -7205636.72648  21464649.48248      2877.43800
   -364268.38907  20887499.35007   -285480.45649  20887494.74049      -326.82800
 08 11 10 23 46 14.9980000  0  7  3  6 13 16 21 23 31
 -12374327.71007  21435713.13107  -9613841.53948  21435710.19348      4387.39100
 -10381545.02307  20791755.78707  -8071221.09149  20791752.12749      3452.79700
  -1425101.40206  23343195.52906  -1085410.31746  23343191.34646      4149.53100
  -3381081.17607  19995072.80307  -2631186.74449  19995068.42849       829.14100
   -343534.61804  24039311.31104   -255907.98846  24039307.34246      2684.35900
  -9312204.75407  21456455.17807  -7239215.30748  21456450.23648      2868.34400
   -359324.43607  20888440.02107   -281628.03049  20888435.49049      -332.20300
 08 11 10 23 46 29.9980000  0  7  3  6 13 16 21 23 31
 -12440095.13307  21423197.92007  -9665088.88448  21423195.32648      4381.64100
 -10433281.61207  20781911.31107  -8111535.32649  20781907.70149      3445.43800
  -1487298.76705  23331359.72505  -1133875.80146  23331355.71746      4143.42200
  -3393479.59507  19992713.35707  -2640847.84949  19992708.94349       823.96900
   -383762.79505  24031656.32605   -287254.59946  24031651.78746      2679.31300
  -9355158.62707  21448281.63107  -7272685.85248  21448276.18948      2858.81300
   -354297.84308  20889396.56808   -277711.20549  20889391.96749      -338.01600
 08 11 10 23 46 44.9980000  0  7  3  6 13 16 21 23 31
 -12505781.40907  21410698.67007  -9716272.99548  21410695.54948      4376.45300
 -10484912.67707  20772085.44307  -8151767.31749  20772082.52149      3438.64100
  -1549410.51505  23319539.99805  -1182274.56246  23319535.90846      4137.96900
  -3405806.91407  19990367.61507  -2650453.54949  19990363.20549       819.45300
   -423921.60305  24024015.29505   -318547.16547  24024009.93247      2674.96900
  -9397974.97906  21440133.17006  -7306049.24248  21440128.02548      2849.90600
   -349189.94407  20890368.38907   -273731.03449  20890363.83049      -343.18800
 08 11 10 23 46 59.9980000  0  7  3  6 13 16 21 23 31
 -12571386.89207  21398213.76407  -9767394.15148  21398211.58048      4371.04700
 -10536438.70007  20762280.74007  -8191917.46049  20762277.47549      3431.62500
  -1611436.73505  23307736.43605  -1230606.66346  23307732.64646      4132.32800
  -3418063.83207  19988035.26407  -2660004.40049  19988030.70949       814.78100
   -464011.39906  24016385.77906   -349785.94447  24016381.45147      2670.48400
  -9440654.13607  21432011.88107  -7339305.73048  21432006.02948      2840.73400
   -344001.41307  20891355.51407   -269688.02949  20891350.94749      -348.54700
 08 11 10 23 47 14.9980000  0  7  3  6 13 16 21 23 31
 -12636911.31906  21385745.26406  -9818452.13548  21385742.14348      4365.26600
 -10587859.47207  20752495.49807  -8231985.58249  20752492.37749      3424.26600
  -1673377.25605  23295950.56805  -1278872.04346  23295945.61146      4126.25000
  -3430250.48407  19985716.39607  -2669500.49749  19985711.49449       809.79700
   -504031.78206  24008769.96706   -380970.64546  24008765.25646      2665.45300
  -9483196.02907  21423916.34207  -7372455.25148  21423909.22548      2831.28100
   -338732.10407  20892358.35707   -265582.08649  20892354.15849      -354.29700
 08 11 10 23 47 29.9980000  0  7  3  6 13 16 21 23 31
 -12702349.52107  21373292.84207  -9869442.95048  21373289.38948      4359.56300
 -10639169.72807  20742732.06807  -8271967.59549  20742728.39649      3416.89100
  -1735226.85006  23284180.47506  -1327066.52946  23284176.13146      4120.14100
  -3442361.97607  19983411.46707  -2678938.02949  19983406.63549       804.82800
   -543977.43805  24001168.08405   -412097.13346  24001164.26846      2660.39100
  -9525595.43407  21415847.87307  -7405493.76548  21415841.17048      2821.76600
   -333377.04507  20893377.65407   -261409.32749  20893373.11549      -360.01600
 08 11 10 23 47 44.9980000  0  7  3  6 13 16 21 23 31
 -12767705.44507  21360856.18607  -9920369.65248  21360852.79148      4354.17200
 -10690373.41507  20732987.74007  -8311866.58049  20732984.51049      3409.87500
  -1796989.09906  23272427.74006  -1375192.86346  23272423.88146      4114.43800
  -3454402.58407  19981120.05307  -2688320.33049  19981115.08049       800.20300
   -583852.36405  23993580.25605   -443168.48146  23993576.42846      2655.82800
  -9567856.07007  21407805.97507  -7438424.12148  21407799.80748      2812.65600
   -327940.36807  20894412.25607   -257172.97449  20894408.07649      -365.32800
 08 11 10 23 47 59.9980000  0  7  3  6 13 16 21 23 31
 -12832976.90007  21348435.24007  -9971230.52348  21348432.15848      4348.75000
 -10741468.43007  20723264.69307  -8351680.87749  20723261.62749      3402.81300
  -1858661.65606  23260692.08406  -1423249.48746  23260688.24046      4108.65600
  -3466370.58307  19978842.42007  -2697646.04949  19978837.99849       795.57800
   -623654.46604  23986005.74004   -474183.13446  23986001.83846      2651.21900
  -9609975.97807  21399791.28707  -7471244.83448  21399785.35448      2803.42200
   -322420.04007  20895462.80307   -252871.42849  20895458.03349      -370.67200
 08 11 10 23 48 14.9980000  0  7  3  6 13 16 21 23 31
 -12898165.38307  21336030.47507 -10022026.74148  21336027.27948      4343.09400
 -10792456.50707  20713561.77107  -8391411.83749  20713559.35749      3395.54700
  -1920246.39606  23248973.22506  -1471237.61146  23248969.15446      4102.64100
  -3478268.09607  19976578.60707  -2706916.84549  19976574.08049       790.73400
   -663385.24404  23978445.29504   -505142.14846  23978440.62746      2646.39100
  -9651956.89407  21391802.47507  -7503957.24548  21391796.11548      2794.09400
   -316818.15407  20896528.68607   -248506.32949  20896523.91249      -376.20300
 08 11 10 23 48 29.9980000  0  7  3  6 13 16 21 23 31
 -12963270.44907  21323642.00607 -10072757.95648  21323638.15448      4337.43800
 -10843337.55007  20703879.77107  -8431059.39649  20703876.39349      3388.35900
  -1981742.88006  23237271.34206  -1519156.95746  23237265.97146      4096.67200
  -3490095.27507  19974327.93607  -2716132.82149  19974322.62349       786.03100
   -703044.46004  23970897.99004   -536045.40746  23970894.16646      2641.43800
  -9693798.35007  21383840.12307  -7536560.97348  21383834.53748      2784.67200
   -311134.65607  20897609.89607   -244077.64349  20897604.88149      -381.68800
 08 11 10 23 48 44.9980000  0  7  3  6 13 16 21 23 31
 -13028292.69807  21311268.38907 -10123424.65148  21311264.79148      4332.04700
 -10894111.90507  20694217.63907  -8470623.82449  20694214.52149      3381.32800
  -2043151.39906  23225584.51406  -1567007.76246  23225580.28746      4090.89100
  -3501852.70907  19972090.23207  -2725294.45849  19972085.31449       781.42200
   -742632.47002  23963363.85002   -566893.18446  23963361.38146      2636.65600
  -9735500.88307  21375904.67007  -7569056.46448  21375898.99448      2775.50000
   -305370.14007  20898707.20907   -239585.82449  20898702.12749      -387.00000
 08 11 10 23 48 59.9980000  0  7  3  6 13 16 21 23 31
 -13093231.36607  21298910.35707 -10174026.21248  21298907.14648      4326.23400
 -10944778.89007  20684576.05307  -8510104.59749  20684572.96749      3374.04700
  -2104471.11206  23213915.42006  -1614789.34846  23213910.95146      4084.82800
  -3513540.29508  19969866.54508  -2734401.67849  19969861.82649       776.70300
   -782148.69504  23955845.45904   -597685.04546  23955842.67046      2631.90600
  -9777063.87407  21367995.70907  -7601443.21448  21367989.86948      2766.00000
   -299524.14807  20899819.57607   -235030.51549  20899814.90849      -392.65600
 08 11 10 23 49 14.9980000  0  7  3  6 13 16 21 23 31
 -13158084.32207  21286569.36507 -10224560.97648  21286566.04948      4320.89100
 -10995336.43207  20674955.39607  -8549500.07449  20674952.18649      3367.04700
  -2165699.71706  23202263.63906  -1662499.93846  23202259.55746      4079.07800
  -3525156.29507  19967656.19307  -2743453.12149  19967651.02949       772.25000
   -821590.67605  23948340.51405   -628419.05447  23948336.58047      2627.21900
  -9818485.27307  21360113.15407  -7633719.63648  21360107.92448      2756.90600
   -293594.80807  20900947.82607   -230410.24749  20900942.86549      -397.87500
 08 11 10 23 49 29.9980000  0  7  3  6 13 16 21 23 31
 -13222854.45807  21274244.14607 -10275031.21448  21274241.12748      4314.98400
 -11045787.54907  20665354.54507  -8588812.62749  20665351.76049      3359.54700
  -2226839.97506  23190629.56106  -1710141.69346  23190624.66646      4072.82800
  -3536703.86407  19965458.70907  -2752451.21649  19965454.46749       767.25000
   -860961.37504  23940847.43604   -659097.53447  23940844.46747      2622.06300
  -9859767.83607  21352257.03707  -7665887.87448  21352251.52948      2747.21900
   -287585.18507  20902091.68607   -225727.42549  20902086.36549      -403.67200
 08 11 10 23 49 44.9980000  0  7  3  6 13 16 21 23 31
 -13287536.69106  21261935.41206 -10325432.94748  21261932.02948      4309.40600
 -11096127.41107  20655775.01407  -8628038.49449  20655772.10749      3352.45300
  -2287887.19406  23179012.60006  -1757710.95747  23179007.64647      4066.84400
  -3548178.60007  19963275.25607  -2761392.58249  19963270.63549       762.79700
   -900255.97604  23933370.48204   -689716.68847  23933366.42047      2617.21900
  -9900906.76507  21344428.70107  -7697944.17748  21344422.62748      2738.01600
   -281490.81207  20903251.04507   -220978.56949  20903246.53749      -408.93800
 08 11 10 23 49 59.9980000  0  7  3  6 13 16 21 23 31
 -13352135.11406  21249642.45906 -10375769.35748  21249639.72548      4303.70300
 -11146360.02807  20646216.24807  -8667180.79249  20646213.25649      3345.20300
  -2348845.12706  23167413.07606  -1805210.61847  23167407.99047      4060.70300
  -3559584.93607  19961104.65407  -2770280.63849  19961100.41649       758.15600
   -939478.45304  23925906.43604   -720279.60547  23925902.69747      2612.31300
  -9941906.18107  21336626.52907  -7729891.75248  21336620.21348      2728.65600
   -275315.91607  20904426.35007   -216166.97049  20904421.58449      -414.40600
 08 11 10 23 50 14.9980000  0  7  3  6 13 16 21 23 31
 -13416649.80106  21237366.05306 -10426040.55548  21237362.99048      4298.01600
 -11196485.58707  20636677.74007  -8706239.66049  20636674.51049      3338.00000
  -2409713.94106  23155829.88106  -1852640.87147  23155826.38547      4054.76600
  -3570923.34307  19958947.26407  -2779115.76249  19958942.93649       753.45300
   -978628.77805  23918457.16205   -750786.37747  23918453.26847      2607.42200
  -9982766.16307  21328851.28707  -7761730.70548  21328845.53348      2719.18800
   -269060.64407  20905616.88107   -211292.74749  20905611.94749      -419.85900
 08 11 10 23 50 29.9980000  0  7  3  6 13 16 21 23 31
 -13481077.20206  21225105.90406 -10476243.71148  21225102.87748      4292.40600
 -11246500.67707  20627160.18607  -8745212.46049  20627157.09649      3330.75000
  -2470489.98006  23144264.74006  -1899998.81147  23144261.19747      4048.79700
  -3582190.65007  19956803.05307  -2787895.48449  19956798.36949       748.93800
  -1017703.44505  23911021.68605   -781234.13647  23911017.53747      2602.64100
 -10023483.30907  21321103.45107  -7793458.34748  21321097.70148      2709.85900
   -262721.76607  20906822.74007   -206353.37049  20906818.55349      -425.21900
 08 11 10 23 50 44.9980000  0  7  3  6 13 16 21 23 31
 -13545418.28306  21212861.95906 -10526379.61148  21212858.44748      4286.62500
 -11296406.23607  20617663.51407  -8784099.90549  20617660.38949      3323.51600
  -2531174.01906  23132717.08406  -1947285.06747  23132713.70947      4042.54700
  -3593388.03208  19954672.38908  -2796620.72849  19954667.67049       744.18800
  -1056703.26405  23903600.69305   -811623.60646  23903595.16646      2597.54700
 -10064058.51007  21313381.84207  -7825075.39048  21313376.78748      2700.34400
   -256300.37107  20908045.02907   -201349.68949  20908040.42449      -430.79700
 08 11 10 23 50 59.9980000  0  7  3  6 13 16 21 23 31
 -13609671.97107  21200635.23207 -10576447.40648  21200631.08048      4280.57800
 -11346201.17007  20608187.78707  -8822901.15949  20608184.46749      3316.00000
  -2591764.82106  23121186.74006  -1994498.66347  23121182.96347      4036.28100
  -3604515.02207  19952554.76407  -2805291.10949  19952550.31149       739.48400
  -1095627.30105  23896193.23205   -841953.96547  23896188.21347      2592.37500
 -10104490.69407  21305688.06107  -7856580.98848  21305682.72948      2690.71900
   -249795.66807  20909282.45907   -196281.11049  20909278.15049      -436.45300
 08 11 10 23 51 14.9980000  0  7  3  6 13 16 21 23 31
 -13673838.54306  21188424.06806 -10626447.33048  21188421.15448      4275.09400
 -11395886.05507  20598733.11507  -8861616.65549  20598730.27149      3308.89100
  -2652262.84506  23109674.38106  -2041639.99647  23109669.87347      4030.34400
  -3615572.31107  19950450.30307  -2813907.19549  19950445.98249       735.07800
  -1134475.99805  23888800.91205   -872225.64947  23888795.67847      2587.60900
 -10144780.28607  21298021.22507  -7887975.47548  21298015.65048      2681.48400
   -243208.47707  20910536.19307   -191148.23849  20910531.63149      -441.70300
 08 11 10 23 51 29.9980000  0  7  3  6 13 16 21 23 31
 -13737919.08006  21176230.21706 -10676380.19648  21176227.06448      4269.18800
 -11445461.98607  20589299.17807  -8900247.24449  20589295.98649      3301.43800
  -2712669.00706  23098179.03706  -2088709.74547  23098175.14647      4023.98400
  -3626561.38807  19948359.27907  -2822470.11149  19948354.35049       730.39100
  -1173250.28305  23881421.47505   -902439.31647  23881417.01847      2582.37500
 -10184928.40507  21290381.06107  -7919259.73348  21290376.15448      2671.87500
   -236539.98607  20911804.88107   -185952.02149  20911799.87349      -447.28100
 08 11 10 23 51 44.9980000  0  7  3  6 13 16 21 23 31
 -13801913.39406  21164052.74006 -10726245.89748  21164049.16648      4263.51600
 -11494929.07007  20579885.60007  -8938793.02449  20579882.04549      3294.28100
  -2772983.18706  23086701.31806  -2135707.76547  23086697.90047      4018.00000
  -3637482.71007  19946281.17807  -2830980.23849  19946275.78749       725.93800
  -1211950.07605  23874056.48205   -932594.95647  23874052.67847      2577.60900
 -10224935.23007  21282768.06807  -7950433.88948  21282762.72148      2662.50000
   -229790.38807  20913089.24807   -180692.60949  20913084.75249      -452.62500
 08 11 10 23 51 59.9980000  0  7  3  6 13 16 21 23 31
 -13865822.23807  21151891.24007 -10776044.98248  21151887.54948      4257.60900
 -11544287.83507  20570493.17007  -8977254.39549  20570489.84649      3286.92200
  -2833205.78206  23075241.62306  -2182634.46747  23075237.29947      4011.64100
  -3648337.00707  19944215.52107  -2839438.12649  19944210.74049       721.28100
  -1250575.91005  23866706.27105   -962693.00447  23866702.29147      2572.51600
 -10264801.27707  21275181.74807  -7981498.34648  21275175.40848      2652.90600
   -222960.49407  20914389.11507   -175370.62149  20914384.90849      -458.12500
 08 11 10 23 52 14.9980000  0  7  3  6 13 16 21 23 31
 -13929643.80307  21139746.63907 -10825776.06248  21139742.65448      4251.79700
 -11593536.64107  20561121.59207  -9015630.08549  20561118.65049      3279.51600
  -2893335.05906  23063799.38906  -2229488.45547  23063795.29547      4005.43800
  -3659123.18107  19942163.17807  -2847842.94949  19942158.36949       716.76600
  -1289126.00706  23859371.06106   -992732.02447  23859367.31147      2567.42200
 -10304524.80907  21267623.42007  -8012451.73648  21267615.92448      2643.35900
   -216048.90207  20915704.48207   -169984.97049  20915699.86949      -463.56300
 08 11 10 23 52 29.9980000  0  7  3  6 13 16 21 23 31
 -13993374.66007  21127618.92007 -10875436.46648  21127614.97548      4245.62500
 -11642672.39907  20551771.07607  -9053917.68749  20551768.13949      3271.85900
  -2953367.79806  23052375.42806  -2276267.17947  23052371.47947      3998.85900
  -3669838.39607  19940124.35007  -2856192.46849  19940119.46349       711.93800
  -1327597.14505  23852050.41205  -1022709.48847  23852046.63947      2562.04700
 -10344102.63407  21260091.95907  -8043291.58748  21260083.94748      2633.54700
   -209052.64807  20917035.38907   -164533.34049  20917030.76449      -469.34400
 08 11 10 23 52 44.9980000  0  7  3  6 13 16 21 23 31
 -14057017.91007  21115508.03707 -10925028.58948  21115504.51448      4240.07800
 -11691697.90607  20542441.82607  -9092119.38049  20542438.76449      3264.85900
  -3013306.67506  23040970.02106  -2322972.79147  23040965.30747      3992.90600
  -3680485.86607  19938098.08407  -2864489.20449  19938093.32249       707.68800
  -1365992.24405  23844743.38105  -1052627.71747  23844739.63947      2557.26600
 -10383537.79207  21252587.24807  -8074020.28948  21252580.13548      2624.39100
   -201974.71007  20918382.64607   -159018.06549  20918378.44749      -474.50000
 08 11 10 23 52 59.9980000  0  7  3  6 13 16 21 23 31
 -14120573.82607  21103413.45907 -10974552.67348  21103409.98648      4234.17200
 -11740613.73707  20533133.54507  -9130235.61049  20533130.14349      3257.40600
  -3073152.10506  23029582.09206  -2369605.57947  23029577.96747      3986.62500
  -3691066.35607  19936084.35707  -2872733.73549  19936079.94349       703.17200
  -1404311.71105  23837451.63905  -1082487.01647  23837448.21747      2552.18800
 -10422830.72407  21245109.95907  -8104638.14248  21245103.88948      2614.76600
   -194815.73507  20919744.56807   -153439.64849  20919740.66249      -479.90600
 08 11 10 23 53 14.9980000  0  7  3  6 13 16 21 23 31
 -14184040.53007  21091336.75607 -11024007.25248  21091333.12348      4228.18800
 -11789418.17307  20523846.53707  -9168265.03549  20523842.93249      3250.03100
  -3132902.14506  23018211.60706  -2416164.05647  23018208.17447      3980.15600
  -3701578.40207  19934083.99007  -2880924.94649  19934079.94349       698.53100
  -1442553.70805  23830173.81105  -1112285.93647  23830170.11947      2546.90600
 -10461979.55407  21237660.11507  -8135143.73848  21237654.52548      2605.15600
   -187574.20307  20921122.60007   -147796.92449  20921118.63549      -485.48400
 08 11 10 23 53 29.9980000  0  7  3  6 13 16 21 23 31
 -14247419.06307  21079276.24807 -11073393.11448  21079272.50648      4222.23400
 -11838112.16907  20514580.40407  -9206208.41449  20514576.76849      3242.51600
  -3192557.69906  23006859.95106  -2462648.89247  23006856.43647      3973.81300
  -3712023.40707  19932096.55307  -2889063.91349  19932092.20149       694.04700
  -1480719.24105  23822911.62305  -1142025.24447  23822907.23247      2541.76600
 -10500985.29807  21230237.22507  -8165537.84548  21230231.63948      2595.53100
   -180251.40007  20922516.27907   -142090.85349  20922511.56849      -490.96900
 08 11 10 23 53 44.9980000  0  7  3  6 13 16 21 23 31
 -14310710.31007  21067232.33407 -11122710.96648  21067229.03748      4216.60900
 -11886696.64507  20505334.91207  -9244066.44849  20505331.28749      3235.39100
  -3252119.50006  22995525.04506  -2509060.69347  22995522.82647      3967.76600
  -3722402.56007  19930121.74007  -2897151.56249  19930117.38949       689.81300
  -1518808.97705  23815663.90405  -1171705.55447  23815659.29547      2536.84400
 -10539848.87907  21222841.87307  -8195821.16848  21222836.35048      2586.29700
   -172848.39307  20923924.82607   -136322.27449  20923920.01849      -496.09400
 08 11 10 23 53 59.9980000  0  7  3  6 13 16 21 23 31
 -14373913.35307  21055205.06107 -11171960.08848  21055201.86948      4210.64100
 -11935171.02307  20496110.83407  -9281838.68849  20496107.12349      3228.03100
  -3311586.56206  22984209.18606  -2555398.64247  22984206.63547      3961.37500
  -3732715.56408  19928159.10708  -2905187.67049  19928154.49049       685.43800
  -1556822.20404  23808429.33404  -1201326.20747  23808425.45147      2531.78100
 -10578569.59207  21215473.65407  -8225993.15348  21215468.09248      2576.65600
   -165364.62407  20925348.97507   -130490.77449  20925344.66649      -501.59400
 08 11 10 23 54 14.9980000  0  7  3  6 13 16 21 23 31
 -14437026.30007  21043195.12307 -11221139.00348  21043192.76048      4204.68800
 -11983533.25107  20486907.74007  -9319523.54149  20486903.92449      3220.62500
  -3370956.93206  22972911.35706  -2601661.25547  22972908.18247      3954.92200
  -3742960.81507  19926209.12307  -2913170.98449  19926204.70149       680.98400
  -1594756.91405  23801210.92005  -1230885.69347  23801206.89647      2526.59400
 -10617145.59807  21208133.29507  -8256052.37848  21208127.14348      2567.09400
   -157798.29407  20926788.99807   -124594.93449  20926784.46749      -506.98400
 08 11 10 23 54 29.9980000  0  7  3  6 13 16 21 23 31
 -14500049.69807  21031202.45907 -11270248.12748  21031199.15848      4198.57800
 -12031784.32407  20477725.77907  -9357121.77549  20477722.58449      3213.04700
  -3430231.36706  22961631.75606  -2647849.12647  22961627.29547      3948.37500
  -3753139.51407  19924272.63907  -2921102.43649  19924267.92849       676.31300
  -1632613.82205  23794006.88105  -1260384.59347  23794002.83447      2521.21900
 -10655577.71307  21200819.96707  -8285999.47048  21200813.06448      2557.34400
   -150150.59207  20928244.38907   -118635.67549  20928240.34649      -512.56300
 08 11 10 23 54 44.9980000  0  7  3  6 13 16 21 23 31
 -14562981.61407  21019226.56107 -11319285.97048  21019223.18648      4192.29700
 -12079922.23907  20468565.60707  -9394631.84149  20468562.73649      3205.34400
  -3489407.73606  22950371.69306  -2693960.56947  22950366.42047      3941.76600
  -3763250.04307  19922348.73207  -2928980.77749  19922344.10749       671.71900
  -1670390.88205  23786818.77105  -1289821.24747  23786814.49847      2515.68800
 -10693863.95507  21193534.54507  -8315832.89148  21193527.15448      2547.46900
   -142419.69607  20929715.18607   -112611.60249  20929711.05349      -518.20300
 08 11 10 23 54 59.9980000  0  7  3  6 13 16 21 23 31
 -14625820.32407  21007268.76407 -11368251.20548  21007265.37748      4186.25000
 -12127945.16207  20459426.87307  -9432052.29149  20459423.69749      3197.78100
  -3548484.08906  22939129.04506  -2739994.06347  22939124.58047      3935.23400
  -3773290.81208  19920437.77108  -2936804.75849  19920432.93949       667.14100
  -1708086.17305  23779646.66205  -1319194.17947  23779640.39647      2510.37500
 -10732002.53907  21186276.63107  -8345551.26848  21186270.51848      2537.73400
   -134603.88206  20931202.57606   -106521.37749  20931198.68249      -523.78100
 08 11 10 23 55 14.9980000  0  7  3  6 13 16 21 23 31
 -14688570.08007  20995327.86507 -11417147.12248  20995324.90048      4180.51600
 -12175857.56207  20450309.56807  -9469386.63249  20450306.38549      3190.59400
  -3607464.70706  22927905.45106  -2785952.95847  22927901.32247      3929.06300
  -3783266.52407  19918539.52907  -2944578.04049  19918534.27949       663.06300
  -1745704.13205  23772485.51405  -1348506.85746  23772482.48246      2505.43800
 -10769997.69407  21179046.43607  -8375157.87448  21179040.91248      2528.37500
   -126707.91407  20932705.30307   -100368.68349  20932701.37349      -528.90600
 08 11 10 23 55 29.9980000  0  7  3  6 13 16 21 23 31
 -14751232.61907  20983403.51407 -11465975.07448  20983401.16648      4174.64100
 -12223661.38707  20441212.70907  -9506636.36849  20441209.86949      3183.26600
