     2.10           OBSERVATION DATA    G (GPS)             RINEX VERSION / TYPE
Pinnacle 1.00                           06-NOV-08 23:49     PGM / RUN BY / DATE
build April 19, 2002                                        COMMENT
-Unknown-           -Unknown-                               OBSERVER / AGENCY
         Begin Pinnacle project                             COMMENT
1105                                                        COMMENT
                                                            COMMENT
                                                            COMMENT
November 6, 2008 11:42:26 pm                                COMMENT
                                                            COMMENT
                                                            COMMENT
D:\2008-----\GPS\---\20081105\Pinnacle.dbd          COMMENT
         End Pinnacle project                               COMMENT
                                                            COMMENT
PA65                                                        MARKER NAME
PA65(Tail)(Head)                                            MARKER NUMBER
AF83006AI2O         TPS GB-1000         3.1 Jun,28,2007 p3  REC # / TYPE / VERS
-Unknown-           PG-A1           NONE                    ANT # / TYPE
 -3152285.2427  3978565.6686  3849583.4534                  APPROX POSITION XYZ
        1.4297        0.0000        0.0000                  ANTENNA: DELTA H/E/N
     1     1                                                WAVELENGTH FACT L1/2
     7    L1    L2    C1    P1    P2    D1    D2            # / TYPES OF OBSERV
    30.000                                                  INTERVAL
  2008    11     5     0    40    0.0000000     GPS         TIME OF FIRST OBS
  2008    11     5     2    40    0.0000000     GPS         TIME OF LAST OBS
    11                                                      # OF SATELLITES
   G 3   241   241   241   241   241   241   241            PRN / # OF OBS
   G 6   241   241   241   241   241   241   241            PRN / # OF OBS
   G 7   133   133   133   133   133   133   133            PRN / # OF OBS
   G13   241   241   241   241   241   241   241            PRN / # OF OBS
   G16   241   241   241   241   241   241   241            PRN / # OF OBS
   G19   241   241   241   241   241   241   241            PRN / # OF OBS
   G21   186   186   186   186   186   186   186            PRN / # OF OBS
   G23   241   241   241   241   241   241   241            PRN / # OF OBS
   G25   235   235   235   235   235   235   235            PRN / # OF OBS
   G27    86    86    86    86    86    86    86            PRN / # OF OBS
   G31   140   137   140   137   137   140   137            PRN / # OF OBS
SE TPS f47e5280                                             COMMENT
                                                            END OF HEADER
 08 11  5  0 40  0.0000000  0  8G16G 6G31G 3G23G13G21G19            
 108662315.023    84671932.9614   20677747.561 8  20677747.04546  20677749.91546
      -648.237        -505.122  
 108946611.833    84893465.7014   20731847.691 8  20731847.41546  20731851.34846
      1552.651        1209.856  
 115353464.775    89885817.5684   21951031.260 7  21951031.85544  21951034.72445
     -2051.698       -1598.726  
 110724730.125    86279019.0754   21070214.262 8  21070213.70046  21070218.12146
      2625.283        2045.676  
 113805610.044    88679701.3714   21656485.593 8  21656485.45845  21656486.45545
       583.142         454.399  
 121087835.107    94354165.6084   23042246.304 6  23042245.98944  23042250.18644
      2229.476        1737.251  
 126381837.436    98479354.4914   24049662.245 6  24049661.97343  24049665.03443
       994.382         774.850  
 124843613.319    97280742.3094   23756946.549 6  23756945.06044  23756949.31044
      3700.668        2883.637  
 08 11  5  0 40 30.0000000  0  8G16G 6G31G 3G23G13G21G19            
 108682145.094    84687384.9604   20681521.099 8  20681520.70746  20681523.65746
      -673.615        -524.894  
 108900541.924    84857567.0654   20723080.890 8  20723080.70946  20723084.90546
      1518.798        1183.484  
 115415447.216    89934115.5544   21962826.511 7  21962826.84145  21962829.87945
     -2080.314       -1621.029  
 110646455.865    86218026.1434   21055319.046 8  21055318.54246  21055323.19746
      2593.147        2020.635  
 113788695.666    88666521.3234   21653266.961 7  21653266.69045  21653267.68245
       544.619         424.388  
 121021468.230    94302451.1644   23029617.141 7  23029616.89244  23029621.12044
      2195.104        1710.471  
 126352473.540    98456473.5204   24044074.633 7  24044074.12843  24044077.85543
       963.345         750.652  
 124732943.235    97194505.8964   23735886.742 7  23735885.69944  23735889.39344
      3677.459        2865.565  
 08 11  5  0 41  0.0000000  0  8G16G 6G31G 3G23G13G21G19            
 108702675.535    84703382.7044   20685427.842 7  20685427.13746  20685430.45146
      -694.509        -541.184  
 108855428.738    84822413.9374   20714496.149 8  20714495.93446  20714500.60746
      1489.306        1160.502  
 115478227.905    89983035.5374   21974773.206 7  21974773.49245  21974776.92045
     -2104.490       -1639.866  
 110569086.091    86157738.0054   21040596.079 7  21040595.37846  21040600.15446
      2565.396        1999.007  
 113772876.980    88654195.0654   21650256.590 8  21650256.48645  21650257.62345
       510.510         397.801  
 120956073.000    94251493.8384   23017172.755 7  23017172.47644  23017177.05844
      2165.126        1687.094  
 126323981.396    98434271.8654   24038652.161 6  24038651.71343  24038656.43643
       936.678         729.873  
 124622910.443    97108766.0944   23714947.706 6  23714946.49044  23714950.85944
      3658.608        2850.869  
 08 11  5  0 41 30.0000000  0  8G16G 6G31G 3G23G13G21G19            
 108723840.532    84719874.9074   20689455.369 8  20689454.87946  20689457.93846
      -715.553        -557.574  
 108811208.057    84787956.2694   20706081.321 8  20706080.80246  20706085.31846
      1459.659        1137.395  
 115541741.458    90032526.5964   21986859.537 7  21986859.69844  21986863.01744
     -2128.804       -1658.807  
 110492557.467    86098105.3214   21026032.908 8  21026032.36246  21026037.38646
      2537.428        1977.212  
 113758089.671    88642672.4734   21647442.687 7  21647442.61345  21647443.73245
       476.237         371.095  
 120891586.452    94201244.5784   23004902.227 7  23004902.31844  23004905.63644
      2134.902        1663.555  
 126296297.601    98412700.1054   24033384.177 6  24033383.91543  24033387.36343
       909.809         708.940  
 124513452.202    97023473.9834   23694118.744 7  23694118.10944  23694121.97544
      3639.509        2835.979  
 08 11  5  0 42  0.0000000  0  8G16G 6G31G 3G23G13G21G19            
 108745549.935    84736791.3214   20693586.992 8  20693586.33546  20693589.57146
      -731.411        -569.932  
 108767790.977    84754124.7694   20697819.142 8  20697818.77046  20697823.16446
      1435.095        1118.255  
 115605897.909    90082518.6104   21999068.369 7  21999068.27044  21999071.72544
     -2147.971       -1673.742  
 110416782.172    86039059.6394   21011613.403 8  21011612.81046  21011617.72546
      2514.573        1959.404  
 113744244.284    88631883.8484   21644808.127 7  21644807.78245  21644809.15545
       447.103         348.390  
 120827920.685    94151634.8854   22992787.121 7  22992786.64544  22992790.23344
      2109.777        1643.983  
 126269334.351    98391689.7844   24028253.060 6  24028252.10543  24028257.17843
       888.054         691.990  
 124404481.520    96938561.7814   23673382.898 7  23673381.82844  23673384.83944
      3625.499        2825.066  
 08 11  5  0 42 30.0000000  0  8G16G 6G31G 3G23G13G21G19            
 108767718.145    84754065.2474   20697805.238 8  20697804.68346  20697807.95446
      -746.187        -581.442  
 108725093.821    84720854.2554   20689694.227 8  20689693.88646  20689699.09246
      1411.642        1099.983  
 115670612.145    90132945.2474   22011382.389 7  22011382.67044  22011386.50044
     -2166.046       -1687.817  
 110341677.381    85980536.4344   20997321.336 8  20997320.96446  20997325.72746
      2492.694        1942.361  
 113731256.672    88621763.6144   21642336.423 7  21642336.40345  21642337.87445
       419.016         326.512  
 120764994.081    94102601.1644   22980812.426 7  22980812.51944  22980815.63444
      2085.607        1625.150  
 126243008.960    98371176.4984   24023243.465 6  24023242.77943  24023247.99343
       867.261         675.788  
 124295915.934    96853965.2274   23652723.375 7  23652722.42844  23652725.76244
      3612.482        2814.919  
 08 11  5  0 43  0.0000000  0  9G16G 6G31G 3G23G13G21G19G25         
 108790304.174    84771664.7454   20702103.020 8  20702102.31446  20702105.78346
      -758.657        -591.159  
 108683076.908    84688113.8104   20681698.795 8  20681698.30846  20681703.21246
      1390.372        1083.405  
 115735843.662    90183774.9814   22023796.069 7  22023796.00644  22023799.94144
     -2181.835       -1700.132  
 110267204.469    85922505.5964   20983149.586 8  20983149.19246  20983154.20446
      2473.031        1927.044  
 113719087.058    88612280.7814   21640020.639 7  21640020.65545  21640022.43245
       393.190         306.384  
 120702768.215    94054113.4714   22968971.047 7  22968970.72844  22968974.39444
      2063.670        1608.053  
 126217282.568    98351129.9714   24018347.773 6  24018347.00843  24018350.83043
       848.676         661.319  
 124187717.308    96769654.6244   23632134.042 7  23632133.32844  23632135.95144
      3601.638        2806.466  
 128775529.492   100344568.5224   24505165.802 6  24505164.67342  24505170.61742
      3049.738        2376.432  
 08 11  5  0 43 30.0000000  0  9G16G 6G31G 3G23G13G21G19G25         
 108813208.383    84789512.1764   20706461.645 8  20706460.90846  20706464.30446
      -768.165        -598.567  
 108641642.260    84655827.0744   20673813.913 8  20673813.62246  20673818.40146
      1372.048        1069.126  
 115801493.279    90234930.5094   22036288.686 7  22036288.37344  22036292.34244
     -2194.667       -1710.139  
 110193266.763    85864891.8114   20969079.815 8  20969079.36446  20969084.33446
      2456.255        1913.961  
 113707636.912    88603358.5804   21637841.468 7  21637841.62345  21637843.54545
       370.273         288.529  
 120641146.586    94006096.6284   22957244.502 6  22957244.42944  22957248.34244
      2044.557        1593.160  
 126192058.502    98331474.8474   24013548.495 6  24013548.34843  24013551.53743
       833.023         649.119  
 124079789.631    96685555.1284   23611595.963 7  23611594.82944  23611597.90244
      3593.644        2800.247  
 128684080.160   100273309.3194   24487764.363 6  24487763.66843  24487769.13443
      3046.970        2374.258  
 08 11  5  0 44  0.0000000  0  9G16G 6G31G 3G23G13G21G19G25         
 108836396.605    84807580.9224   20710874.311 8  20710873.89646  20710877.08746
      -776.616        -605.151  
 108600757.288    84623968.6524   20666033.965 8  20666033.73846  20666038.15546
      1354.722        1055.629  
 115867527.258    90286385.5374   22048854.290 6  22048854.18244  22048858.49244
     -2206.488       -1719.342  
 110119832.307    85807670.1644   20955105.713 8  20955105.00546  20955110.39446
      2440.464        1901.661  
 113696873.447    88594971.4484   21635793.352 7  21635792.91945  21635794.74745
       348.383         271.469  
 120580098.430    93958526.6414   22945627.515 7  22945627.26844  22945631.31844
      2026.404        1579.011  
 126167304.577    98312186.0704   24008838.061 6  24008837.03843  24008841.09843
       818.344         637.683  
 123972101.741    96601642.4964   23591104.069 7  23591102.82544  23591106.31944
      3586.615        2794.766  
 128592714.357   100202115.2084   24470377.543 6  24470378.36243  24470381.65643
      3045.178        2372.862  
 08 11  5  0 44 30.0000000  0  9G16G 6G31G 3G23G13G21G19G25         
 108859789.752    84825809.3504   20715325.735 7  20715325.11646  20715328.58146
      -782.816        -609.984  
 108560344.162    84592477.9034   20658343.799 8  20658343.40746  20658347.73246
      1339.590        1043.837  
 115933866.558    90338078.4814   22061478.378 6  22061478.38444  22061482.17144
     -2216.037       -1726.778  
 110046824.519    85750780.9904   20941213.040 8  20941212.36746  20941217.26246
      2426.824        1891.039  
 113686718.428    88587058.4384   21633860.926 7  21633860.22745  21633862.82445
       328.724         256.155  
 120519547.520    93911344.1254   22934105.592 7  22934105.68444  22934109.17544
      2010.423        1566.570  
 126142944.022    98293203.8344   24004202.144 6  24004201.31643  24004204.69343
       805.794         627.904  
 123864577.332    96517857.2454   23570642.430 7  23570641.01044  23570643.00444
      3581.766        2790.997  
 128501355.142   100130926.2394   24452992.464 6  24452991.30343  24452997.88443
      3045.552        2373.148  
 08 11  5  0 45  0.0000000  0  9G16G 6G31G 3G23G13G21G19G25         
 108883393.017    84844201.5004   20719816.915 8  20719816.61646  20719820.07446
      -790.372        -615.873  
 108520409.389    84561359.9024   20650744.237 8  20650743.74946  20650748.17846
      1323.087        1030.973  
 116000516.654    90390013.5994   22074161.398 7  22074161.29744  22074165.56644
     -2226.953       -1735.298  
 109974250.751    85694230.0054   20927402.848 8  20927402.21046  20927406.96046
      2411.753        1879.292  
 113677177.817    88579624.1794   21632045.328 7  21632045.02145  21632047.37745
       307.682         239.754  
 120459501.019    93864554.6344   22922679.070 7  22922678.60444  22922682.25044
      1993.030        1553.005  
 126118984.371    98274533.9794   23999642.215 6  23999642.22643  23999645.71543
       791.837         617.009  
 123757224.670    96434205.8144   23550213.984 6  23550212.64744  23550215.45944
      3575.403        2786.032  
 128410010.033   100059748.2474   24435610.997 7  24435611.36243  24435615.78043
      3044.482        2372.323  
 08 11  5  0 45 30.0000000  0  9G16G 6G31G 3G23G13G21G19G25         
 108907200.125    84862752.4844   20724347.376 8  20724346.85246  20724350.34246
      -796.801        -620.878  
 108480948.401    84530611.0744   20643235.123 8  20643234.75146  20643239.10746
      1307.624        1018.928  
 116067472.234    90442186.7474   22086902.436 7  22086902.83544  22086906.17644
     -2236.761       -1742.929  
 109902107.656    85638014.6124   20913674.424 8  20913673.77846  20913678.33746
      2397.743        1868.372  
 113668246.852    88572664.9744   21630346.016 7  21630345.68245  21630347.56045
       287.698         224.184  
 120399956.399    93818156.2204   22911347.744 7  22911347.60844  22911351.59444
      1976.604        1540.213  
 126095422.200    98256173.8374   23995159.349 6  23995158.60343  23995162.40843
       778.925         606.950  
 123650041.067    96350686.1364   23529817.125 6  23529815.93944  23529819.19944
      3570.108        2781.904  
 128318675.407    99988578.4184   24418230.995 7  24418231.00143  24418233.27343
      3044.472        2372.318  
 08 11  5  0 46  0.0000000  0  9G16G 6G31G 3G23G13G21G19G25         
 108931166.458    84881427.5514   20728907.794 8  20728907.46746  20728910.85046
      -801.609        -624.635  
 108441917.647    84500197.5054   20635807.608 8  20635807.44346  20635811.77546
      1293.753        1008.120  
 116134688.338    90494562.9174   22099693.659 7  22099693.59544  22099697.11044
     -2244.982       -1749.340  
 109830352.288    85582101.3394   20900019.756 8  20900019.18246  20900023.74546
      2385.274        1858.652  
 113659881.686    88566146.6534   21628754.226 7  21628753.66845  21628755.54745
       269.320         209.864  
 120340872.203    93772116.5894   22900104.578 7  22900104.72444  22900107.62744
      1961.670        1528.571  
 126072215.028    98238090.3274   23990742.679 6  23990742.16543  23990745.50743
       767.550         598.088  
 123542984.559    96267265.4764   23509444.636 6  23509443.52444  23509447.25744
      3566.308        2778.942  
 128227308.762    99917383.6364   24400844.946 7  24400844.58943  24400847.37743
      3045.976        2373.493  
 08 11  5  0 46 30.0000000  0  9G16G 6G31G 3G23G13G21G19G25         
 108955276.851    84900214.8654   20733496.046 8  20733495.45146  20733499.00446
      -806.180        -628.185  
 108403303.604    84470108.6364   20628459.862 8  20628459.32546  20628463.23846
      1280.112         997.488  
 116202150.491    90547130.8154   22112531.098 7  22112531.60344  22112534.79344
     -2252.933       -1755.541  
 109758972.130    85526480.4404   20886436.749 8  20886436.23246  20886440.35346
      2372.966        1849.064  
 113652068.165    88560058.1894   21627267.556 7  21627267.35045  21627268.67545
       251.158         195.704  
 120282235.864    93726425.9164   22888945.639 6  22888945.96444  22888949.98544
      1946.967        1517.107  
 126049349.707    98220273.2024   23986391.805 7  23986391.53843  23986395.00743
       756.334         589.341  
 123436043.254    96183934.6154   23489095.138 7  23489093.92344  23489096.46044
      3562.678        2776.100  
 128135897.535    99846154.1464   24383449.140 6  24383448.68743  24383452.87943
      3047.659        2374.778  
 08 11  5  0 47  0.0000000  0  9G16G 6G31G 3G23G13G21G19G25         
 108979506.076    84919094.7744   20738106.796 8  20738106.28846  20738109.53246
      -810.021        -631.183  
 108365082.396    84440325.8734   20621186.855 8  20621186.61346  20621190.62446
      1267.061         987.322  
 116269833.746    90599870.9914   22125411.012 6  22125411.29144  22125414.58044
     -2260.219       -1761.212  
 109687944.381    85471134.1454   20872920.317 8  20872919.96546  20872924.14746
      2361.282        1839.963  
 113644781.940    88554380.6004   21625880.996 7  21625880.62245  21625882.36345
       233.673         182.084  
 120224025.110    93681066.8834   22877868.780 6  22877868.99944  22877872.68444
      1932.840        1506.107  
 126026803.923    98202705.0624   23982101.295 6  23982101.07143  23982104.83743
       745.782         581.136  
 123329194.855    96100676.1334   23468762.614 7  23468761.39844  23468764.02844
      3559.631        2773.731  
 128044418.813    99774872.0514   24366041.738 6  24366042.12343  24366043.87043
      3049.994        2376.616  
 08 11  5  0 47 30.0000000  0  9G16G 6G31G 3G23G13G21G19G25         
 109003867.020    84938077.3224   20742742.712 8  20742742.19246  20742745.26346
      -814.546        -634.704  
 108327268.170    84410860.2514   20613990.559 8  20613990.10746  20613994.86346
      1253.361         976.648  
 116337751.397    90652793.8004   22138334.616 6  22138334.98344  22138338.70944
     -2268.159       -1767.398  
 109617284.381    85416074.4064   20859474.268 8  20859473.86846  20859478.18446
      2348.859        1830.279  
 113638036.846    88549124.6744   21624597.362 7  21624596.97145  21624598.70245
       215.498         167.920  
 120166255.894    93636051.9014   22866875.211 7  22866875.35444  22866879.36143
      1917.929        1494.488  
 126004592.742    98185397.6454   23977875.410 6  23977874.98543  23977877.61643
       734.456         572.291  
 123222455.424    96017502.5724   23448450.279 7  23448449.32444  23448452.23144
      3555.812        2770.761  
 127952887.837    99703549.2294   24348623.310 7  24348623.16143  24348627.19843
      3051.560        2377.835  
 08 11  5  0 48  0.0000000  0  9G16G 6G31G 3G23G13G21G19G25         
 109028356.836    84957160.2874   20747402.878 8  20747402.13746  20747405.65846
      -817.711        -637.176  
 108289859.529    84381710.6594   20606871.840 8  20606871.64646  20606876.14846
      1240.945         966.970  
 116405900.586    90705897.0454   22151302.569 6  22151302.83044  22151307.10543
     -2274.739       -1772.529  
 109546991.642    85361300.8534   20846097.905 8  20846097.35246  20846102.14746
      2337.692        1821.577  
 113631830.953    88544288.9044   21623416.887 8  21623416.33345  21623417.39345
       198.634         154.778  
 120108927.972    93591380.7974   22855966.709 7  22855967.13144  22855970.78644
      1904.299        1483.861  
 125982715.491    98168350.4014   23973712.339 6  23973710.71043  23973714.23543
       724.402         564.485  
 123115825.423    95934414.2884   23428159.777 6  23428158.72244  23428161.70444
      3553.222        2768.740  
 127861304.297    99632185.4784   24331196.053 7  24331195.19243  24331199.02643
      3054.389        2380.040  
 08 11  5  0 48 30.0000000  0  9G16G 6G31G 3G23G13G21G19G25         
 109052953.735    84976326.7024   20752083.164 8  20752082.86646  20752086.36346
      -821.932        -640.468  
 108252835.873    84352861.0664   20599826.356 8  20599826.07546  20599830.96646
      1227.444         956.454  
 116474260.039    90759164.1124   22164311.068 6  22164310.86543  22164315.51643
     -2282.399       -1778.495  
 109477046.581    85306798.2164   20832787.705 8  20832786.94346  20832792.03746
      2325.440        1812.027  
 113626143.317    88539856.9704   21622334.500 8  21622333.97145  21622335.14045
       180.704         140.804  
 120052021.651    93547038.2024   22845137.899 6  22845137.69443  22845141.05744
      1889.559        1472.397  
 125961152.715    98151548.2354   23969608.667 6  23969608.09543  23969612.06143
       713.244         555.767  
 123009285.875    95851396.5094   23407886.258 7  23407884.73544  23407887.36244
      3549.524        2765.862  
 127769648.648    99560765.5254   24313754.299 7  24313754.63943  24313759.09743
      3056.117        2381.393  
 08 11  5  0 49  0.0000000  0  9G16G 6G31G 3G23G13G21G19G25         
 109077669.329    84995585.6074   20756786.879 8  20756786.18446  20756789.37646
      -826.395        -643.943  
 108216209.860    84324321.3164   20592857.021 8  20592856.66346  20592861.61446
      1213.659         945.707  
 116542841.396    90812604.0984   22177361.376 6  22177362.76943  22177365.88143
     -2290.321       -1784.658  
 109407462.854    85252577.1324   20819546.496 8  20819545.83946  20819550.78846
      2312.856        1802.227  
 113620986.122    88535838.3604   21621353.064 8  21621352.59845  21621353.62445
       162.515         126.636  
 119995552.022    93503035.8934   22834392.332 6  22834391.82244  22834395.61944
      1874.451        1460.616  
 125939917.941    98135001.6354   23965567.495 7  23965567.39443  23965570.18043
       701.780         546.844  
 122902851.092    95768460.3494   23387631.889 7  23387630.48544  23387633.57544
      3545.479        2762.702  
 127677934.869    99489300.2724   24296302.442 7  24296301.78443  24296305.03444
      3057.497        2382.463  
 08 11  5  0 49 30.0000000  0  9G16G 6G31G 3G23G13G21G19G25         
 109102516.883    85014947.3314   20761514.876 8  20761514.27846  20761517.65346
      -829.928        -646.697  
 108179995.983    84296102.7244   20585966.072 8  20585965.74046  20585970.06346
      1200.771         935.667  
 116611658.086    90866227.4634   22190457.388 6  22190457.70143  22190461.50043
     -2297.272       -1790.075  
 109338255.941    85198649.6794   20806376.670 8  20806376.05346  20806381.51146
      2301.117        1793.077  
 113616373.196    88532243.8654   21620474.893 8  21620474.71945  21620475.89145
       145.193         113.137  
 119939535.355    93459386.5314   22823732.347 7  22823732.87343  22823735.81743
      1860.157        1449.475  
 125919026.393    98118722.5054   23961592.190 7  23961591.48843  23961595.20343
       691.153         538.548  
 122796537.563    95685618.6784   23367401.605 7  23367400.57944  23367403.21144
      3542.236        2760.192  
 127586178.550    99417801.8464   24278841.211 7  24278840.79343  24278844.00743
      3059.744        2384.214  
 08 11  5  0 50  0.0000000  0  9G16G 6G31G 3G23G13G21G19G25         
 109127472.952    85034393.6214   20766264.122 8  20766263.48746  20766266.93446
      -833.651        -649.603  
 108144172.204    84268188.1004   20579148.828 8  20579148.30246  20579153.08146
      1187.628         925.425  
 116680686.793    90920016.0474   22203593.065 6  22203593.24843  22203597.38043
     -2304.460       -1795.679  
 109269404.743    85144999.4114   20793274.696 8  20793274.16046  20793279.23046
      2289.134        1783.738  
 113612282.269    88529056.1214   21619696.820 8  21619696.34545  21619697.37145
       127.703          99.508  
 119883950.452    93416073.6384   22813155.139 7  22813155.06543  22813157.68543
      1845.626        1438.154  
 125898457.722    98102694.9684   23957677.986 7  23957677.59643  23957680.20743
       680.227         530.052  
 122690324.956    95602855.6524   23347189.848 7  23347188.77244  23347191.47244
      3538.736        2757.453  
 127494358.872    99346254.0714   24261368.004 6  24261367.63243  24261371.34643
      3061.722        2385.740  
 08 11  5  0 50 30.0000000  0  9G16G 6G31G 3G23G13G21G19G25         
 109152539.037    85053925.6304   20771034.292 7  20771033.61146  20771036.49746
      -837.363        -652.484  
 108108741.071    84240579.4414   20572406.429 8  20572405.93946  20572411.03246
      1174.473         915.168  
 116749929.284    90973971.2004   22216770.377 6  22216770.21644  22216773.92344
     -2311.642       -1801.273  
 109200912.999    85091629.2364   20780241.283 8  20780240.85546  20780245.51446
      2277.050        1774.320  
 113608715.259    88526276.6234   21619017.716 7  21619017.26545  21619018.71145
       110.173          85.847  
 119828801.374    93373100.3424   22802660.607 7  22802660.64443  22802663.24043
      1831.022        1426.767  
 125878215.380    98086921.7134   23953826.541 7  23953826.06843  23953829.10443
       669.314         521.558  
 122584217.694    95520174.7184   23326997.962 7  23326997.16444  23327000.38044
      3535.134        2754.639  
 127402479.592    99274659.8614   24243884.806 7  24243885.28743  24243887.05943
      3063.635        2387.237  
 08 11  5  0 51  0.0000000  0  9G16G 6G31G 3G23G13G21G19G25         
 109177716.677    85073544.5734   20775825.385 8  20775824.82446  20775827.55446
      -840.491        -654.925  
 108073705.581    84213279.0584   20565739.202 7  20565738.65446  20565743.31646
      1161.839         905.336  
 116819387.704    91028094.6194   22229987.477 6  22229987.62944  22229990.47944
     -2318.269       -1806.428  
 109132784.740    85038542.2784   20767276.872 8  20767276.27146  20767281.05746
      2265.469        1765.299  
 113605674.652    88523907.2994   21618439.420 7  21618438.89145  21618440.30845
        93.181          72.616  
 119774093.298    93330470.6674   22792249.736 6  22792249.70543  22792253.19443
      1816.851        1415.732  
 125858302.988    98071405.5664   23950036.789 7  23950036.59543  23950039.36143
       658.831         513.371  
 122478220.495    95437579.5584   23306827.663 7  23306826.98345  23306829.63345
      3531.981        2752.191  
 127310545.090    99203022.5824   24226389.742 7  24226389.43543  24226391.69143
      3065.989        2389.082  
 08 11  5  0 51 30.0000000  0  9G16G 6G31G 3G23G13G21G19G25         
 109202997.193    85093243.6794   20780636.187 8  20780635.61646  20780638.22846
      -845.458        -658.799  
 108039058.048    84186280.9914   20559145.959 8  20559145.52946  20559150.53146
      1147.400         894.078  
 116889053.120    91082379.3494   22243244.501 6  22243245.00644  22243247.71543
     -2326.692       -1813.003  
 109065013.267    84985733.3454   20754380.682 8  20754380.12546  20754384.39046
      2252.032        1754.832  
 113603152.343    88521941.8594   21617959.204 7  21617958.58845  21617960.41345
        74.377          57.955  
 119719819.589    93288179.4844   22781921.421 7  22781921.27943  22781925.22143
      1800.784        1403.217  
 125838713.819    98056141.2894   23946309.296 6  23946308.14443  23946311.94843
       646.493         503.765  
 122372327.573    95355065.6354   23286676.714 7  23286675.90345  23286678.61845
      3526.936        2748.258  
 127218548.632    99131337.0594   24208882.743 6  24208882.23943  24208884.70143
      3066.496        2389.477  
 08 11  5  0 52  0.0000000  0  9G16G 6G31G 3G23G13G21G19G25         
 109228398.094    85113036.5844   20785469.572 8  20785468.94446  20785472.11246
      -848.928        -661.503  
 108004817.223    84159599.8454   20552630.469 8  20552630.12346  20552634.62746
      1134.370         883.923  
 116958943.341    91136839.2364   22256544.513 6  22256544.73544  22256547.94344
     -2333.629       -1818.413  
 108997618.214    84933217.7214   20741555.506 8  20741554.88246  20741559.59446
      2239.974        1745.430  
 113601166.641    88520394.5364   21617581.508 8  21617580.97845  21617582.77545
        57.011          44.424  
 119666000.430    93246242.4864   22771679.843 6  22771680.10043  22771682.86943
      1786.162        1391.818  
 125819467.816    98041144.4274   23942646.721 7  23942647.21743  23942649.21143
       635.563         495.236  
 122266559.637    95272649.1064   23266549.412 7  23266548.60244  23266551.44644
      3523.259        2745.387  
 127126510.555    99059619.1014   24191369.332 7  24191369.72743  24191372.08543
      3068.379        2390.935  
 08 11  5  0 52 30.0000000  0  9G16G 6G31G 3G23G13G21G19G25         
 109253923.432    85132926.4604   20790326.575 7  20790325.81246  20790329.54446
      -853.907        -665.380  
 107970987.944    84133239.3794   20546192.909 8  20546192.65146  20546196.53946
      1119.814         872.584  
 117029062.434    91191477.4704   22269887.972 6  22269887.69244  22269891.11244
     -2342.125       -1825.021  
 108930605.540    84881000.0604   20728803.640 8  20728803.23446  20728807.53246
      2226.368        1734.834  
 113599721.620    88519268.5324   21617306.372 7  21617305.92145  21617307.70945
        38.170          29.744  
 119612641.961    93204664.4634   22761526.641 7  22761526.50643  22761529.60643
      1769.914        1379.147  
 125800570.821    98026419.4924   23939050.682 6  23939049.84243  23939052.41143
       623.096         485.516  
 122160923.509    95190335.2804   23246447.796 7  23246447.04545  23246449.74845
      3518.000        2741.304  
 127034436.990    98987873.5014   24173847.589 6  24173847.69843  24173850.97343
      3068.693        2391.175  
 08 11  5  0 53  0.0000000  0  9G16G 6G31G 3G23G13G21G19G25         
 109279595.429    85152930.6024   20795211.968 8  20795211.38746  20795214.95546
      -858.204        -668.731  
 107937593.576    84107217.7974   20539838.131 8  20539838.03946  20539842.16046
      1105.851         861.705  
 117099432.737    91246311.4564   22283279.293 6  22283278.54244  22283282.65044
     -2349.891       -1831.089  
 108863999.884    84829099.5524   20716129.065 8  20716128.61246  20716132.72346
      2213.339        1724.686  
 113598840.088    88518581.6084   21617138.385 7  21617137.72145  21617140.11845
        19.928          15.525  
 119559769.966    93163465.5104   22751465.241 7  22751464.97043  22751468.18143
      1754.231        1366.938  
 125782047.196    98011985.5134   23935526.198 6  23935524.89543  23935528.70643
       611.163         476.229  
 122055444.111    95108143.5924   23226375.260 6  23226374.12444  23226377.46844
      3513.290        2737.623  
 126942352.644    98916119.5064   24156323.571 6  24156323.05243  24156328.96243
      3069.588        2391.883  
 08 11  5  0 53 30.0000000  0  9G16G 6G31G 3G23G13G21G19G25         
 109305417.812    85173051.9344   20800125.807 8  20800125.42646  20800128.53446
      -863.270        -672.679  
 107904639.004    84081538.9204   20533566.883 8  20533566.45446  20533571.10446
      1091.126         850.222  
 117170057.908    91301344.0344   22296717.690 6  22296717.85244  22296721.80644
     -2358.440       -1837.743  
 108797807.059    84777520.7374   20703533.021 8  20703532.26546  20703536.74646
      2199.508        1713.902  
 113598526.731    88518337.4164   21617078.889 7  21617078.25345  21617080.22045
         0.954           0.739  
 119507390.321    93122650.2134   22741497.584 7  22741497.50543  22741500.63844
      1737.737        1354.061  
 125763902.735    97997847.0004   23932073.264 6  23932072.24243  23932075.47343
       598.451         466.319  
 121950128.458    95026079.4924   23206334.398 6  23206332.85644  23206336.68744
      3507.741        2733.304  
 126850263.750    98844361.9654   24138800.561 7  24138800.13343  24138803.96643
      3069.661        2391.948  
 08 11  5  0 54  0.0000000  0  9G16G 6G31G 3G23G13G21G19G25         
 109331381.080    85193283.0444   20805066.628 8  20805066.05346  20805069.35846
      -867.070        -675.639  
 107872115.660    84056196.0554   20527377.943 8  20527377.38746  20527382.03846
      1077.607         839.700  
 117240929.103    91356568.3124   22310204.910 6  22310204.18444  22310208.39844
     -2365.752       -1843.437  
 108732019.379    84726257.6084   20691014.088 8  20691013.42846  20691017.75346
      2186.871        1704.058  
 113598772.504    88518528.9024   21617125.614 7  21617124.97545  21617127.21145
       -16.786         -13.074  
 119455495.463    93082212.6594   22731622.325 7  22731622.59144  22731625.86044
      1722.436        1342.164  
 125746130.012    97983998.1704   23928690.985 6  23928690.10743  23928693.64743
       586.920         457.332  
 121844969.693    94944137.6374   23186323.320 7  23186322.55344  23186325.47444
      3503.365        2729.901  
 126758163.255    98772595.3254   24121274.764 7  24121274.69343  24121276.86443
      3070.880        2392.921  
 08 11  5  0 54 30.0000000  0  9G16G 6G31G 3G23G13G21G19G25         
 109357480.030    85213619.8894   20810033.189 8  20810032.78246  20810035.97446
      -873.497        -680.656  
 107840019.263    84031185.8854   20521270.004 8  20521269.75046  20521274.29546
      1061.479         827.127  
 117312040.503    91411979.7764   22323736.596 6  22323736.62544  22323740.74144
     -2375.653       -1851.158  
 108666633.575    84675307.6364   20678571.410 8  20678570.92546  20678575.44546
      2171.535        1692.106  
 113599571.808    88519151.7274   21617278.113 7  21617277.61745  21617279.23745
       -37.144         -28.946  
 119404083.116    93042151.0954   22721838.789 7  22721838.89544  22721842.40244
      1704.387        1328.101  
 125728725.648    97970436.3264   23925378.682 7  23925378.66543  23925381.17043
       572.697         446.260  
 121739965.494    94862316.2134   23166341.878 7  23166340.84344  23166343.97944
      3496.261        2724.360  
 126666048.182    98700817.3944   24103744.805 6  24103744.55943  24103748.98943
      3069.450        2391.781  
 08 11  5  0 55  0.0000000  0  9G16G 6G31G 3G23G13G21G19G25         
 109383723.400    85234069.2594   20815027.087 8  20815026.60846  20815029.74046
      -877.163        -683.508  
 107808359.800    84006516.1874   20515245.416 8  20515245.01846  20515249.90246
      1048.042         816.657  
 117383401.281    91467585.5434   22337315.951 6  22337316.22744  22337320.09844
     -2382.830       -1856.748  
 108601660.787    84624679.4934   20666207.510 8  20666206.90146  20666211.65546
      2158.875        1682.239  
 113600934.429    88520213.4934   21617537.243 7  21617536.55645  21617538.54945
       -54.793         -42.696  
 119353165.451    93002474.9864   22712150.204 7  22712150.09344  22712153.22544
      1688.997        1316.099  
 125711700.502    97957169.9864   23922139.197 6  23922138.80343  23922141.90243
       561.183         437.281  
 121635127.876    94780624.5994   23146391.889 7  23146390.90345  23146394.21645
      3491.779        2720.863  
 126573930.092    98629037.0874   24086215.333 6  24086215.68643  24086219.77043
      3070.640        2392.713  
 08 11  5  0 55 30.0000000  0  9G16G 6G31G 3G23G13G21G19G25         
 109410100.559    85254622.8834   20820046.414 8  20820046.28146  20820049.48646
      -881.519        -686.893  
 107777127.550    83982179.3784   20509302.210 8  20509302.15346  20509306.54946
      1033.896         805.630  
 117455000.829    91523377.3874   22350940.948 7  22350941.27644  22350945.18944
     -2390.674       -1862.863  
 108537092.435    84574366.4974   20653920.609 8  20653920.07746  20653924.35946
      2145.456        1671.786  
 113602850.198    88521706.2944   21617901.825 8  21617901.85545  21617902.55345
       -73.128         -56.985  
 119302733.675    92963177.4994   22702552.523 7  22702552.12444  22702556.50744
      1672.873        1303.545  
 125695046.072    97944192.5284   23918969.386 6  23918968.90543  23918972.52043
       548.904         427.717  
 121530449.312    94699056.9214   23126472.179 7  23126471.19645  23126474.34145
      3486.551        2716.797  
 126481800.770    98557248.0294   24068684.804 7  24068685.05943  24068687.81143
      3071.083        2393.046  
 08 11  5  0 56  0.0000000  0  9G16G 6G31G 3G23G13G21G19G25         
 109436627.623    85275293.3114   20825094.380 8  20825093.85546  20825097.33046
      -886.809        -691.018  
 107746339.487    83958188.6854   20503443.223 8  20503442.75946  20503447.70546
      1018.790         793.859  
 117526855.185    91579367.7774   22364614.487 7  22364614.86844  22364619.09544
     -2399.471       -1869.721  
 108472946.764    84524382.8574   20641714.140 8  20641713.67146  20641717.90946
      2131.068        1660.573  
 113605335.427    88523642.8254   21618374.873 8  21618374.48645  21618375.56245
       -92.401         -72.003  
 119252805.611    92924272.5224   22693051.762 7  22693051.56644  22693055.16044
      1655.778        1290.207  
 125678780.186    97931517.8494   23915875.125 6  23915873.65543  23915877.11243
       535.642         417.375  
 121425948.284    94617627.5814   23106586.590 7  23106585.21445  23106588.57645
      3480.310        2711.929  
 126389678.613    98485464.5454   24051153.672 6  24051153.49643  24051156.52543
      3070.531        2392.607  
 08 11  5  0 56 30.0000000  0  9G16G 6G31G 3G23G13G21G19G25         
 109463310.178    85296084.9034   20830172.077 8  20830171.40546  20830175.05046
      -892.291        -695.289  
 107716001.787    83934548.9254   20497669.875 7  20497669.74946  20497674.83946
      1003.483         781.935  
 117598969.944    91635561.0584   22378337.498 7  22378337.48544  22378341.61244
     -2408.430       -1876.697  
 108409230.808    84474734.0654   20629589.569 8  20629589.24946  20629593.26946
      2116.432        1649.169  
 113608395.704    88526027.4474   21618956.983 8  21618956.83645  21618958.04945
      -111.876         -87.176  
 119203390.053    92885766.8894   22683648.835 7  22683648.84844  22683651.78044
      1638.337        1276.626  
 125662910.172    97919151.6174   23912854.580 6  23912853.73543  23912857.48543
       522.097         406.840  
 121321633.434    94536343.3134   23086735.918 7  23086734.63645  23086737.90045
      3473.740        2706.810  
 126297571.695    98413692.9284   24033626.751 7  24033627.41143  24033630.27443
      3069.687        2391.952  
 08 11  5  0 57  0.0000000  0  9G16G 6G31G 3G23G13G21G19G25         
 109490168.877    85317013.7604   20835283.207 8  20835282.37346  20835285.95146
      -898.565        -700.185  
 107686136.599    83911277.3574   20491987.199 8  20491986.49546  20491991.85646
       987.288         769.314  
 117671365.759    91691973.3574   22392114.331 7  22392114.47844  22392118.01744
     -2418.226       -1884.333  
 108345967.032    84425437.6274   20617550.700 8  20617550.17446  20617554.58146
      2100.875        1637.048  
 113612052.155    88528876.6194   21619653.081 8  21619652.48845  21619653.48845
      -132.161        -102.982  
 119154509.948    92847678.4954   22674347.082 7  22674346.89444  22674350.48544
      1620.057        1262.382  
 125647458.880    97907111.6634   23909914.477 6  23909913.41643  23909917.61443
       507.708         395.608  
 121217528.437    94455222.5604   23066924.940 7  23066923.95445  23066927.51845
      3466.287        2701.006  
 126205503.142    98341951.2644   24016106.438 7  24016106.68443  24016110.34043
      3067.946        2390.608  
 08 11  5  0 57 30.0000000  0  9G16G 6G31G 3G23G13G21G19G25         
 109517214.637    85338088.3784   20840429.612 8  20840429.15146  20840432.44046
      -904.239        -704.603  
 107656755.151    83888382.7424   20486396.044 7  20486396.12846  20486400.51746
       971.689         757.154  
 117744053.766    91748613.3444   22405946.634 7  22405946.75744  22405950.07944
     -2427.403       -1891.483  
 108283168.992    84376504.0984   20605600.447 8  20605599.82046  20605604.45146
      2085.893        1625.372  
 113616316.023    88532199.1104   21620464.696 7  21620464.43445  21620464.84745
      -151.852        -118.331  
 119106178.513    92810017.6264   22665149.969 7  22665150.16844  22665153.12644
      1602.278        1248.525  
 125632439.102    97895407.9664   23907055.749 6  23907055.94243  23907058.86543
       493.847         384.816  
 121113647.179    94374276.1574   23047157.101 7  23047156.12845  23047159.57544
      3459.346        2695.591  
 126113486.431    98270249.9434   23998596.319 6  23998595.64743  23998599.34643
      3066.728        2389.655  
 08 11  5  0 58  0.0000000  0  9G16G 6G31G 3G23G13G21G19G25         
 109544427.152    85359292.9324   20845608.329 8  20845607.79046  20845610.80446
      -910.484        -709.469  
 107627838.262    83865850.1014   20480893.549 8  20480893.77746  20480897.54346
       955.534         744.572  
 117817013.331    91805464.9384   22419830.563 7  22419830.19944  22419833.70844
     -2437.144       -1899.070  
 108220817.899    84327918.8304   20593735.620 8  20593734.77246  20593739.33346
      2070.272        1613.206  
 113621167.142    88535979.1984   21621388.054 8  21621387.23245  21621388.38445
      -172.119        -134.118  
 119058377.688    92772770.2124   22656053.898 7  22656053.74444  22656057.04944
      1583.845        1234.170  
 125617832.411    97884026.1374   23904276.380 6  23904275.70943  23904279.86043
       479.351         373.521  
 121009972.149    94293490.4474   23027428.618 7  23027427.28245  23027430.90645
      3451.738        2689.671  
 126021503.541    98198574.9724   23981092.055 6  23981091.48743  23981095.77143
      3064.860        2388.212  
 08 11  5  0 58 30.0000000  0  9G16G 6G31G 3G23G13G21G19G25         
 109571841.474    85380654.7444   20850824.768 8  20850824.46646  20850827.73846
      -916.214        -713.938  
 107599421.462    83843707.1514   20475486.066 8  20475485.94046  20475490.40846
       939.843         732.345  
 117890279.082    91862555.1084   22433772.235 6  22433772.58144  22433775.88744
     -2446.349       -1906.241  
 108158950.087    84279710.1564   20581962.286 8  20581961.72146  20581966.43046
      2055.123        1601.396  
 113626640.815    88540244.3994   21622429.422 8  21622429.06945  21622429.82045
      -191.870        -149.510  
 119011144.693    92735965.2894   22647065.799 7  22647065.73644  22647068.91844
      1565.882        1220.173  
 125603674.762    97872994.2184   23901582.722 6  23901581.29943  23901585.37043
       465.345         362.608  
 120906540.750    94212894.5754   23007746.528 7  23007745.22245  23007748.54145
      3444.556        2684.076  
 125929591.829    98126955.4794   23963602.802 7  23963603.55743  23963606.54943
      3063.469        2387.125  
 08 11  5  0 59  0.0000000  0  9G16G 6G31G 3G23G13G21G19G25         
 109599478.249    85402189.8904   20856083.884 8  20856083.40946  20856086.31046
      -925.492        -721.160  
 107571526.668    83821970.9534   20470177.870 8  20470177.50646  20470182.00846
       920.557         717.316  
 117963872.228    91919900.3984   22447776.828 7  22447777.11244  22447780.44744
     -2459.135       -1916.205  
 108097589.240    84231896.5114   20570285.870 8  20570285.33246  20570289.96746
      2036.333        1586.756  
 113632757.603    88545010.7274   21623593.478 7  21623593.11745  21623594.08545
      -215.163        -167.661  
 118964502.957    92699621.0744   22638189.657 7  22638189.68344  22638193.14044
      1544.304        1203.353  
 125589989.924    97862330.7144   23898978.049 6  23898978.28443  23898982.07743
       447.715         348.865  
 120803377.000    94132507.2634   22988114.802 7  22988113.50645  22988117.18945
      3433.730        2675.634  
 125837774.800    98055409.7844   23946130.646 6  23946129.82443  23946134.29943
      3058.417        2383.176  
 08 11  5  0 59 30.0000000  0  9G16G 6G31G 3G23G13G21G19G25         
 109627333.807    85423895.5174   20861384.671 8  20861384.09846  20861387.04646
      -932.779        -726.843  
 107544150.855    83800639.1564   20464968.124 7  20464967.75446  20464972.40346
       903.272         703.844  
 118037789.161    91977497.9844   22461842.731 7  22461843.14744  22461846.31844
     -2469.923       -1924.618  
 108036733.223    84184476.2534   20558705.182 8  20558704.63346  20558709.59546
      2019.495        1573.629  
 113639514.179    88550275.5894   21624879.294 7  21624878.85545  21624879.89245
      -236.487        -184.276  
 118918450.952    92663736.4014   22629426.834 7  22629426.42844  22629430.36344
      1524.606        1188.006  
 125576775.941    97852034.1254   23896463.635 6  23896463.15943  23896467.03143
       431.987         336.611  
 120700480.022    94052327.8164   22968534.057 7  22968533.02445  22968535.96045
      3424.809        2668.680  
 125746051.383    97983936.9974   23928675.236 6  23928675.11643  23928678.98143
      3055.263        2380.745  
 08 11  5  1  0  0.0000000  0  9G16G 6G31G 3G23G13G21G19G25         
 109655416.860    85445778.4284   20866728.712 8  20866728.04746  20866731.06646
      -939.647        -732.201  
 107517303.361    83779719.0384   20459859.199 8  20459858.65646  20459863.16146
       886.343         690.657  
 118112038.120    92035354.2804   22475971.317 6  22475971.64544  22475975.41744
     -2480.257       -1932.673  
 107976392.101    84137457.2064   20547222.839 8  20547222.29746  20547226.99146
      2003.007        1560.787  
 113646919.131    88556045.6804   21626288.282 7  21626288.35945  21626289.18745
      -257.402        -200.572  
 118872999.231    92628319.4654   22620777.531 7  22620777.43944  22620780.31844
      1505.273        1172.941  
 125564042.763    97842112.1774   23894040.624 6  23894040.06843  23894043.51043
       416.658         324.662  
 120597861.152    93972365.0914   22949006.465 7  22949005.51445  22949008.51145
      3416.188        2661.962  
 125654432.385    97912545.6124   23911240.643 6  23911240.51243  23911245.18943
      3052.446        2378.521  
 08 11  5  1  0 30.0000000  0  9G16G 6G31G 3G23G13G21G19G25         
 109683726.344    85467837.7654   20872115.660 8  20872115.30946  20872118.54946
      -948.480        -739.075  
 107490983.760    83759210.2704   20454850.883 8  20454850.58346  20454855.02446
       867.446         675.936  
 118186617.905    92093468.3664   22490163.815 6  22490164.17244  22490167.51044
     -2492.567       -1942.261  
 107916566.642    84090839.9714   20535838.267 8  20535837.77846  20535842.58246
      1984.500        1546.368  
 113654971.340    88562320.1244   21627821.060 8  21627821.03845  21627821.18645
      -280.272        -218.393  
 118828149.178    92593371.3634   22612243.393 7  22612243.20844  22612245.82544
      1483.883        1156.274  
 125551790.938    97832565.3174   23891709.276 6  23891708.43143  23891712.32043
       399.286         311.136  
 120495522.084    93892620.3864   22929531.800 7  22929530.59145  22929533.88145
      3405.529        2653.662  
 125562919.387    97841236.7994   23893827.030 6  23893826.89043  23893830.67243
      3047.546        2374.715  
 08 11  5  1  1  0.0000000  0  9G16G 6G31G 3G23G13G21G19G25         
 109712286.328    85490092.2954   20877550.626 8  20877550.06846  20877553.35546
      -956.520        -745.337  
 107465217.010    83739132.2924   20449947.682 8  20449947.54146  20449951.74446
       849.343         661.826  
 118261552.438    92151858.8944   22504423.461 6  22504423.54443  22504427.00344
     -2504.072       -1951.221  
 107857282.901    84044644.8584   20524557.029 8  20524556.56746  20524561.28346
      1966.739        1532.521  
 113663695.303    88569118.0104   21629480.886 7  21629480.64545  21629481.79645
      -302.307        -235.568  
 118783927.253    92558912.7184   22603827.581 7  22603827.92344  22603830.18244
      1463.237        1140.193  
 125540046.614    97823413.9154   23889474.210 6  23889474.16343  23889477.53843
       382.669         298.164  
 120393490.098    93813114.9754   22910115.841 7  22910114.64445  22910117.74545
      3395.573        2645.893  
 125471539.051    97770031.3714   23876437.078 6  23876436.67443  23876440.19443
      3043.415        2371.490  
 08 11  5  1  1 30.0000000  0  9G16G 6G31G 3G23G13G21G19G25         
 109741115.592    85512556.6544   20883036.698 8  20883036.15146  20883039.53846
      -965.098        -752.019  
 107440022.371    83719500.1174   20445153.220 8  20445152.97746  20445156.97046
       830.661         647.267  
 118336860.517    92210540.4984   22518753.916 6  22518753.89243  22518757.28543
     -2516.126       -1960.610  
 107798561.284    83998887.7634   20513382.718 8  20513382.10146  20513387.02146
      1948.349        1518.199  
 113673108.975    88576453.3324   21631271.763 8  21631271.69245  21631273.47545
      -324.936        -253.196  
 118740353.730    92524959.3224   22595535.430 6  22595535.20444  22595538.65044
      1441.966        1123.609  
 125528829.961    97814673.6924   23887339.717 6  23887339.12143  23887343.01643
       365.432         284.758  
 120291786.355    93733865.3324   22890762.079 6  22890760.45645  22890764.17745
      3384.968        2637.647  
 125380312.331    97698945.6294   23859077.366 6  23859078.10943  23859080.46143
      3038.662        2367.795  
 08 11  5  1  2  0.0000000  0  9G16G 6G31G 3G23G13G21G19G25         
 109770197.813    85535218.1214   20888570.659 8  20888569.99346  20888574.16946
      -973.549        -758.602  
 107415384.380    83700301.6924   20440464.730 8  20440464.51246  20440468.80046
       812.069         632.788  
 118412525.484    92269500.1984   22533152.700 6  22533152.57043  22533155.72443
     -2528.031       -1969.891  
 107740387.350    83953557.4364   20502312.508 8  20502311.76246  20502316.73646
      1930.066        1503.949  
 113683196.657    88584313.8564   21633191.214 7  21633190.76845  21633193.35645
      -347.422        -270.716  
 118697415.067    92491500.6214   22587364.845 7  22587364.85644  22587367.41744
      1420.764        1107.092  
 125518126.596    97806333.4194   23885303.735 6  23885302.61043  23885306.60943
       348.292         271.397  
 120190397.613    93654861.1454   22871468.305 7  22871467.05945  22871471.10545
      3374.411        2629.405  
 125289225.719    97627969.0624   23841744.661 6  23841745.13243  23841748.04943
      3033.936        2364.096  
 08 11  5  1  2 30.0000000  0  9G16G 6G31G 3G23G13G21G19G25         
 109799563.720    85558100.6484   20894158.818 7  20894158.11946  20894161.99446
      -983.525        -766.383  
 107391334.255    83681561.3484   20435888.027 8  20435888.01146  20435892.45746
       791.947         617.108  
 118488577.883    92328761.8094   22547625.061 6  22547625.34543  22547627.84443
     -2541.491       -1980.385  
 107682793.491    83908679.1114   20491352.724 8  20491352.19646  20491357.21446
      1910.174        1488.448  
 113693988.861    88592723.3484   21635245.167 7  21635244.98545  21635246.96445
      -371.417        -289.407  
 118655143.933    92458562.0684   22579320.301 6  22579320.16344  22579323.42544
      1397.941        1089.313  
 125507968.566    97798418.1064   23883370.463 6  23883369.78143  23883373.68543
       329.543         256.776  
 120089357.068    93576128.2704   22852241.025 7  22852240.09245  22852243.36145
      3362.249        2619.933  
 125198312.185    97557127.3734   23824444.253 6  23824443.83143  23824447.89143
      3027.607        2359.171  
 08 11  5  1  3  0.0000000  0  9G16G 6G31G 3G23G13G21G19G25         
 109829179.259    85581177.6844   20899794.493 7  20899793.78946  20899797.58046
      -992.022        -773.005  
 107367838.358    83663252.8634   20431417.337 8  20431416.91146  20431421.15746
       773.301         602.565  
 118564983.548    92388298.6664   22562164.938 6  22562164.88043  22562168.29643
     -2553.413       -1989.676  
 107625746.985    83864227.2984   20480497.007 8  20480496.22346  20480501.34346
      1891.738        1474.083  
 113705451.206    88601655.0344   21637426.483 7  21637426.10645  21637428.10545
      -393.904        -306.941  
 118613508.226    92426118.6494   22571397.184 7  22571397.41944  22571400.03644
      1376.572        1072.661  
 125498323.707    97790902.6604   23881534.384 6  23881534.31743  23881538.20243
       312.249         243.314  
 119988633.355    93497642.2814   22833073.323 6  22833072.60745  22833075.75144
      3351.462        2611.527  
 125107540.204    97486396.0084   23807170.801 6  23807170.54743  23807173.91143
      3022.675        2355.347  
 08 11  5  1  3 30.0000000  0  9G16G 6G31G 3G23G13G21G19G25         
 109859081.202    85604477.8984   20905484.505 8  20905484.04646  20905487.91346
     -1001.086        -780.066  
 107344934.179    83645405.4594   20427058.744 8  20427058.33546  20427062.78146
       754.009         587.537  
 118641779.085    92448139.3034   22576777.797 6  22576778.30943  22576781.59043
     -2565.906       -1999.404  
 107569286.463    83820232.0924   20469752.998 8  20469752.36246  20469757.53046
      1872.656        1459.212  
 113717620.119    88611137.2894   21639742.274 7  21639741.89345  21639743.66245
      -416.977        -324.913  
 118572546.564    92394200.4664   22563602.801 7  22563602.85444  22563606.28444
      1354.551        1055.506  
 125489230.377    97783816.9694   23879805.159 7  23879803.84444  23879807.40044
       294.334         229.346  
 119888266.011    93419433.9714   22813974.546 7  22813973.34145  22813976.77845
      3340.049        2602.637  
 125016949.167    97415805.5894   23789931.589 6  23789931.26543  23789934.58043
      3017.087        2350.976  
 08 11  5  1  4  0.0000000  0  9G16G 6G31G 3G23G13G21G19G25         
 109889237.078    85627975.9824   20911222.984 7  20911222.62346  20911226.07746
     -1009.573        -786.683  
 107322590.089    83627994.4904   20422807.000 8  20422806.62746  20422811.26446
       735.314         572.973  
 118718932.024    92508258.4364   22591459.706 6  22591459.90543  22591463.41343
     -2577.868       -2008.721  
 107513381.379    83776669.7034   20459114.519 8  20459113.84446  20459118.86746
      1854.086        1444.739  
 113730463.478    88621145.0924   21642185.881 7  21642185.34145  21642187.78845
      -439.497        -342.466  
 118532228.594    92362783.8674   22555929.942 7  22555929.96844  22555933.87544
      1333.025        1038.723  
 125480657.233    97777136.6294   23878172.670 6  23878172.31043  23878175.90743
       276.923         215.771  
 119788225.585    93341480.4044   22794937.260 7  22794936.12445  22794940.18245
      3329.058        2594.073  
 124926509.044    97345332.8104   23772721.807 6  23772721.42743  23772725.33243
      3011.969        2346.985  
 08 11  5  1  4 30.0000000  0  9G16G 6G31G 3G23G13G21G19G25         
 109919647.516    85651672.4254   20917010.108 7  20917009.35146  20917013.15546
     -1017.377        -792.760  
 107300806.975    83611020.6494   20418661.964 8  20418661.59446  20418665.65946
       717.307         558.941  
 118796442.441    92568656.1294   22606209.333 6  22606209.84243  22606213.09743
     -2589.096       -2017.472  
 107458033.752    83733541.6884   20448582.104 8  20448581.53146  20448586.56246
      1836.169        1430.781  
 113743981.292    88631678.4394   21644758.596 8  21644758.36545  21644760.50545
      -461.281        -359.440  
 118492557.406    92331871.2694   22548381.183 6  22548381.10144  22548384.56444
      1312.141        1022.442  
 125472607.227    97770863.9224   23876641.612 6  23876640.08443  23876644.03643
       260.174         202.725  
 119688515.270    93263784.0914   22775962.964 7  22775961.97445  22775966.05945
      3318.703        2585.989  
 124836223.068    97274980.1154   23755540.190 6  23755540.40643  23755544.04743
      3007.539        2343.539  
 08 11  5  1  5  0.0000000  0  9G16G 6G31G 3G23G13G21G19G25         
 109950352.183    85675598.1354   20922852.904 8  20922852.68746  20922855.83446
     -1027.642        -800.755  
 107279624.916    83594515.1564   20414630.810 8  20414630.81946  20414634.65046
       696.796         542.967  
 118874349.661    92629363.0094   22621034.827 6  22621035.14943  22621038.57843
     -2602.790       -2028.132  
 107403284.434    83690879.8874   20438163.793 8  20438163.54146  20438168.12646
      1815.719        1414.849  
 113758212.918    88642768.0004   21647466.353 7  21647466.00045  21647468.48745
      -485.534        -378.331  
 118453574.234    92301494.7604   22540962.625 6  22540962.27443  22540966.22243
      1288.704        1004.196  
 125465120.869    97765030.4314   23875216.379 6  23875215.51643  23875219.61843
       240.868         187.696  
 119589177.424    93186377.9964   22757059.820 6  22757058.38745  22757063.07345
      3305.780        2575.936  
 124746133.283    97204780.2914   23738397.613 7  23738397.23243  23738399.49343
      3000.420        2337.991  
 08 11  5  1  5 30.0000000  0  9G16G 6G31G 3G23G13G21G19G25         
 109981326.333    85699733.8444   20928747.168 8  20928746.81046  20928749.95246
     -1036.245        -807.465  
 107259019.836    83578459.2634   20410709.787 8  20410709.51146  20410714.06946
       677.930         528.258  
 118952628.978    92690359.8534   22635930.680 5  22635930.39843  22635934.29242
     -2614.773       -2037.483  
 107349111.039    83648666.8634   20427855.148 8  20427854.56746  20427859.29046
      1796.870        1400.158  
 113773133.632    88654394.5074   21650305.723 7  21650305.57545  21650307.61245
      -508.114        -395.927  
 118415256.268    92271636.6104   22533670.982 7  22533671.01443  22533674.30343
      1266.869         987.171  
 125458175.315    97759618.3314   23873894.336 6  23873894.03543  23873898.42243
       223.207         173.929  
 119490189.953    93109244.9244   22738223.309 7  22738221.83645  22738225.71745
      3294.435        2567.085  
 124656217.559    97134716.1004   23721287.264 6  23721286.20943  23721290.69743
      2995.009        2333.758  
 08 11  5  1  6  0.0000000  0  9G16G 6G31G 3G23G13G21G19G25         
 110012559.515    85724071.3894   20934690.295 7  20934689.92946  20934693.54946
     -1045.712        -814.841  
 107238981.523    83562845.0034   20406896.664 8  20406896.37646  20406900.99546
       658.190         512.875  
 119031269.264    92751637.9634   22650895.245 6  22650895.42343  22650898.88543
     -2627.643       -2047.517  
 107295504.242    83606895.3404   20417654.041 8  20417653.65046  20417658.05246
      1777.158        1384.799  
 113788732.361    88666549.3504   21653274.361 8  21653273.63745  21653275.63445
      -531.555        -414.193  
 118377594.774    92242289.9904   22526503.264 6  22526502.99043  22526507.04843
      1244.132         969.458  
 125451761.276    97754620.4154   23872674.038 6  23872673.23543  23872677.46443
       204.648         159.463  
