     2              OBSERVATION DATA                        RINEX VERSION / TYPE
DAT2RINW 3.10 001   .                   16NOV08 13:52:28    PGM / RUN BY / DATE 
.                   .                                       OBSERVER / AGENCY   
0220278985          TRIMBLE 5700        Nav 1.20 Sig 1.20   REC # / TYPE / VERS 
00000000            TRM39105.00     NONE                    ANT # / TYPE        
----------------------------------------------------------- COMMENT             
Offset from BOTTOM OF ANTENNA to PHASE CENTER is  46.0 mm   COMMENT             
----------------------------------------------------------- COMMENT             
0001                                                        MARKER NAME
0001                                                        MARKER NUMBER       
 -3060698.4118  4057489.0572  3840703.3928                  APPROX POSITION XYZ 
        1.4904        0.0000        0.0000                  ANTENNA: DELTA H/E/N
*** Above antenna height is from mark to BOTTOM OF ANTENNA. COMMENT             
----------------------------------------------------------- COMMENT             
Note: The above offsets are CORRECTED.                      COMMENT             
Raw Offsets: H=      1.5320 E=      0.0000 N=      0.0000   COMMENT             
----------------------------------------------------------- COMMENT             
     1     1     0                                          WAVELENGTH FACT L1/2
     4    L1    C1    L2    P2                              # / TYPES OF OBSERV 
    30                                                      INTERVAL            
  2008    11    15     0     0    0.000000                  TIME OF FIRST OBS   
  2008    11    15     8    10    0.000000                  TIME OF LAST OBS    
    20                                                      # OF SATELLITES     
     2    10    10    10    10                              PRN / # OF OBS      
     3   648   648   648   648                              PRN / # OF OBS      
     4   252   252   252   252                              PRN / # OF OBS      
     6   576   576   576   576                              PRN / # OF OBS      
     7   540   540   540   540                              PRN / # OF OBS      
     8   456   456   456   456                              PRN / # OF OBS      
    11   693   693   693   693                              PRN / # OF OBS      
    13   429   429   427   427                              PRN / # OF OBS      
    16   469   472   468   468                              PRN / # OF OBS      
    17   415   415   407   407                              PRN / # OF OBS      
    19   733   733   733   733                              PRN / # OF OBS      
    20   450   450   450   450                              PRN / # OF OBS      
    21   239   239   239   239                              PRN / # OF OBS      
    23   464   464   464   464                              PRN / # OF OBS      
    25   573   573   573   573                              PRN / # OF OBS      
    27   513   513   513   513                              PRN / # OF OBS      
    28   548   548   548   548                              PRN / # OF OBS      
    29    27    30    26    26                              PRN / # OF OBS      
    31   238   240   235   235                              PRN / # OF OBS      
    32   445   448   439   439                              PRN / # OF OBS      
                                                            END OF HEADER       
 08 11 14 23 59 59.9960000  0  8  3  6 13 16 19 21 23 31
 -15955998.19107  19857444.09807 -12415332.00748  19857441.39548
 -12829028.80107  19557737.87907  -9977573.95948  19557734.59848
  -9509823.03106  21760668.52706  -7403593.74247  21760664.86747
  -4137055.47707  19547065.00407  -3218060.48148  19547060.18448
  -3004203.50006  22539683.03506  -2327569.38547  22539677.42247
  -5343114.48406  23003588.87906  -4161871.99946  23003585.09046
 -10530071.62106  20420403.12106  -8191610.90448  20420397.71148
     92644.30507  20929843.99607     75092.57448  20929839.70348
 08 11 15  0  0 29.9960000  0  8  3  6 13 16 19 21 23 31
 -16077311.38307  19834358.53507 -12509861.75948  19834355.85948
 -12917894.30107  19540826.94907 -10046819.80048  19540824.18848
  -9619520.44906  21739793.81606  -7489072.25947  21739790.02047
  -4158685.78107  19542948.89507  -3234915.28048  19542943.90648
  -3159055.12906  22510215.02006  -2448233.01147  22510210.53147
  -5416241.64806  22989672.53506  -4218854.15346  22989668.82446
 -10590770.75006  20408852.55106  -8238908.94748  20408847.13748
    111742.35207  20933478.27707     89974.14648  20933474.30148
 08 11 15  0  0 59.9960000  0  9  3  6 13 16 19 21 23 25 31
 -16198183.99207  19811357.55107 -12604048.20848  19811354.47348
 -13006269.33607  19524009.82407 -10115683.46148  19524006.73448
  -9728715.72306  21719014.38706  -7574159.46147  21719011.10947
  -4180089.37107  19538875.73107  -3251593.40548  19538871.23148
  -3313739.07006  22480781.24606  -2568765.96547  22480775.62147
  -5488972.58205  22975831.51205  -4275527.60947  22975828.69547
 -10650845.44906  20397420.66806  -8285720.40048  20397415.13348
   -165753.33616  23297615.44106   -124220.09556  23297610.91846
    131154.35907  20937171.95707    105100.35248  20937168.72348
 08 11 15  0  1 29.9960000  0  9  3  6 13 16 19 21 23 25 31
 -16318618.34007  19788439.66807 -12697893.14848  19788436.66848
 -13094157.16407  19507285.45707 -10184167.49148  19507282.18048
  -9837410.11706  21698330.94906  -7658856.39147  21698327.43047
  -4201271.48007  19534844.93407  -3268098.95148  19534840.38348
  -3468257.07406  22451375.37906  -2689169.53147  22451371.61747
  -5561309.33206  22962067.46506  -4331893.91346  22962063.19946
 -10710299.32806  20386106.75406  -8332048.11248  20386100.85948
   -302348.25805  23271621.98805   -230657.73746  23271618.32046
    150876.24207  20940925.02007    120468.04548  20940921.65648
 08 11 15  0  1 59.9960000  0  9  3  6 13 16 19 21 23 25 31
 -16438614.35207  19765605.02007 -12791396.50848  19765602.50048
 -13181558.72707  19490653.23107 -10252272.59248  19490649.84448
  -9945602.68006  21677742.65206  -7743162.26247  21677738.68447
  -4222234.60507  19530855.50407  -3284433.86348  19530851.18448
  -3622608.64806  22422003.69906  -2809443.47047  22421999.57847
  -5633252.15206  22948376.61306  -4387953.19646  22948373.10646
 -10769133.91406  20374911.14506  -8377893.24548  20374905.77348
   -438930.65604  23245630.82404   -337085.56646  23245627.89846
    170905.76207  20944736.70707    136075.45048  20944733.16448
 08 11 15  0  2 29.9960000  0  9  3  6 13 16 19 21 23 25 31
 -16558168.62507  19742854.56607 -12884555.67448  19742851.75448
 -13268471.66407  19474114.16807 -10319996.95448  19474110.95748
 -10053289.53906  21657250.10606  -7827074.10847  21657246.37947
  -4242977.80107  19526908.32407  -3300597.40448  19526903.67648
  -3776789.66806  22392664.66006  -2929584.53647  22392659.82047
  -5704797.62506  22934761.59806  -4443702.91546  22934759.16846
 -10827347.04706  20363834.02706  -8423254.14248  20363828.24648
   -575497.59805  23219643.79305   -443501.32246  23219640.50846
    191244.17207  20948606.87107    151923.52348  20948603.77048
 08 11 15  0  2 59.9960000  0  9  3  6 13 16 19 21 23 25 31
 -16677279.33607  19720188.95707 -12977369.22648  19720185.78548
 -13354895.16807  19457668.54307 -10387339.95148  19457665.10248
 -10160468.29706  21636854.69106  -7910590.01947  21636851.27347
  -4263502.00007  19523002.96507  -3316590.29348  19522998.04748
  -3930797.86306  22363357.74606  -3049590.89247  22363353.30947
  -5775944.45306  22921223.52006  -4499141.99846  22921219.52046
 -10884938.05506  20352874.50406  -8468130.25848  20352868.98148
   -712047.22705  23193659.01205   -549903.55046  23193656.15646
    211891.32807  20952536.16007    168012.21548  20952532.31348
 08 11 15  0  3 29.9960000  0  9  3  6 13 16 19 21 23 25 31
 -16795941.37107  19697607.96507 -13069833.12848  19697605.12948
 -13440824.82007  19441316.29307 -10454298.11648  19441312.91448
 -10267132.84006  21616557.45706  -7993705.23447  21616553.29747
  -4283804.18007  19519139.23107  -3332410.18748  19519134.80148
  -4084626.93406  22334083.93406  -3169457.67047  22334079.26647
  -5846686.51605  22907760.54305  -4554265.61146  22907757.26246
 -10941902.87107  20342034.50407  -8512518.44748  20342028.78148
   -848574.25006  23167678.55906   -656288.23747  23167675.29347
    232850.48007  20956524.70707    184343.98748  20956521.02348
 08 11 15  0  3 59.9960000  0  9  3  6 13 16 19 21 23 25 31
 -16914152.17207  19675112.87107 -13161945.43248  19675109.91848
 -13526259.52007  19425058.51207 -10520870.60648  19425055.44548
 -10373281.14506  21596357.55906  -8076418.19947  21596353.62547
  -4303885.01607  19515318.52707  -3348057.60748  19515313.38348
  -4238274.17606  22304847.33206  -3289182.77247  22304841.11747
  -5917022.03506  22894377.45706  -4609072.47246  22894373.14846
 -10998240.75007  20331313.94907  -8556418.09848  20331307.62948
   -985076.85906  23141703.33206   -762653.88747  23141699.91047
    254121.64507  20960572.23807    200918.90148  20960568.45748
 08 11 15  0  4 29.9960000  0  9  3  6 13 16 19 21 23 25 31
 -17031911.41807  19652704.07407 -13253705.89148  19652700.84848
 -13611200.16407  19408895.27007 -10587058.11648  19408891.94148
 -10478912.50006  21576257.16806  -8158728.36747  21576251.98847
  -4323746.75407  19511538.81607  -3363534.28948  19511534.01648
  -4391738.72306  22275643.20706  -3408765.52847  22275636.34847
  -5986951.02306  22881069.48106  -4663562.57347  22881066.30547
 -11053952.93807  20320712.33207  -8599830.19248  20320706.40248
  -1121554.87506  23115732.29306   -869000.39647  23115729.01647
    275703.19507  20964678.69107    217735.66848  20964675.95748
 08 11 15  0  4 59.9960000  0  9  3  6 13 16 19 21 23 25 31
 -17149220.32007  19630381.21507 -13345115.42148  19630378.27048
 -13695648.30507  19392825.23807 -10652861.85648  19392821.66048
 -10584026.69906  21556255.13706  -8240635.54747  21556250.04747
  -4343392.76607  19507799.91807  -3378842.87348  19507795.51648
  -4545020.49606  22246475.60606  -3528205.86647  22246469.14547
  -6056474.16006  22867840.31606  -4717736.42047  22867835.83247
 -11109041.53106  20310229.09806  -8642756.37548  20310223.32048
  -1258009.17605  23089766.40205   -975328.40746  23089762.56346
    297591.99207  20968844.19107    234791.84648  20968840.52748
 08 11 15  0  5 29.9960000  0  9  3  6 13 16 19 21 23 25 31
 -17266073.41007  19608144.97307 -13436169.78148  19608141.76248
 -13779599.52007  19376849.94107 -10718278.40648  19376846.03948
 -10688618.01606  21536351.64506  -8322135.27247  21536346.88747
  -4362819.76207  19504103.30907  -3393980.81248  19504098.76648
  -4698113.41406  22217342.51206  -3647499.01847  22217337.09847
  -6125585.87106  22854688.48106  -4771589.66846  22854685.16446
 -11163502.47307  20299865.43407  -8685193.48448  20299859.77048
  -1394434.18806  23063805.35606  -1081633.60046  23063800.80546
    319791.37907  20973068.34007    252090.04248  20973065.02348
 08 11 15  0  5 59.9960000  0  9  3  6 13 16 19 21 23 25 31
 -17382472.47307  19585994.65207 -13526870.32948  19585991.94548
 -13863056.98807  19360968.23107 -10783310.18548  19360964.88348
 -10792687.91806  21516547.75406  -8403228.69647  21516543.17247
  -4382032.42607  19500446.73107  -3408951.72148  19500442.57448
  -4851018.82006  22188244.59006  -3766646.00047  22188239.77747
  -6194288.46906  22841615.55906  -4825124.11246  22841610.86746
 -11217339.30107  20289620.87907  -8727144.27848  20289614.44148
  -1530832.20306  23037849.77706  -1187917.76146  23037845.53946
    342297.50807  20977351.77007    269627.26748  20977347.55548
 08 11 15  0  6 29.9960000  0  9  3  6 13 16 19 21 23 25 31
 -17498409.66807  19563932.80907 -13617211.00948  19563929.69548
 -13946013.96507  19345182.44107 -10847952.00348  19345179.14848
 -10896228.21506  21496844.45706  -8483909.45047  21496841.04747
  -4401025.33607  19496832.80107  -3423751.42148  19496828.20748
  -5003728.27006  22159185.84006  -3885640.33747  22159181.51247
  -6262573.89505  22828620.40205  -4878333.50347  22828615.92247
 -11270545.70307  20279495.80107  -8768603.82048  20279490.05548
  -1667195.47306  23011900.58206  -1294174.82347  23011896.34447
    365115.79707  20981693.44907    287407.72848  20981690.34848
 08 11 15  0  6 59.9960000  0  9  3  6 13 16 19 21 23 25 31
 -17613885.00007  19541958.52707 -13707191.78748  19541955.46548
 -14028471.13707  19329490.93407 -10912204.33848  19329487.81648
 -10999237.98406  21477242.77006  -8564176.82647  21477238.80947
  -4419800.74207  19493260.28507  -3438381.61248  19493255.89148
  -5156240.67606  22130163.83206  -4004481.17147  22130158.37147
  -6330442.12506  22815705.77706  -4931217.80546  22815701.84846
 -11323122.63307  20269491.12907  -8809572.87048  20269485.85948
  -1803523.63706  22985957.84006  -1400404.54247  22985954.13347
    388244.70307  20986094.82407    305430.22348  20986091.82448
 08 11 15  0  7 29.9960000  0  9  3  6 13 16 19 21 23 25 31
 -17728898.32807  19520071.84807 -13796812.56548  19520068.84048
 -14110429.53507  19313894.96507 -10976068.03348  19313891.69548
 -11101716.91406  21457741.73106  -8644030.51347  21457737.08247
  -4438360.88707  19489728.22307  -3452844.07748  19489723.84448
  -5308555.45306  22101178.89506  -4123167.98647  22101174.39147
  -6397893.02006  22802870.02006  -4983776.94947  22802866.06347
 -11375071.43807  20259605.48107  -8850052.46348  20259599.27048
  -1939816.67605  22960022.34005  -1506606.88247  22960019.16447
    411682.18807  20990555.31607    323693.17848  20990551.77048
 08 11 15  0  7 59.9960000  0  9  3  6 13 16 19 21 23 25 31
 -17843448.65207  19498273.86307 -13886072.53748  19498270.74248
 -14191888.87507  19298393.27707 -11039542.84948  19298390.41448
 -11203663.42606  21438341.83206  -8723469.37547  21438337.10947
  -4456707.12107  19486236.79307  -3467139.85148  19486232.31648
  -5460670.30506  22072232.07406  -4241698.98547  22072226.16047
  -6464925.56606  22790114.44106  -5036010.04446  22790110.50046
 -11426392.55907  20249839.09807  -8890042.93848  20249833.55948
  -2076073.31306  22934093.66806  -1612780.84947  22934089.27047
    435427.30507  20995073.97307    342195.84848  20995070.04348
 08 11 15  0  8 29.9960000  0  9  3  6 13 16 19 21 23 25 31
 -17957530.81307  19476564.84807 -13974967.71548  19476561.75848
 -14272845.37907  19282988.30907 -11102625.83248  19282985.00848
 -11305071.60906  21419044.32406  -8802488.76647  21419040.41847
  -4474836.75407  19482787.08207  -3481266.86748  19482783.04748
  -5612579.53506  22043323.95706  -4360069.77447  22043319.15647
  -6531535.14506  22777439.52006  -5087913.62846  22777434.49246
 -11477082.38307  20240193.25407  -8929541.52448  20240187.65648
  -2212288.60505  22908172.09005  -1718922.60547  22908168.83247
    459482.88307  20999651.12107    360940.43248  20999646.63748
 08 11 15  0  8 59.9960000  0  9  3  6 13 16 19 21 23 25 31
 -18071148.09007  19454944.07407 -14063500.65348  19454940.92248
 -14353303.10507  19267677.66007 -11165320.16748  19267674.20348
 -11405944.45306  21399848.79306  -8881090.95947  21399844.99247
  -4492755.23807  19479377.19107  -3495229.32248  19479373.10648
  -5764285.63706  22014456.61306  -4478282.27347  22014450.39147
  -6597724.65206  22764843.54306  -5139489.87747  22764839.18047
 -11527145.66807  20230666.44907  -8968551.87448  20230660.87548
  -2348465.45705  22882258.79305  -1825034.43446  22882255.42246
    483844.01607  21004287.21507    379923.09448  21004283.59848
 08 11 15  0  9 29.9960000  0  9  3  6 13 16 19 21 23 25 31
 -18184298.46907  19433412.18407 -14151669.77448  19433409.18848
 -14433261.37107  19252462.31607 -11227625.30948  19252459.03548
 -11506279.37907  21380756.16807  -8959274.02447  21380751.85947
  -4510462.95307  19476007.82407  -3509027.55448  19476003.23848
  -5915785.89806  21985625.81606  -4596334.40547  21985620.57847
  -6663492.14506  22752328.48106  -5190737.26947  22752324.54747
 -11576581.97706  20221259.13706  -9007073.67748  20221253.57448
  -2484602.04705  22856352.93405  -1931114.87347  22856349.06647
    508510.29707  21008980.68407    399143.54148  21008977.45348
 08 11 15  0  9 59.9960000  0  9  3  6 13 16 19 21 23 25 31
 -18296979.07407  19411969.76207 -14239472.82048  19411966.44548
 -14512718.23807  19237342.01207 -11289539.74048  19237339.19948
 -11606073.61706  21361765.94106  -9037035.79747  21361760.30547
  -4527959.69106  19472678.38706  -3522661.37948  19472673.60648
  -6067076.60506  21956837.50406  -4714223.22847  21956831.51247
  -6728834.82806  22739894.12906  -5241653.62647  22739890.65247
 -11625390.00006  20211971.64506  -9045105.90548  20211965.30148
  -2620695.27305  22830454.70705  -2037161.51046  22830452.19146
    533482.96507  21013733.53507    418602.72648  21013730.29748
 08 11 15  0 10 29.9960000  0  9  3  6 13 16 19 21 23 25 31
 -18409190.44907  19390617.19107 -14326910.24248  19390613.58648
 -14591675.38307  19222316.93407 -11351064.79148  19222313.98148
 -11705326.84406  21342878.37106  -9114375.95747  21342873.55547
  -4545248.11307  19469388.66007  -3536132.87548  19469383.76248
  -6218157.50406  21928087.07406  -4831948.56547  21928081.35247
  -6793753.50806  22727540.47306  -5292239.57547  22727535.19147
 -11673571.70707  20202802.86307  -9082650.09948  20202796.88748
  -2756745.43805  22804565.21505  -2143174.62547  22804562.03547
    558759.05507  21018542.85607    438298.38348  21018539.09448
 08 11 15  0 10 59.9960000  0  9  3  6 13 16 19 21 23 25 31
 -18520928.58207  19369354.06607 -14413978.91148  19369350.69948
 -14670129.77306  19207387.64506 -11412198.06948  19207384.65648
 -11804034.28506  21324095.11306  -9191290.83747  21324090.70347
  -4562326.30906  19466138.52006  -3549440.57748  19466133.77048
  -6369023.73806  21899378.65206  -4949506.62947  21899372.86747
  -6858244.06606  22715267.71506  -5342491.99646  22715263.62546
 -11721124.53106  20193753.65206  -9119704.24448  20193747.77348
  -2892748.28105  22778684.74605  -2249150.83646  22778681.26246
    584340.72307  21023411.16807    458232.12648  21023407.86748
 08 11 15  0 11 29.9960000  0  9  3  6 13 16 19 21 23 25 31
 -18632193.68407  19348180.84007 -14500678.98248  19348177.67248
 -14748082.42607  19192553.38707 -11472940.41048  19192550.18448
 -11902195.20706  21305415.50406  -9267779.87747  21305412.32047
  -4579196.32806  19462928.28506  -3562586.06648  19462923.98448
  -6519674.44506  21870709.62106  -5066896.74847  21870704.70747
  -6922306.62506  22703077.01206  -5392410.88346  22703073.28946
 -11768050.25806  20184823.70706  -9156269.75648  20184817.82848
  -3028703.52705  22752813.44905  -2355090.01247  22752810.24647
    610225.96907  21028336.69107    478402.41148  21028333.72748
 08 11 15  0 11 59.9960000  0  9  3  6 13 16 19 21 23 25 31
 -18742981.72707  19327098.33207 -14587007.32648  19327095.48848
 -14825530.75807  19177815.52007 -11533289.74748  19177812.76648
 -11999806.52706  21286840.44906  -9343840.64247  21286837.05147
  -4595856.94506  19459757.98106  -3575568.37248  19459753.35248
  -6670105.05106  21842083.80106  -5184115.36147  21842079.52347
  -6985937.30906  22690968.97306  -5441993.25646  22690965.50846
 -11814346.53906  20176014.13706  -9192344.78548  20176008.02048
  -3164607.43405  22726951.94905  -2460989.16347  22726948.63347
    636416.50807  21033321.14507    498810.60548  21033317.37148
 08 11 15  0 12 29.9960000  0  9  3  6 13 16 19 21 23 25 31
 -18853293.56307  19306106.78507 -14672964.59048  19306103.56348
 -14902476.65607  19163173.37107 -11593247.58548  19163170.89548
 -12096867.75006  21268369.91806  -9419472.73347  21268365.88347
  -4612311.37507  19456626.48107  -3588390.00948  19456622.11748
  -6820315.43406  21813500.25406  -5301162.38547  21813496.00047
  -7049137.12106  22678943.03506  -5491239.85547  22678938.39847
 -11860015.77306  20167323.80106  -9227931.21548  20167318.29748
  -3300460.28105  22701100.32405  -2566848.49947  22701096.68847
    662909.70307  21038362.39507    519454.62448  21038358.62948
 08 11 15  0 12 59.9960000  0  9  3  6 13 16 19 21 23 25 31
 -18963126.27307  19285206.12907 -14758548.50348  19285203.37148
 -14978918.34407  19148627.05107 -11652812.53148  19148623.33648
 -12193375.84406  21250005.66806  -9494673.86047  21250001.29747
  -4628558.68007  19453535.29307  -3601050.26348  19453530.98448
  -6970302.03506  21784959.30906  -5418035.03647  21784954.50047
  -7111903.30506  22666998.77006  -5540148.55447  22666994.36347
 -11905056.95706  20158752.52006  -9263028.22248  20158746.94948
  -3436259.32805  22675258.84805  -2672665.91946  22675255.19146
    689705.83607  21043461.30907    540334.70548  21043458.58248
 08 11 15  0 13 29.9960000  0  9  3  6 13 16 19 21 23 25 31
 -19072480.71507  19264397.02707 -14843759.76148  19264393.73848
 -15054857.36307  19134176.44107 -11711985.78848  19134173.22348
 -12289331.51207  21231746.11307  -9569444.53047  21231741.63347
  -4644601.60507  19450482.16007  -3613551.25548  19450477.11748
  -7120064.55506  21756459.65206  -5534733.05147  21756455.16847
  -7174236.28106  22655136.87106  -5588719.72247  22655133.46147
 -11949471.94906  20150300.32406  -9297637.31848  20150294.26648
  -3572004.59404  22649427.12904  -2778441.44546  22649423.83246
    716802.75807  21048617.78507    561449.16648  21048613.99248
 08 11 15  0 13 59.9960000  0  9  3  6 13 16 19 21 23 25 31
 -19181354.97308  19243678.57408 -14928596.84748  19243675.71948
 -15130293.03507  19119821.23107 -11770766.83648  19119818.30948
 -12384731.13707  21213592.13707  -9643781.90947  21213588.08647
  -4660440.66807  19447468.02007  -3625893.39348  19447463.62548
  -7269600.15606  21728004.16806  -5651254.29247  21727999.53947
  -7236134.53506  22643358.37906  -5636952.13447  22643354.91847
 -11993260.73007  20141967.77007  -9331758.45348  20141961.77348
  -3707694.00405  22623606.28505  -2884173.38846  22623602.24646
    744200.36707  21053831.73807    582797.91248  21053827.93048
 08 11 15  0 14 29.9960000  0  9  3  6 13 16 19 21 23 25 31
 -19289747.39807  19223052.37907 -15013058.47348  19223049.96148
 -15205224.70707  19105562.49607 -11829155.13248  19105559.25848
 -12479573.54306  21195543.71506  -9717685.07147  21195540.32047
  -4676076.25006  19444492.71506  -3638076.95548  19444488.25048
  -7418906.26206  21699591.34806  -5767596.66047  21699586.91847
  -7297596.44906  22631662.09806  -5684844.48447  22631658.11347
 -12036423.16006  20133754.34806  -9365391.51948  20133748.79348
  -3843325.32405  22597796.19105  -2989860.12647  22597793.05947
    771898.16807  21059102.19107    604380.60748  21059098.15648
 08 11 15  0 14 59.9960000  0  9  3  6 13 16 19 21 23 25 31
 -19397658.07007  19202517.54307 -15097144.71348  19202514.19548
 -15279653.43807  19091398.88707 -11887151.55248  19091395.91448
 -12573858.51606  21177602.11306  -9791153.85447  21177598.62147
  -4691510.27007  19441555.63707  -3650103.48948  19441551.44548
  -7567981.96506  21671224.19106  -5883759.56447  21671218.22747
  -7358621.96106  22620049.60606  -5732396.82247  22620045.76647
 -12078960.92206  20125659.62106  -9398537.82648  20125654.28548
  -3978898.34005  22571997.63705  -3095501.43246  22571994.01246
    799894.33607  21064429.98107    626195.76748  21064426.29348
 08 11 15  0 15 29.9960000  0  9  3  6 13 16 19 21 23 25 31
 -19505085.93807  19182074.98807 -15180854.74048  19182072.27048
 -15353579.50807  19077331.16007 -11944756.28148  19077328.33248
 -12667583.98406  21159767.37906  -9864186.69247  21159762.37547
  -4706743.76206  19438656.70706  -3661973.74148  19438652.37148
  -7716825.30106  21642899.98806  -5999741.40147  21642895.15647
  -7419210.06606  22608519.81606  -5779608.31447  22608516.34847
 -12120874.59807  20117684.00407  -9431197.85448  20117677.46548
  -4114411.65604  22546210.50404  -3201096.22047  22546205.92247
    828187.78107  21069813.96507    648242.55548  21069810.33648
 08 11 15  0 15 59.9950000  0  9  3  6 13 16 19 21 23 25 31
 -19612024.38707  19161725.07707 -15264183.40348  19161721.87448
 -15426998.21907  19063360.03807 -12001965.67548  19063357.61248
 -12760743.28106  21142039.46806  -9936778.36247  21142035.31947
  -4721775.37106  19435796.28006  -3673686.70648  19435791.86648
  -7865427.18806  21614622.20206  -6115535.07547  21614617.38247
  -7479355.70706  22597074.74106  -5826475.03247  22597070.67147
 -12162161.33207  20109827.06907  -9463369.35048  20109821.42148
  -4249857.05105  22520436.44405  -3306638.10847  22520431.71847
    856778.90607  21075254.56907    670521.33548  21075251.35148
 08 11 15  0 16 29.9950000  0  9  3  6 13 16 19 21 23 25 31
 -19718480.24607  19141467.23307 -15347136.02048  19141463.58148
 -15499915.71107  19049484.85807 -12058784.49648  19049481.15148
 -12853342.35506  21124418.43706 -10008933.48147  21124414.65947
  -4736607.85906  19432973.63206  -3685244.49248  19432969.37448
  -8013796.55106  21586387.77306  -6231147.51247  21586384.04247
  -7539062.91806  22585713.17906  -5873000.13447  22585709.21447
 -12202825.64507  20102088.92907  -9495055.83648  20102082.79648
  -4385243.30105  22494673.44405  -3412133.84747  22494669.57747
    885667.48807  21080751.72607    693031.88248  21080748.74548
 08 11 15  0 16 59.9950000  0  9  3  6 13 16 19 21 23 25 31
 -19824447.68007  19121302.17907 -15429708.03948  19121298.84748
 -15572327.77307  19035705.10107 -12115209.47348  19035701.87048
 -12945375.23006  21106905.12406 -10080647.40747  21106900.70247
  -4751240.12106  19430189.34306  -3696646.26648  19430184.83948
  -8161924.66806  21558200.14006  -6346572.02047  21558195.35147
  -7598327.36706  22574435.29606  -5919180.20946  22574430.70246
 -12242865.24207  20094469.83507  -9526255.53848  20094464.22248
  -4520562.43005  22468922.78005  -3517577.32647  22468919.36247
    914853.46106  21086305.92106    715774.17948  21086302.23048
 08 11 15  0 17 29.9950000  0  9  3  6 13 16 19 21 23 25 31
 -19929924.62107  19101230.84307 -15511897.86348  19101227.38248
 -15644233.86707  19022021.67107 -12171240.19748  19022018.71048
 -13036839.22306  21089499.93706 -10151918.06747  21089495.42947
  -4765672.53507  19427442.96007  -3707892.33048  19427438.84348
  -8309809.20706  21530059.12406  -6461806.70747  21530053.04247
  -7657147.14106  22563241.97606  -5965013.78447  22563238.59747
 -12282279.95707  20086969.50707  -9556968.33048  20086963.60148
  -4655812.25805  22443185.39805  -3622966.77247  22443181.62047
    944336.53907  21091916.27307    738747.99548  21091912.85148
 08 11 15  0 17 59.9950000  0  9  3  6 13 16 19 21 23 25 31
 -20034911.12107  19081252.30407 -15593705.52248  19081249.23348
 -15715634.81607  19008434.83507 -12226877.30948  19008431.47248
 -13127734.21106  21072203.63206 -10222745.32447  21072199.55047
  -4779906.96106  19424734.54606  -3718984.09048  19424730.30448
  -8457448.84006  21501963.51506  -6576850.58948  21501959.34348
  -7715522.00806  22552133.70206  -6010500.71547  22552129.42547
 -12321071.16407  20079587.82707  -9587195.24748  20079582.21848
  -4790992.03105  22417461.37405  -3728301.65047  22417458.16747
    974115.34007  21097583.27307    761952.21648  21097579.20648
 08 11 15  0 18 29.9950000  0  9  3  6 13 16 19 21 23 25 31
 -20139405.37507  19061367.56207 -15675129.62348  19061364.60548
 -15786530.12107  18994943.67907 -12282120.41048  18994940.65948
 -13218058.68006  21055014.57706 -10293128.03747  21055011.55847
  -4793943.50407  19422063.27307  -3729921.66148  19422059.08548
  -8604840.85906  21473915.85106  -6691701.49347  21473911.78447
  -7773450.56606  22541110.06206  -6055639.81847  22541105.46847
 -12359238.90607  20072324.33507  -9616936.34948  20072319.66348
  -4926099.75005  22391751.88205  -3833580.35247  22391747.89047
   1004189.20707  21103305.27307    785386.35748  21103302.04248
 08 11 15  0 18 59.9950000  0  9  3  6 13 16 19 21 23 25 31
 -20243407.07007  19041577.13207 -15756169.89848  19041574.01948
 -15856920.27707  18981548.83507 -12336969.87948  18981545.69048
 -13307810.65606  21037935.42106 -10363064.64647  21037931.50747
  -4807783.72307  19419429.74107  -3740706.26648  19419425.08548
  -8751983.73806  21445915.80406  -6806358.27947  21445910.92947
  -7830932.45706  22530172.15506  -6100430.90747  22530168.22247
 -12396784.67207  20065179.54607  -9646192.80948  20065174.18748
  -5061134.19905  22366055.79605  -3938801.99947  22366051.64047
   1034556.57006  21109084.34306    809049.21548  21109080.99948
 08 11 15  0 19 29.9950000  0  9  3  6 13 16 19 21 23 25 31
 -20346914.23807  19021880.01507 -15836824.81448  19021877.34748
 -15926805.10907  18968250.03007 -12391425.57948  18968246.85848
 -13396988.16406  21020966.22606 -10432553.64547  21020962.05047
  -4821427.78907  19416833.17907  -3751338.00748  19416829.08548
  -8898874.91806  21417962.70206  -6920818.92047  21417957.91747
  -7887965.97306  22519319.06206  -6144872.61547  22519315.37047
 -12433708.52307  20058153.14807  -9674964.65348  20058147.35548
  -5196093.19105  22340374.10105  -4043964.86547  22340369.17147
   1065217.39807  21114919.32707    832940.74548  21114916.33548
 08 11 15  0 19 59.9950000  0  9  3  6 13 16 19 21 23 25 31
 -20449925.45307  19002277.78007 -15917093.29348  19002274.26548
 -15996183.54307  18955047.93707 -12445486.70748  18955044.89848
 -13485589.61706  21004105.11606 -10501593.69947  21004101.29647
  -4834876.07407  19414274.13207  -3761817.21548  19414269.77648
  -9045511.12906  21390059.63206  -7035080.89947  21390053.42547
  -7944549.59406  22508551.56206  -6188963.73047  22508547.70647
 -12470010.42607  20051245.66307  -9703251.87248  20051239.57348
  -5330974.23406  22314706.35106  -4149066.94447  22314702.65947
   1096171.62107  21120809.91307    857060.89348  21120806.22248
 08 11 15  0 20 29.9950000  0  9  3  6 13 16 19 21 23 25 31
 -20552444.60507  18982769.08507 -15996978.33548  18982766.61648
 -16065060.60207  18941941.22607 -12499157.13848  18941938.03848
 -13573618.07806  20987353.87406 -10570187.31347  20987350.21047
  -4848134.00007  19411750.96807  -3772148.05448  19411746.87848
  -9191895.74206  21362202.92106  -7149146.81147  21362197.86247
  -8000686.83206  22497868.78806  -6232707.00547  22497864.58147
 -12505695.88307  20044455.00707  -9731058.74248  20044449.68748
  -5465780.47306  22289053.56206  -4254110.75447  22289049.15147
   1127413.49607  21126754.76507    881405.17848  21126750.70648
 08 11 15  0 20 59.9950000  0  9  3  6 13 16 19 21 23 25 31
 -20654465.92207  18963354.63207 -16076475.45948  18963351.79248
 -16133431.89107  18928930.52307 -12552433.46348  18928927.16748
 -13661067.71106  20970713.33506 -10638329.86347  20970708.87047
  -4861197.57807  19409265.21007  -3782327.47948  19409260.92148
  -9338021.92206  21334396.18706  -7263011.30147  21334391.07347
  -8056372.28506  22487272.24906  -6276098.23047  22487267.98047
 -12540761.12107  20037781.83507  -9758382.32048  20037775.97248
  -5600505.60906  22263416.43706  -4359091.36247  22263412.87447
   1158946.62507  21132755.28007    905976.42848  21132751.46848
 08 11 15  0 21 29.9950000  0  9  3  6 13 16 19 21 23 25 31
 -20755986.58607  18944036.46007 -16155582.44248  18944033.33548
 -16201295.36707  18916016.63207 -12605314.09848  18916013.58948
 -13747935.27706  20954182.62406 -10706018.88447  20954178.60147
  -4874065.93806  19406816.52306  -3792354.77848  19406812.58148
  -9483885.36306  21306639.60806  -7376671.15947  21306633.33147
  -8111602.96106  22476761.94406  -6319135.13147  22476758.30047
 -12575204.90207  20031227.23307  -9785221.63248  20031221.71048
  -5735146.00806  22237794.91306  -4464005.95447  22237791.21447
   1190772.35206  21138811.47606    930775.69048  21138808.19848
 08 11 15  0 21 59.9950000  0  9  3  6 13 16 19 21 23 25 31
 -20857007.40607  18924812.77307 -16234299.96948  18924810.42548
 -16268653.16007  18903198.84307 -12657800.68448  18903196.12848
 -13834221.28506  20937762.75706 -10773254.73747  20937758.75747
  -4886741.86307  19404404.35807  -3802232.12248  19404400.09348
  -9629486.18406  21278932.56906  -7490126.33647  21278927.29247
  -8166380.10506  22466337.68706  -6361818.61947  22466333.85547
 -12609029.97307  20024790.67907  -9811578.84748  20024785.42548
  -5869701.81606  22212189.48306  -4568854.61847  22212186.61247
   1222887.50806  21144923.00706    955800.44648  21144919.76948
 08 11 15  0 22 29.9950000  0  9  3  6 13 16 19 21 23 25 31
 -20957525.15207  18905684.64007 -16312625.48848  18905681.73748
 -16335503.02307  18890477.61607 -12709891.48548  18890474.56548
 -13919921.88706  20921455.05406 -10840034.42647  20921450.48747
  -4899223.26607  19402029.13207  -3811957.89348  19402024.62048
  -9774820.00406  21251275.96006  -7603373.45247  21251271.55447
  -8220700.29306  22456001.04606  -6404145.99546  22455997.49546
 -12642234.77007  20018472.42907  -9837452.75648  20018466.83548
  -6004168.95706  22186602.05406  -4673634.22647  22186598.24947
   1255293.62107  21151089.41307    981051.92248  21151086.14448
 08 11 15  0 22 59.9950000  0  9  3  6 13 16 19 21 23 25 31
 -21057543.05107  18886652.11607 -16390561.49048  18886649.19448
 -16401849.28107  18877852.35107 -12761589.85648  18877849.24948
 -14005040.04706  20905257.55406 -10906360.28747  20905253.55047
  -4911515.49207  19399690.03007  -3821536.25548  19399685.96848
  -9919888.77306  21223670.71006  -7716414.00247  21223664.92547
  -8274566.88306  22445751.39006  -6446119.93347  22445746.68347
 -12674824.33207  20012270.37407  -9862847.22848  20012265.02648
  -6138549.86706  22161029.64806  -4778346.60547  22161025.80047
   1287986.04707  21157310.79607   1006526.50148  21157307.07748
 08 11 15  0 23 29.9950000  0  9  3  6 13 16 19 21 23 25 31
 -21157056.25807  18867715.07707 -16468104.25048  18867712.18748
 -16467688.14807  18865323.63207 -12812892.87648  18865320.96448
 -14089569.93006  20889172.06206 -10972227.74047  20889168.08147
  -4923615.30907  19397386.96007  -3830964.69948  19397383.11648
 -10064686.44906  21196117.06206  -7829243.37647  21196110.74547
  -8327974.91006  22435587.60106  -6487736.58347  22435583.36647
 -12706795.77707  20006186.39007  -9887760.04748  20006180.92148
  -6272838.68806  22135475.81206  -4882987.22947  22135471.89847
   1320967.58607  21163587.07707   1032226.36248  21163583.20648
 08 11 15  0 23 59.9950000  0  9  3  6 13 16 19 21 23 25 31
 -21256066.78907  18848874.19407 -16545255.31848  18848871.44448
 -16533023.19507  18852890.51507 -12863803.29248  18852887.78448
 -14173514.39806  20873197.35106 -11037638.99247  20873193.84347
  -4935527.02007  19395120.81207  -3840246.55648  19395117.37448
 -10209214.48406  21168613.69406  -7941862.60147  21168608.04247
  -8380927.06606  22425510.71006  -6528998.00747  22425507.57347
 -12738152.96507  20000219.77307  -9912194.23748  20000213.80448
  -6407037.25806  22109938.25706  -4987557.52047  22109934.62047
   1354233.92207  21169917.10107   1058148.15648  21169914.46048
 08 11 15  0 24 29.9950000  0  9  3  6 13 16 19 21 23 25 31
 -21354576.28507  18830128.31907 -16622015.93848  18830124.96048
 -16597856.93007  18840553.26507 -12914323.08948  18840550.16748
 -14256874.25806  20857335.31206 -11102594.73147  20857331.03047
  -4947253.48007  19392889.38207  -3849384.05848  19392885.17548
 -10353472.94106  21141162.66306  -8054271.77948  21141156.70248
  -8433424.55906  22415520.89006  -6569905.13447  22415517.50747
 -12768899.45307  19994368.67907  -9936152.54048  19994363.44048
  -6541145.94506  22084418.17906  -5092057.77647  22084415.18347
   1387781.87107  21176301.36607   1084289.39348  21176298.94448
 08 11 15  0 24 59.9950000  0  9  3  6 13 16 19 21 23 25 31
 -21452579.80907  18811478.78807 -16698382.33548  18811475.73748
 -16662185.15207  18828312.24907 -12964448.97248  18828308.71048
 -14339643.96506  20841584.76506 -11167090.60047  20841580.71447
  -4958791.27007  19390694.24907  -3858374.53548  19390689.76148
 -10497455.53906  21113763.15506  -8166465.99247  21113757.67947
  -8485462.53106  22405618.45206  -6610454.21447  22405614.37047
 -12799031.91407  19988634.84307  -9959632.39648  19988629.33548
  -6675158.71106  22058916.66306  -5196483.28647  22058913.21847
   1421614.89507  21182739.64807   1110652.74648  21182736.54648
 08 11 15  0 25 29.9950000  0  9  3  6 13 16 19 21 23 25 31
 -21550073.72307  18792926.50707 -16774351.62048  18792923.72248
 -16726005.82807  18816167.31207 -13014179.36248  18816164.30048
 -14421819.82006  20825946.73306 -11231123.73447  20825942.40547
  -4970138.49607  19388534.64807  -3867216.54348  19388530.41748
 -10641157.89106  21086417.06206  -8278441.82347  21086412.69447
  -8537037.72706  22395804.22606  -6650642.67547  22395800.19847
 -12828549.19107  19983017.92107  -9982632.87848  19983012.81248
  -6809071.24206  22033433.23306  -5300830.70747  22033430.26147
   1455734.46506  21189232.35806   1137239.42048  21189228.50348
 08 11 15  0 25 59.9950000  0  9  3  6 13 16 19 21 23 25 31
 -21647063.16807  18774470.00707 -16849927.79548  18774466.67948
 -16789324.82807  18804118.02307 -13063518.84548  18804115.19848
 -14503407.08606  20810421.45206 -11294698.23447  20810417.15947
  -4981301.65207  19386410.14007  -3875915.11548  19386406.02648
 -10784583.54306  21059124.78806  -8390202.03448  21059120.48048
  -8588154.61706  22386077.51506  -6690474.05547  22386073.74147
 -12857457.09407  19977517.19407 -10005158.54248  19977511.47648
  -6942887.46506  22007968.53006  -5405103.08646  22007965.21846
   1490133.90207  21195778.86607   1164044.12548  21195774.86248
 08 11 15  0 26 29.9950000  0  9  3  6 13 16 19 21 23 25 31
 -21743545.89808  18756110.04608 -16925109.14348  18756106.99548
 -16852141.08607  18792164.48307 -13112466.57148  18792161.48748
 -14584401.98806  20795008.53006 -11357811.13647  20795004.51147
  -4992280.23007  19384320.89807  -3884469.84248  19384317.14848
 -10927729.24206  21031884.72606  -8501744.12847  21031879.94847
  -8638811.72706  22376437.56906  -6729947.13947  22376433.36647
 -12885755.66407  19972131.69407 -10027209.39748  19972126.21848
  -7076604.32006  21982523.41306  -5509298.02047  21982520.45647
   1524813.45706  21202377.46806   1191067.11348  21202374.26148
 08 11 15  0 26 59.9950000  0  9  3  6 13 16 19 21 23 25 31
 -21839520.73807  18737846.51507 -16999894.73048  18737843.44048
 -16914454.53107  18780306.85107 -13161022.50148  18780303.65148
 -14664803.28506  20779708.85806 -11420461.49447  20779704.27347
  -5003074.34007  19382266.99907  -3892880.83848  19382262.35548
 -11070592.54706  21004699.12406  -8613066.15147  21004694.12047
  -8689007.44506  22366885.16306  -6769060.69747  22366880.91347
 -12913446.30107  19966862.74907 -10048786.50948  19966856.74948
  -7210219.49206  21957097.61606  -5613413.71847  21957094.97247
   1559772.75006  21209030.34306   1218308.06948  21209026.89048
 08 11 15  0 27 29.9950000  0  9  3  6 13 16 19 21 23 25 31
 -21934985.80107  18719680.06207 -17074283.07448  18719677.48048
 -16976264.41407  18768544.85107 -13209186.04248  18768541.43748
 -14744609.25806  20764521.84306 -11482647.95747  20764517.67947
  -5013683.88307  19380248.05407  -3901148.01948  19380244.13648
 -11213170.56607  20977567.44407  -8724165.90947  20977561.83947
  -8738740.49206  22357422.14006  -6807813.74846  22357417.60546
 -12940528.57407  19961708.99107 -10069889.58548  19961703.30048
  -7343730.19506  21931691.41306  -5717448.01847  21931687.74947
   1595011.60206  21215736.24106   1245766.90148  21215732.76548
 08 11 15  0 27 59.9950000  0  9  3  6 13 16 19 21 23 25 31
 -22029941.02007  18701610.61607 -17148274.14648  18701608.06948
 -17037571.61707  18756878.34307 -13256957.88748  18756875.04648
 -14823819.38307  20749449.16307 -11544370.15847  20749444.37847
  -5024110.19907  19378264.08507  -3909272.43548  19378259.96048
 -11355461.67206  20950490.60106  -8835042.10348  20950485.15548
  -8788010.03906  22348045.93706  -6846205.58246  22348042.05446
 -12967003.88707  19956670.98307 -10090519.71148  19956665.83148
  -7477135.11706  21906305.08506  -5821399.89147  21906301.50347
   1630528.65607  21222494.56907   1273442.50448  21222490.88648
 08 11 15  0 28 29.9950000  0  9  3  6 13 16 19 21 23 25 31
 -22124381.78107  18683639.09307 -17221864.33048  18683635.69848
 -17098372.89107  18745308.13207 -13304335.50048  18745304.76148
 -14902429.00806  20734489.71006 -11605624.40747  20734485.10847
  -5034350.32007  19376315.28007  -3917251.74848  19376310.96848
 -11497460.20706  20923469.56906  -8945690.27747  20923462.96447
  -8836812.05905  22338758.31905  -6884233.11946  22338755.24546
 -12992870.25007  19951748.45207 -10110675.33348  19951743.04648
  -7610428.80106  21880940.53806  -5925265.10547  21880936.37447
   1666326.54306  21229306.29606   1301336.94048  21229303.00748
 08 11 15  0 28 59.9950000  0  9  3  6 13 16 19 21 23 25 31
 -22218311.98007  18665764.42907 -17295056.70048  18665762.00748
 -17158672.82807  18733833.58507 -13351322.46248  18733830.19848
 -14980441.20306  20719644.78806 -11666413.13147  20719640.89447
  -5044409.19107  19374401.19407  -3925089.85148  19374397.17948
 -11639168.71106  20896502.23306  -9056112.48448  20896496.94448
  -8885150.64106  22329560.59306  -6921899.57647  22329556.21847
 -13018132.76606  19946941.64806 -10130360.43948  19946936.80848
  -7743613.65206  21855596.46806  -6029045.53047  21855592.71447
   1702399.81306  21236171.31206   1329445.93947  21236167.66747
 08 11 15  0 29 29.9950000  0  9  3  6 13 16 19 21 23 25 31
 -22311729.53107  18647988.41307 -17367849.59648  18647985.04648
 -17218470.78507  18722454.44407 -13397918.27348  18722451.49948
 -15057853.62906  20704913.78006 -11726734.49447  20704909.78047
  -5054286.62507  19372521.75707  -3932786.54848  19372517.28848
 -11780583.89506  20869591.72606  -9166306.09048  20869587.44448
  -8933023.32406  22320450.18706  -6959202.99846  22320446.71446
 -13042791.89807  19942248.77307 -10149575.34948  19942243.31948
  -7876686.83606  21830273.08506  -6132738.88847  21830269.24547
   1738749.00806  21243088.95206   1357769.96347  21243084.56547
 08 11 15  0 29 59.9950000  0  9  3  6 13 16 19 21 23 25 31
 -22404636.28107  18630308.55407 -17440244.45748  18630305.20648
 -17277769.32007  18711170.21807 -13444124.92748  18711167.21848
 -15134668.17206  20690296.18706 -11786590.02447  20690292.17947
  -5063985.23007  19370676.02307  -3940343.93248  19370671.93748
 -11921705.96506  20842736.85806  -9276271.31848  20842732.58948
  -8980432.13306  22311428.86606  -6996144.94347  22311424.96047
 -13066850.99607  19937670.35107 -10168322.70048  19937664.34348
  -8009648.68406  21804970.99906  -6236345.49947  21804967.69447
   1775370.26206  21250057.32706   1386305.96047  21250052.58147
 08 11 15  0 30 29.9950000  0  9  3  6 13 16 19 21 23 25 31
 -22497026.69907  18612727.64807 -17512236.98049  18612724.31549
 -17336564.34407  18699981.85107 -13489939.21748  18699978.90548
 -15210878.62106  20675793.93706 -11845974.77147  20675789.33547
  -5073501.23407  19368865.42107  -3947759.02148  19368861.09748
 -12062528.77006  20815939.52306  -9386003.34447  20815934.62847
  -9027371.88306  22302496.44406  -7032721.36746  22302492.30846
 -13090306.94907  19933207.48307 -10186600.06848  19933201.52648
  -8142492.75806  21779692.28006  -6339860.34747  21779687.89047
   1812267.28507  21257078.41307   1415056.87348  21257075.24148
 08 11 15  0 30 59.9950000  0  9  3  6 13 16 19 21 23 25 31
 -22588903.53108  18595243.95208 -17583829.29849  18595240.24949
 -17394859.71107  18688888.78007 -13535364.17348  18688885.39848
 -15286488.08206  20661405.93706 -11904891.24247  20661401.76947
  -5082838.74607  19367088.87407  -3955035.01648  19367083.99948
 -12203053.60206  20789198.24106  -9495503.18248  20789193.14048
  -9073845.39806  22293653.64806  -7068934.53647  22293649.75347
 -13113163.87507  19928857.65507 -10204410.66748  19928852.08948
  -8275220.47306  21754434.84306  -6443284.54347  21754430.62847
   1849435.74207  21264151.76507   1444019.28548  21264148.04248
 08 11 15  0 31 29.9950000  0  9  3  6 13 16 19 21 23 25 31
 -22680264.91807  18577857.99107 -17655019.97648  18577855.03048
 -17452654.54707  18677890.38207 -13580399.10948  18677887.78848
 -15361493.73406  20647133.00706 -11963337.21047  20647128.33147
  -5091996.91807  19365345.88207  -3962171.25848  19365341.49948
 -12343277.03506  20762514.94406  -9604768.17848  20762509.91348
  -9119850.53506  22284899.17106  -7104782.72646  22284894.30446
 -13135422.18007  19924621.99107 -10221754.81648  19924617.16748
  -8407828.77306  21729200.24906  -6546615.69447  21729197.02647
   1886876.00806  21271276.47606   1473193.49848  21271273.47248
 08 11 15  0 31 59.9950000  0  9  3  6 13 16 19 21 23 25 31
 -22771108.24607  18560571.49907 -17725806.98448  18560567.91348
 -17509947.38307  18666988.03007 -13625042.86348  18666984.89848
 -15435893.23406  20632975.28806 -12021310.84847  20632971.37047
  -5100975.01207  19363637.21007  -3969167.19148  19363632.58148
 -12483195.09006  20735889.69406  -9713795.24148  20735884.19048
  -9165384.55905  22276234.13205  -7140263.79047  22276229.49547
 -13157081.05907  19920500.55407 -10238631.87748  19920495.15948
  -8540313.71906  21703989.45206  -6649850.67847  21703986.12447
   1924588.96506  21278452.90506   1502580.17348  21278449.71848
 08 11 15  0 32 29.9950000  0  9  3  6 13 16 19 21 23 25 31
 -22861436.44907  18543382.24907 -17796192.58248  18543379.26948
 -17566741.95307  18656180.27307 -13669298.38448  18656176.76948
 -15509688.54306  20618932.26506 -12078813.67447  20618928.21847
  -5109776.37507  19361962.96007  -3976025.40248  19361958.49548
 -12622809.39806  20709321.54606  -9822585.56047  20709316.72647
  -9210450.42206  22267658.80406  -7175380.06347  22267654.14047
 -13178145.12107  19916492.24107 -10255045.44948  19916486.52648
  -8672676.62106  21678801.71006  -6752990.61247  21678797.80047
   1962569.87106  21285680.57706   1532175.66047  21285676.34347
 08 11 15  0 32 59.9950000  0  9  3  6 13 16 19 21 23 25 31
 -22951247.25408  18526291.98308 -17866175.02948  18526288.81248
 -17623037.15607  18645467.77307 -13713164.76248  18645464.08548
 -15582877.71906  20605004.64006 -12135844.21747  20605000.54247
  -5118400.43407  19360321.47607  -3982745.46548  19360317.51948
 -12762116.39806  20682812.35806  -9931136.43848  20682807.24148
  -9255046.37506  22259171.67106  -7210130.14047  22259167.71447
 -13198614.73007  19912596.97607 -10270995.80348  19912591.10548
  -8804914.19906  21653637.13206  -6856032.84847  21653633.29247
   2000819.78506  21292959.13206   1561980.77048  21292955.40148
 08 11 15  0 33 29.9950000  0  9  3  6 13 16 19 21 23 25 31
 -23040538.32008  18509300.35808 -17935752.46748  18509297.11648
 -17678831.83607  18634850.42107 -13756641.13448  18634847.10148
 -15655457.84406  20591193.48306 -12192400.15747  20591189.27647
  -5126845.88707  19358714.26507  -3989326.33648  19358709.96848
 -12901112.35506  20656362.26506 -10039444.94648  20656357.65948
  -9299169.77306  22250775.89806  -7244512.01147  22250771.76947
 -13218488.93807  19908815.03007 -10286482.20148  19908809.50348
  -8937022.50006  21628498.13206  -6958974.39547  21628494.01547
   2039339.10906  21300288.78806   1591995.78147  21300285.23047
 08 11 15  0 33 59.9940000  0  9  3  6 13 16 19 21 23 25 31
 -23129306.64508  18492408.29108 -18004922.59248  18492405.29948
 -17734125.55907  18624328.56507 -13799727.15648  18624325.50248
 -15727426.62906  20577497.97106 -12248479.72847  20577493.53347
  -5135114.20707  19357140.66607  -3995769.19848  19357136.63548
 -13039791.72706  20629972.48606 -10147506.77648  20629967.49848
  -9342820.25006  22242469.45506  -7278525.34247  22242465.14347
 -13237769.79307  19905146.48607 -10301506.24848  19905140.48248
  -9068996.45306  21603383.90806  -7061811.20247  21603380.72547
   2078124.39806  21307670.11106   1622218.06247  21307665.70947
 08 11 15  0 34 29.9940000  0  9  3  6 13 16 19 21 23 25 31
 -23217556.57007  18475615.04107 -18073688.77348  18475611.51448
 -17788921.52307  18613900.73607 -13842425.30248  18613897.79948
 -15798787.10906  20563918.40806 -12304085.30747  20563914.84647
  -5143205.34007  19355600.87707  -4002073.97748  19355596.64748
 -13178160.68006  20603641.51806 -10255326.70348  20603636.64748
  -9385998.84806  22234252.68206  -7312171.03847  22234247.85447
 -13256458.68807  19901590.27507 -10316069.02848  19901584.45148
  -9200841.69106  21578294.72906  -7164547.73747  21578291.08847
   2117178.35506  21315101.59606   1652649.70747  21315098.53747
 08 11 15  0 34 59.9940000  0  9  3  6 13 16 19 21 23 25 31
 -23305287.09407  18458920.22107 -18142050.21749  18458917.60049
 -17843220.34407  18603568.23607 -13884736.07248  18603564.90048
 -15869538.20306  20550455.26006 -12359216.05047  20550451.51047
  -5151121.87507  19354094.96307  -4008242.72748  19354090.30748
 -13316214.76207  20577370.47107 -10362901.28648  20577365.66648
  -9428704.92606  22226125.86906  -7345448.49747  22226122.07647
 -13274558.59407  19898145.22907 -10330172.86548  19898140.61548
  -9332553.80506  21553231.17406  -7267180.51647  21553226.99847
   2156496.66807  21322583.40807   1683287.32347  21322580.67447
 08 11 15  0 35 29.9940000  0  9  3  6 13 16 19 21 23 25 31
 -23392493.21907  18442325.69007 -18210003.04149  18442322.63549
 -17897017.93807  18593331.04907 -13926656.26848  18593328.01048
 -15939674.59806  20537108.64306 -12413867.77447  20537104.73647
  -5158859.44907  19352622.33807  -4014271.98848  19352618.43648
 -13453947.48007  20551161.38507 -10470225.46648  20551156.09648
  -9470933.79706  22218090.74406  -7378354.13447  22218086.61547
 -13292066.35207  19894813.82207 -10343815.28448  19894808.30348
  -9464126.14506  21528193.04906  -7369704.41147  21528189.51847
   2196082.98806  21330116.18206   1714133.78147  21330112.98247
 08 11 15  0 35 59.9940000  0  9  3  6 13 16 19 21 23 25 31
 -23479177.51208  18425830.32208 -18277549.24749  18425827.06149
 -17950318.75407  18583188.17407 -13968189.37248  18583185.19348
 -16009199.28106  20523878.54906 -12468042.87647  20523874.30347
  -5166422.52007  19351183.31507  -4020165.30848  19351178.53348
 -13591360.63706  20525012.80706 -10577300.62048  20525007.22148
  -9512689.07006  22210144.71306  -7410890.72147  22210140.68647
 -13308987.06607  19891593.40007 -10357000.26748  19891589.04948
  -9595560.63306  21503182.01006  -7472120.90547  21503178.45947
   2235932.31307  21337699.85407   1745185.16648  21337696.57648
 08 11 15  0 36 29.9940000  0  9  3  6 13 16 19 21 23 25 31
 -23565341.35507  18409433.83807 -18344689.91148  18409430.75248
 -18003125.03107  18573139.39307 -14009337.12048  18573135.60748
 -16078113.24606  20510764.83806 -12521742.06847  20510760.71747
  -5173813.32807  19349776.80707  -4025924.38148  19349772.41648
 -13728454.00806  20498924.51806 -10684126.60148  20498918.69748
  -9553971.98806  22202288.69706  -7443059.22247  22202284.31147
 -13325324.61706  19888484.51006 -10369730.84148  19888479.81848
  -9726856.92206  21478197.28306  -7574429.70947  21478193.94347
   2276041.64806  21345332.01006   1776439.14948  21345328.81148
 08 11 15  0 36 59.9940000  0  9  3  6 13 16 19 21 23 25 31
 -23650985.84408  18393136.18208 -18411425.87149  18393132.65849
 -18055438.39507  18563184.68207 -14050100.77248  18563181.42848
 -16146416.73806  20497766.84606 -12574965.55947  20497763.20147
  -5181033.45707  19348403.01007  -4031550.46448  19348399.19048
 -13865226.70706  20472897.31506 -10790702.72848  20472892.01848
  -9594782.87506  22194522.52506  -7474859.91747  22194519.32647
 -13341081.14806  19885486.36906 -10382008.67348  19885480.79548
  -9858014.12106  21453239.08806  -7676630.07947  21453235.24847
   2316408.97706  21353013.34606   1807894.17748  21353010.75648
 08 11 15  0 37 29.9940000  0  9  3  6 13 16 19 21 23 25 31
 -23736107.35507  18376938.08007 -18477754.32648  18376935.11948
 -18107256.57007  18553323.97107 -14090478.56948  18553320.71748
 -16214106.29706  20484886.19706 -12627710.68647  20484882.02547
  -5188080.52307  19347061.90007  -4037041.68948  19347057.31548
 -14001673.84006  20446932.04106 -10897025.15848  20446927.17448
  -9635118.60506  22186846.77506  -7506290.35547  22186842.95947
 -13356255.22707  19882599.09607 -10393832.64048  19882593.32248
  -9989027.07806  21428307.35406  -7778718.08747  21428304.56847
   2357036.23406  21360744.52506   1839551.76348  21360741.68248
 08 11 15  0 37 59.9940000  0  9  3  6 13 16 19 21 23 25 31
 -23820702.21908  18360839.94008 -18543672.40648  18360836.71348
 -18158577.07007  18543557.61907 -14130468.55848  18543554.69748
 -16281178.26206  20472122.86106 -12679974.55947  20472118.67447
  -5194952.19907  19345754.47107  -4042396.26048  19345749.92848
 -14137790.49206  20421030.31506 -11003090.09148  20421024.99448
  -9674975.66806  22179262.24406  -7537347.78947  22179257.78347
 -13370845.35907  19879822.61107 -10405201.56948  19879816.86148
 -10119890.81606  21403405.38506  -7880689.84147  21403400.90047
   2397925.49606  21368526.40806   1871413.47948  21368522.83048
 08 11 15  0 38 29.9940000  0  9  3  6 13 16 19 21 23 25 31
 -23904773.42207  18344841.86907 -18609182.43948  18344838.50648
 -18209403.99607  18533885.96307 -14170073.96348  18533883.02948
 -16347635.51606  20459476.62706 -12731759.43647  20459472.36147
  -5201652.35907  19344479.36907  -4047617.16948  19344474.81848
 -14273578.37106  20395190.03306 -11108898.79348  20395185.19348
  -9714356.93406  22171768.00206  -7568034.48647  22171763.49047
 -13384856.52307  19877156.45507 -10416119.39948  19877150.98248
 -10250606.78506  21378530.69706  -7982546.43447  21378527.14347
   2439071.91806  21376355.25206   1903475.59547  21376352.69047
 08 11 15  0 38 59.9940000  0  9  3  6 13 16 19 21 23 25 31
 -23988322.84808  18328943.01808 -18674285.88048  18328940.10448
 -18259740.19107  18524307.32207 -14209296.96748  18524303.60448
 -16413479.52006  20446946.75206 -12783066.46147  20446942.83847
  -5208184.02007  19343235.97907  -4052706.79048  19343232.17848
 -14409037.73806  20369413.01006 -11214451.54548  20369408.36548
  -9753264.80506  22164363.85406  -7598352.30547  22164359.59647
 -13398293.10507  19874599.33007 -10426589.46648  19874594.37348
 -10381175.22306  21353684.53306  -8084288.05447  21353680.64347
   2480472.14106  21384233.39306   1935735.46947  21384231.36947
 08 11 15  0 39 29.9940000  0  9  3  6 13 16 19 21 23 25 31
 -24071349.37507  18313143.49407 -18738981.87448  18313140.42848
 -18309585.77707  18514822.19707 -14248137.68148  18514818.89348
 -16478709.16406  20434534.10406 -12833894.75047  20434530.18247
  -5214546.57807  19342025.33007  -4057664.63848  19342021.19348
 -14544166.29306  20343699.36906 -11319746.51148  20343694.69348
  -9791697.83606  22157050.69006  -7628300.11247  22157046.52247
 -13411155.77707  19872151.58007 -10436612.36548  19872145.86548
 -10511593.23806  21328866.87706  -8185912.47847  21328862.44747
   2522125.82806  21392160.99406   1968192.85547  21392157.44747
 08 11 15  0 39 59.9940000  0  9  3  6 13 16 19 21 23 25 31
 -24153847.25008  18297444.77508 -18803265.93949  18297441.91249
 -18358935.82807  18505430.58007 -14286592.26948  18505428.20148
 -16543318.46106  20422239.23606 -12884239.64647  20422235.21747
  -5220735.34007  19340848.02507  -4062487.07448  19340843.47148
 -14678956.44107  20318050.02507 -11424777.78948  20318045.25648
  -9829650.52706  22149828.05706  -7657873.63247  22149824.40047
 -13423440.82807  19869814.28307 -10446185.12648  19869808.73248
 -10641853.46906  21304078.85406  -8287413.95947  21304075.10047
   2564037.31606  21400135.88506   2000851.13147  21400133.53347
 08 11 15  0 40 29.9940000  0  9  3  6 13 16 19 21 23 25 31
 -24235821.53907  18281845.44707 -18867141.99348  18281842.03348
 -18407796.51607  18496133.10407 -14324665.52748  18496130.01048
 -16607312.20306  20410061.26006 -12934104.89347  20410057.58047
  -5226755.94507  19339702.00207  -4067178.46248  19339698.09648
 -14813411.65207  20292464.04907 -11529548.06648  20292458.81848
  -9867127.82406  22142696.54906  -7687076.69146  22142692.04146
 -13435155.20306  19867584.88506 -10455313.21648  19867579.10748
 -10771959.02005  21279320.51805  -8388794.90947  21279317.54947
   2606200.22306  21408159.70506   2033705.30248  21408156.60048
 08 11 15  0 40 59.9940000  0  9  3  6 13 16 19 21 23 25 31
 -24317267.79307  18266346.78307 -18930606.61249  18266343.82649
 -18456164.55907  18486929.28307 -14362354.90948  18486925.69348
 -16670686.23807  20398002.05707 -12983487.29747  20397997.34647
  -5232605.10207  19338589.02507  -4071736.25448  19338584.77948
 -14947526.27306  20266942.23606 -11634052.93148  20266937.47548
  -9904125.30906  22135656.51006  -7715905.92347  22135652.08847
 -13446296.77707  19865465.06507 -10463994.99248  19865459.05348
 -10901904.07806  21254592.44006  -8490050.77347  21254589.86147
   2648616.86306  21416231.38506   2066757.19047  21416227.74847
 08 11 15  0 41 29.9940000  0  9  3  6 13 16 19 21 23 25 31
 -24398187.89507  18250948.24407 -18993661.22548  18250945.14748
 -18504042.89507  18477818.18207 -14399662.70448  18477814.52948
 -16733442.07006  20386059.88506 -13032387.92247  20386055.79147
  -5238285.65607  19337508.03307  -4076162.67748  19337503.97548
 -15081300.82007  20241486.15007 -11738292.82948  20241481.08448
  -9940645.10906  22128706.95506  -7744362.88647  22128702.74847
 -13456869.48807  19863452.97107 -10472233.48248  19863447.57648
 -11031688.64106  21229896.06506  -8591181.59647  21229893.06147
   2691284.47306  21424350.51006   2100004.65547  21424346.80347
 08 11 15  0 41 59.9940000  0  9  3  6 13 16 19 21 23 25 31
 -24478582.94108  18235649.69008 -19056306.69948  18235646.26048
 -18551433.44507  18468799.93207 -14436590.41748  18468796.87348
 -16795580.62107  20374235.04907 -13080807.58147  20374231.06147
  -5243799.05107  19336459.27507  -4080458.83748  19336454.67048
 -15214734.28507  20216094.41607 -11842266.96748  20216088.61548
  -9976688.13706  22121848.88506  -7772448.34847  22121844.18247
 -13466876.50007  19861549.10407 -10480031.19048  19861543.11948
 -11161311.86706  21205229.19706  -8692186.69047  21205226.50647
   2734200.25406  21432517.33806   2133445.48647  21432513.54147
 08 11 15  0 42 29.9940000  0  9  3  6 13 16 19 21 23 25 31
 -24558453.60907  18220450.63507 -19118543.58248  18220447.63148
 -18598338.07007  18459873.90807 -14473139.47248  18459871.00648
 -16857102.55107  20362528.00207 -13128746.76947  20362523.77547
  -5249146.94907  19335441.17407  -4084626.04748  19335437.36148
 -15347826.19907  20190767.95507 -11945974.93948  20190762.45148
 -10012255.24206  22115080.15006  -7800163.00347  22115075.72147
 -13476320.29307  19859751.69007 -10487389.99448  19859745.89748
 -11290772.74206  21180593.87706  -8793065.27947  21180590.34647
   2777362.07006  21440731.15806   2167078.03547  21440727.31147
 08 11 15  0 42 59.9940000  0  9  3  6 13 16 19 21 23 25 31
 -24637798.54707  18205351.68207 -19180370.80248  18205348.81848
 -18644756.20307  18451041.12707 -14509309.44448  18451037.95548
 -16918006.03907  20350938.41607 -13176204.02947  20350934.72147
  -5254328.65207  19334455.53307  -4088663.73748  19334451.38548
 -15480573.62106  20165507.41606 -12049414.46148  20165502.31148
 -10047345.04706  22108402.81506  -7827505.71947  22108398.19747
 -13485201.60907  19858061.44707 -10494310.49048  19858055.35048
 -11420067.74606  21155990.00206  -8893814.63547  21155986.46347
   2820770.18405  21448990.62705   2200902.47547  21448987.38547
 08 11 15  0 43 29.9940000  0  9  3  6 13 16 19 21 23 25 31
 -24716615.48007  18190353.67407 -19241786.59348  18190350.43248
 -18690686.98007  18442300.50207 -14545099.67548  18442297.67448
 -16978289.21907  20339466.81507 -13223177.95047  20339463.72147
  -5259342.77307  19333501.54907  -4092570.85348  19333497.41648
 -15612972.90207  20140312.19707 -12152582.69248  20140307.19748
 -10081955.67606  22101816.79906  -7854475.06047  22101812.51047
