     2              OBSERVATION DATA                        RINEX VERSION / TYPE
DAT2RINW 3.10 001   .                   16NOV08 14:20:29    PGM / RUN BY / DATE 
.                   .                                       OBSERVER / AGENCY   
0220412236          TRIMBLE 5700        Nav 2.32 Sig 2.32   REC # / TYPE / VERS 
0                   TRM39105.00     NONE                    ANT # / TYPE        
----------------------------------------------------------- COMMENT             
Offset from BOTTOM OF ANTENNA to PHASE CENTER is  46.0 mm   COMMENT             
----------------------------------------------------------- COMMENT             
0228                                                        MARKER NAME
0228                                                        MARKER NUMBER       
 -3064586.7617  4045186.8098  3850536.1426                  APPROX POSITION XYZ 
        1.2659        0.0000        0.0000                  ANTENNA: DELTA H/E/N
*** Above antenna height is from mark to BOTTOM OF ANTENNA. COMMENT             
----------------------------------------------------------- COMMENT             
Note: The above offsets are CORRECTED.                      COMMENT             
Raw Offsets: H=      1.3080 E=      0.0000 N=      0.0000   COMMENT             
----------------------------------------------------------- COMMENT             
     1     1     0                                          WAVELENGTH FACT L1/2
     4    L1    C1    L2    P2                              # / TYPES OF OBSERV 
    30                                                      INTERVAL            
  2008    11    15     0     0    0.000000                  TIME OF FIRST OBS   
  2008    11    15     8    10    0.000000                  TIME OF LAST OBS    
    19                                                      # OF SATELLITES     
     2     5     5     5     5                              PRN / # OF OBS      
     3   577   577   577   577                              PRN / # OF OBS      
     4   246   246   246   246                              PRN / # OF OBS      
     6   504   504   504   504                              PRN / # OF OBS      
     7   539   539   539   539                              PRN / # OF OBS      
     8   456   456   456   456                              PRN / # OF OBS      
    11   693   693   693   693                              PRN / # OF OBS      
    13   389   389   389   389                              PRN / # OF OBS      
    16   400   400   400   400                              PRN / # OF OBS      
    17   414   414   414   414                              PRN / # OF OBS      
    19   732   732   732   732                              PRN / # OF OBS      
    20   444   444   444   444                              PRN / # OF OBS      
    21   217   217   217   217                              PRN / # OF OBS      
    23   386   386   386   386                              PRN / # OF OBS      
    25   572   572   572   572                              PRN / # OF OBS      
    27   438   438   438   438                              PRN / # OF OBS      
    28   543   543   543   543                              PRN / # OF OBS      
    31   178   178   178   178                              PRN / # OF OBS      
    32   465   465   465   465                              PRN / # OF OBS      
                                                            END OF HEADER       
 08 11 15  0  0  0.0000000  0  8  3  6 13 16 19 21 23 31
  -3674787.26207  20948788.41407  -2844153.47348  20948786.15648
  -2408589.39107  20644916.20307  -1862822.99248  20644914.42648
  -3228928.40606  22841736.82806  -2498643.87947  22841734.26247
    531550.46907  20622750.89107    412774.88349  20622747.63349
  -2137179.35505  23635999.14805  -1640953.64546  23635996.38746
  -1672918.64506  24073666.74206  -1293540.91046  24073663.89146
  -1354111.74207  21507012.63307  -1045882.19948  21507008.35248
   2143998.83207  22008468.51607   1662216.55948  22008465.46148
 08 11 15  0  0 30.0000000  0  8  3  6 13 16 19 21 23 31
  -3755610.26207  20933408.21907  -2907132.41448  20933406.21148
  -2457008.48007  20635702.30507  -1900552.14848  20635700.12148
  -3297634.38306  22828662.57806  -2552181.00447  22828659.99247
    550399.25007  20626337.56307    427462.22348  20626334.38348
  -2251364.93004  23614269.58604  -1729929.43046  23614267.25046
  -1705474.44505  24067471.64105  -1318909.10546  24067469.25046
  -1373762.28107  21503273.57007  -1061194.32048  21503269.44148
   2204036.76607  22019893.35907   1708999.34448  22019891.07048
 08 11 15  0  1  0.0000000  0  9  3  6 13 16 19 21 23 25 31
  -3835982.23007  20918113.68807  -2969759.91848  20918111.86748
  -2504926.23807  20626583.93807  -1937890.65648  20626581.45748
  -3365825.27006  22815685.68006  -2605316.76647  22815682.55547
    569487.75007  20629969.92207    442336.36748  20629967.00848
  -2365372.27003  23592575.80503  -1818766.30146  23592572.12946
  -1737621.90606  24061354.34406  -1343959.05147  24061352.18447
  -1392776.34407  21499655.79707  -1076010.46148  21499651.11348
   -141353.81615  24394214.88305    -90205.13356  24394212.71546
   2264400.83607  22031380.05507   1756036.25048  22031378.09448
 08 11 15  0  1 30.0000000  0  9  3  6 13 16 19 21 23 25 31
  -3915906.93807  20902904.50807  -3032038.90248  20902902.86348
  -2552347.41007  20617560.10907  -1974842.21948  20617557.68848
  -3433503.77006  22802807.78106  -2658053.26247  22802805.15247
    588809.28907  20633646.64807    457392.10249  20633643.52349
  -2479204.52005  23570914.55505  -1907466.71146  23570910.99246
  -1769364.39806  24055314.00806  -1368693.46946  24055311.43446
  -1411159.09407  21496157.47707  -1090334.69548  21496152.55948
   -237263.77306  24375964.44506   -164940.13747  24375962.10247
   2325085.42207  22042928.10907   1803322.93448  22042925.67248
 08 11 15  0  2  0.0000000  0  9  3  6 13 16 19 21 23 25 31
  -3995384.82807  20887780.53907  -3093969.71948  20887778.99648
  -2599273.36707  20608630.50007  -2011407.89848  20608628.03948
  -3500669.42606  22790026.55506  -2710390.12947  22790023.41447
    608360.87107  20637367.60207    472627.08648  20637363.66448
  -2592861.75805  23549286.10205  -1996030.80146  23549282.74246
  -1800702.66405  24049349.40605  -1393112.82446  24049347.32846
  -1428912.43807  21492779.02307  -1104168.48848  21492774.02748
   -333150.39105  24357717.32805   -239656.98446  24357715.40246
   2386087.87107  22054536.49207   1850857.30948  22054534.07048
 08 11 15  0  2 30.0000000  0  9  3  6 13 16 19 21 23 25 31
  -4074404.63707  20872743.46907  -3155543.59048  20872741.53948
  -2645693.97707  20599796.77307  -2047579.80948  20599794.69148
  -3567310.58606  22777344.60206  -2762318.32047  22777341.94547
    628151.28107  20641133.20307    488048.18848  20641129.18448
  -2706331.97305  23527693.93805  -2084449.15646  23527690.09846
  -1831625.48806  24043465.88306  -1417208.48846  24043463.11746
  -1446026.43007  21489522.91407  -1117504.07848  21489517.73448
   -429002.94105  24339477.32805   -314347.26646  24339475.37946
   2447417.17207  22066206.93007   1898646.34848  22066204.36348
 08 11 15  0  3  0.0000000  0  9  3  6 13 16 19 21 23 25 31
  -4152973.48807  20857792.59407  -3216766.06648  20857790.24248
  -2691617.25007  20591057.79707  -2083364.16048  20591056.24248
  -3633433.69906  22764762.32006  -2813842.82047  22764759.53547
    648170.73807  20644942.84407    503647.75048  20644939.16448
  -2819621.80904  23506134.75804  -2172726.93046  23506131.54346
  -1862140.39105  24037658.89105  -1440986.36346  24037656.25046
  -1462509.35507  21486385.74207  -1130347.92648  21486380.92648
   -524828.40605  24321241.89805   -389016.41846  24321240.64846
   2509064.37107  22077937.82007   1946683.09848  22077935.75448
 08 11 15  0  3 30.0000000  0  9  3  6 13 16 19 21 23 25 31
  -4231082.05507  20842928.77307  -3277629.89148  20842926.66848
  -2737034.63707  20582414.95307  -2118754.34049  20582413.29749
  -3699028.58206  22752279.78106  -2864955.73047  22752277.13747
    668426.32807  20648797.21907    519431.31649  20648793.75049
  -2932720.85505  23484612.64105  -2260855.98846  23484609.88346
  -1892237.17606  24031931.56306  -1464438.35547  24031928.36347
  -1478353.02007  21483370.73407  -1142693.64548  21483365.84448
   -620617.39805  24303014.35905   -463657.17247  24303012.71147
   2571036.74607  22089731.11707   1994973.23048  22089727.60948
 08 11 15  0  4  0.0000000  0  9  3  6 13 16 19 21 23 25 31
  -4308728.05107  20828153.11707  -3338133.25848  20828151.30948
  -2781945.36307  20573868.74207  -2153749.70748  20573867.29348
  -3764093.37506  22739898.40606  -2915655.55147  22739896.50047
    688917.20307  20652696.89107    535398.22348  20652693.27048
  -3045626.66405  23463127.94505  -2348834.52047  23463124.80147
  -1921914.27006  24026284.64806  -1487563.32846  24026281.19546
  -1493556.89107  21480477.45307  -1154540.82448  21480472.39548
   -716368.38305  24284793.63305   -538268.31646  24284791.76646
   2633334.10507  22101585.43807   2043516.62148  22101581.84048
 08 11 15  0  4 30.0000000  0  9  3  6 13 16 19 21 23 25 31
  -4385915.66407  20813465.22707  -3398279.44548  20813462.49248
  -2826354.70707  20565418.10207  -2188354.39149  20565415.87949
  -3828631.96906  22727616.70306  -2965945.38747  22727613.62547
    709636.59807  20656639.57007    551543.19148  20656635.71948
  -3158342.79706  23441679.18806  -2436665.28147  23441675.53947
  -1951176.32406  24020715.71106  -1510364.89147  24020712.60247
  -1508126.75007  21477704.45307  -1165893.97348  21477700.02048
   -812085.60205  24266578.96905   -612853.15247  24266577.10947
   2695950.32007  22113501.03907   2092308.43048  22113498.53948
 08 11 15  0  5  0.0000000  0  9  3  6 13 16 19 21 23 25 31
  -4462640.84807  20798864.70307  -3458065.31648  20798862.56348
  -2870259.03507  20557063.32807  -2222565.55949  20557061.23049
  -3892638.84006  22715437.19506  -3015820.87547  22715433.49647
    730586.42207  20660626.14107    567867.71549  20660622.48449
  -3270864.03505  23420266.76605  -2524344.16846  23420263.55546
  -1980018.50806  24015227.46106  -1532839.32047  24015224.68047
  -1522059.46107  21475053.81307  -1176750.64548  21475048.14848
   -907764.71905  24248371.46105   -687408.30547  24248370.00047
   2758887.48007  22125478.00807   2141350.35248  22125475.19948
 08 11 15  0  5 30.0000000  0  9  3  6 13 16 19 21 23 25 31
  -4538896.17207  20784353.66407  -3517485.03548  20784351.52748
  -2913651.95707  20548806.10907  -2256378.23449  20548803.98449
  -3956106.39806  22703358.82006  -3065276.10247  22703356.35247
    751771.86307  20664657.77307    584375.84048  20664653.72748
  -3383182.32405  23398893.14805  -2611864.90246  23398889.40246
  -2008433.56306  24009819.75006  -1554980.87147  24009817.07447
  -1535349.04707  21472524.74207  -1187106.17648  21472519.93448
  -1003398.19505  24230172.85905   -761927.85246  24230171.95346
   2822150.85907  22137516.31307   2190646.48448  22137513.70348
 08 11 15  0  6  0.0000000  0  9  3  6 13 16 19 21 23 25 31
  -4614687.28107  20769931.23407  -3576543.04348  20769929.04748
  -2956540.46507  20540644.02307  -2289797.85948  20540642.67248
  -4019039.91806  22691383.30506  -3114315.19547  22691380.34447
    773184.43007  20668732.55507    601060.95348  20668728.50048
  -3495302.85905  23377557.17205  -2699231.51246  23377553.82046
  -2036427.43806  24004493.35206  -1576794.23047  24004490.08247
  -1548002.94107  21470116.90607  -1196966.36348  21470111.54348
  -1098992.15205  24211982.42205   -836416.60546  24211981.44946
   2885732.73807  22149615.51607   2240190.79348  22149612.62948
 08 11 15  0  6 30.0000000  0  9  3  6 13 16 19 21 23 25 31
  -4690018.64807  20755595.98407  -3635242.79348  20755593.61748
  -2998930.18007  20532577.86707  -2322828.79348  20532576.12548
  -4081443.54306  22679508.39106  -3162941.42647  22679506.23447
    794817.18807  20672849.01607    617917.63748  20672845.37148
  -3607229.45705  23356257.47705  -2786446.99646  23356254.55546
  -2064004.48006  23999246.03106  -1598282.82447  23999242.24647
  -1560027.04707  21467828.46107  -1206335.80948  21467824.01648
  -1194551.19506  24193798.45306   -910878.17647  24193796.73847
   2949626.24207  22161774.23407   2289977.88748  22161771.57448
 08 11 15  0  7  0.0000000  0  9  3  6 13 16 19 21 23 25 31
  -4764886.23407  20741349.27307  -3693581.18048  20741346.78948
  -3040817.69907  20524607.20307  -2355468.42648  20524605.31348
  -4143312.34006  22667736.05506  -3211150.85947  22667733.10247
    816672.01207  20677007.65607    634947.35548  20677004.39848
  -3718957.12505  23334996.98405  -2873507.46546  23334993.64546
  -2091160.64806  23994078.03906  -1619443.49646  23994074.61746
  -1571418.40607  21465660.84407  -1215212.19548  21465656.34448
  -1290070.87506  24175621.89106   -985309.07847  24175619.79747
   3013833.76607  22173992.55507   2340009.71548  22173989.57048
 08 11 15  0  7 30.0000000  0  9  3  6 13 16 19 21 23 25 31
  -4839285.46507  20727191.69507  -3751554.60248  20727189.31348
  -3082199.61707  20516732.35907  -2387714.07849  20516730.23849
  -4204641.57406  22656064.37506  -3258939.88747  22656061.65647
    838751.04707  20681208.96907    652151.77349  20681205.88349
  -3830480.71505  23313773.72705  -2960408.93046  23313770.14146
  -2117891.37906  23988991.00806  -1640272.60946  23988987.92646
  -1582173.92206  21463614.28106  -1223593.11348  21463609.46548
  -1385546.74606  24157453.05506  -1059705.86746  24157450.45346
   3078357.78507  22186271.06307   2390288.13748  22186268.40648
 08 11 15  0  8  0.0000000  0  9  3  6 13 16 19 21 23 25 31
  -4913209.07007  20713124.53907  -3809157.39848  20713122.32448
  -3123069.41807  20508955.49207  -2419560.66849  20508953.06349
  -4265423.41806  22644498.28906  -3306302.33647  22644495.91447
    861059.24607  20685454.57007    669534.77748  20685450.85948
  -3941791.77705  23292593.69505  -3047144.77746  23292587.91846
  -2144189.31606  23983986.39806  -1660764.46947  23983983.03547
  -1592287.71507  21461689.93807  -1231474.00448  21461685.44548
  -1480971.34006  24139294.35906  -1134062.66847  24139292.00047
   3143203.59007  22198610.86707   2440817.30948  22198607.69148
 08 11 15  0  8 30.0000000  0  9  3  6 13 16 19 21 23 25 31
  -4986656.86707  20699147.43007  -3866389.44148  20699144.84848
  -3163428.25007  20501275.33607  -2451009.10549  20501273.32849
  -4325656.87506  22633036.26606  -3353237.52347  22633033.48047
    883594.22707  20689742.54707    687094.50048  20689738.68448
  -4052889.51206  23271452.21906  -3133714.39847  23271447.53147
  -2170054.85506  23979064.63306  -1680919.45347  23979062.05147
  -1601761.28107  21459887.00007  -1238856.00448  21459882.37548
  -1576344.53105  24121145.89105  -1208379.42647  24121143.88747
   3208369.00807  22211011.09407   2491595.53948  22211008.87548
 08 11 15  0  9  0.0000000  0  9  3  6 13 16 19 21 23 25 31
  -5059640.05107  20685259.03907  -3923259.43448  20685256.80548
  -3203288.11707  20493689.96107  -2482068.74248  20493688.03948
  -4385352.94106  22621676.39806  -3399753.95347  22621673.52347
    906342.77007  20694071.35907    704820.62148  20694067.98048
  -4163784.38705  23250349.24205  -3220125.94547  23250345.68447
  -2195498.84806  23974223.21106  -1700745.93047  23974219.08647
  -1610607.25406  21458203.53106  -1245748.97348  21458199.08648
  -1671677.28105  24103004.53905  -1282664.65247  24103001.79747
   3273841.16007  22223470.60907   2542612.76648  22223468.08248
 08 11 15  0  9 30.0000000  0  9  3  6 13 16 19 21 23 25 31
  -5132154.06607  20671460.21107  -3979763.86348  20671458.91048
  -3242645.78507  20486200.61707  -2512737.05149  20486198.55949
  -4444506.47706  22610420.01606  -3445847.61347  22610417.18447
    929306.91007  20698441.47707    722714.74648  20698437.87948
  -4274471.17605  23229286.35205  -3306375.32847  23229282.48047
  -2220516.78906  23969462.06306  -1720240.40246  23969458.29746
  -1618822.63707  21456640.10907  -1252150.57048  21456636.05148
  -1766965.14805  24084871.73405  -1356914.95347  24084869.05947
   3339622.21907  22235988.33607   2593870.69948  22235985.64148
 08 11 15  0 10  0.0000000  0  9  3  6 13 16 19 21 23 25 31
  -5204186.98007  20657752.92207  -4035893.39848  20657751.14148
  -3281490.21107  20478809.08607  -2543005.43849  20478807.27049
  -4503105.73806  22599269.06306  -3491509.39547  22599266.50847
    952495.94507  20702854.19507    740784.12549  20702851.09449
  -4384937.02706  23208265.40606  -3392452.57847  23208261.58647
  -2245096.81606  23964784.96906  -1739393.68847  23964781.49247
  -1626397.16007  21455198.55507  -1258052.80148  21455194.64148
  -1862195.96905  24066749.69505  -1431120.77747  24066747.77747
   3405722.45707  22248566.33607   2645377.35948  22248563.28548
 08 11 15  0 10 30.0000000  0  9  3  6 13 16 19 21 23 25 31
  -5275738.37907  20644137.33607  -4091647.71549  20644135.27049
  -3319822.18807  20471514.18807  -2572874.50049  20471512.49249
  -4561149.32806  22588223.14106  -3536738.14847  22588221.27747
    975908.24607  20707309.30507    759027.46949  20707306.40249
  -4495180.80106  23187287.28906  -3478356.78547  23187282.55547
  -2269238.78106  23960190.83606  -1758205.57847  23960188.17647
  -1633331.77006  21453879.13306  -1263456.40648  21453875.03548
  -1957369.13305  24048638.53105  -1505281.66047  24048636.61747
   3472139.91007  22261205.44507   2697131.18848  22261202.39548
 08 11 15  0 11  0.0000000  0  9  3  6 13 16 19 21 23 25 31
  -5346816.05107  20630611.60207  -4147032.90248  20630609.53148
  -3357650.43007  20464315.81307  -2602351.04349  20464314.05149
  -4618644.38706  22577282.71906  -3581539.50047  22577279.37947
    999533.87907  20711805.02307    777437.03948  20711801.92248
  -4605209.53105  23166348.88305  -3564093.41847  23166345.30547
  -2292950.34806  23955678.35906  -1776682.14547  23955675.70747
  -1639635.78907  21452679.82807  -1268368.64548  21452675.08248
  -2052492.16805  24030537.03105  -1579403.48847  24030534.94147
   3538864.80907  22273902.57807   2749124.60548  22273900.05948
 08 11 15  0 11 30.0000000  0  9  3  6 13 16 19 21 23 25 31
  -5417409.48007  20617178.14107  -4202040.76648  20617175.85548
  -3394965.25807  20457214.96107  -2631427.52749  20457212.75049
  -4675579.46506  22566447.67206  -3625904.51247  22566445.04347
   1023381.46507  20716343.03907    796019.57048  20716340.16048
  -4715011.46505  23145454.55505  -3649653.34847  23145450.41047
  -2316221.00406  23951250.07806  -1794815.10946  23951247.57046
  -1645300.23007  21451601.60907  -1272782.49248  21451597.35548
  -2147554.16806  24012447.78106  -1653477.75047  24012445.31347
   3605905.91007  22286660.09407   2801364.41048  22286657.41048
 08 11 15  0 12  0.0000000  0  9  3  6 13 16 19 21 23 25 31
  -5487521.17607  20603836.34407  -4256673.24648  20603833.87548
  -3431770.57807  20450211.41407  -2660107.00049  20450209.01649
  -4731958.00806  22555720.28106  -3669835.84447  22555716.94547
   1047445.74207  20720922.39807    814770.94548  20720919.57448
  -4824588.68605  23124601.28905  -3735038.18346  23124598.43846
  -2339053.31306  23946905.42206  -1812606.52747  23946902.87547
  -1650329.37107  21450644.50007  -1276701.31348  21450640.55148
  -2242557.78106  23994369.04706  -1727506.53147  23994366.71147
   3673258.40207  22299476.89107   2853846.84848  22299474.27348
 08 11 15  0 12 30.0000000  0  9  3  6 13 16 19 21 23 25 31
  -5557150.70307  20590586.33607  -4310930.01248  20590583.91448
  -3468067.02307  20443304.18007  -2688389.94549  20443302.33649
  -4787778.22306  22545097.82006  -3713332.10247  22545095.47747
   1071724.80507  20725542.76607    833689.69149  20725539.61349
  -4933939.76604  23103792.28904  -3820246.75846  23103788.89846
  -2361447.00806  23942643.33606  -1830056.14546  23942640.96546
  -1654724.31607  21449808.52307  -1280125.95348  21449804.07448
  -2337501.97706  23976302.07806  -1801489.01247  23976298.90647
   3740920.87907  22312352.72707   2906570.81648  22312350.46948
 08 11 15  0 13  0.0000000  0  9  3  6 13 16 19 21 23 25 31
  -5626298.50007  20577427.42207  -4364811.40649  20577425.98049
  -3503856.14807  20436493.68007  -2716277.57448  20436491.87948
  -4843040.49607  22534581.94507  -3756393.62547  22534578.37147
   1096216.19907  20730203.11707    852773.88348  20730200.14848
  -5043064.59805  23083026.44505  -3905279.01247  23083023.06347
  -2383402.72706  23938465.73406  -1847164.47746  23938462.95346
  -1658487.43407  21449092.39807  -1283058.25048  21449087.32848
  -2432387.46505  23958245.03905  -1875425.74647  23958243.11747
   3808890.29307  22325286.50807   2959533.96148  22325284.90248
 08 11 15  0 13 30.0000000  0  9  3  6 13 16 19 21 23 25 31
  -5694966.97307  20564360.94507  -4418319.29749  20564358.60249
  -3539141.06607  20429779.38307  -2743772.31349  20429777.69149
  -4897747.05106  22524171.02306  -3799022.10247  22524167.80547
   1120915.67207  20734903.27307    872020.20748  20734899.69148
  -5151964.23805  23062304.07805  -3990135.85947  23062299.95747
  -2404922.45306  23934370.35906  -1863933.07846  23934368.04346
  -1661622.09807  21448496.31307  -1285500.84848  21448491.13348
  -2527215.78505  23940199.79705  -1949317.90247  23940197.96547
   3877162.90607  22338278.69507   3012733.39148  22338275.87948
 08 11 15  0 14  0.0000000  0  9  3  6 13 16 19 21 23 25 31
  -5763150.02307  20551386.07007  -4471448.95748  20551383.66448
  -3573916.86707  20423161.89107  -2770870.34048  20423159.56348
  -4951890.16006  22513867.79706  -3841211.52747  22513864.90247
   1145826.81307  20739643.98407    891431.48048  20739640.05948
  -5260631.83605  23041624.05505  -4074811.89147  23041620.73447
  -2426000.44906  23930359.43806  -1880357.50846  23930356.95346
  -1664124.21507  21448019.76607  -1287450.55148  21448015.41448
  -2621980.71105  23922166.56305  -2023160.66047  23922165.20747
   3945742.76607  22351329.25807   3066172.24648  22351326.41448
 08 11 15  0 14 30.0000000  0  9  3  6 13 16 19 21 23 25 31
  -5830837.23007  20538505.32807  -4524192.24249  20538503.09449
  -3608174.22307  20416642.60207  -2797564.37548  20416640.73848
  -5005459.79306  22503673.76606  -3882954.10547  22503671.21147
   1170958.10207  20744425.89807    911014.30149  20744422.62949
  -5369055.98805  23020992.54705  -4159298.23047  23020987.64547
  -2446626.36706  23926434.86706  -1896429.63346  23926432.20346
  -1665984.82807  21447665.78107  -1288900.39548  21447661.24648
  -2716671.21105  23904147.93005  -2096945.46147  23904145.28547
   4014638.20307  22364439.41407   3119856.95748  22364437.34448
 08 11 15  0 15  0.0000000  0  9  3  6 13 16 19 21 23 25 31
  -5898035.34407  20525718.02307  -4576554.39549  20525715.74249
  -3641920.73407  20410220.68007  -2823860.35248  20410218.87548
  -5058462.50806  22493588.00806  -3924254.93447  22493584.89547
   1196300.88307  20749248.83607    930761.90648  20749245.59048
  -5477242.53506  23000405.68806  -4243599.38747  23000401.43847
  -2466806.79306  23922593.71906  -1912154.64546  23922591.78146
  -1667212.35207  21447432.08607  -1289856.90248  21447428.24648
  -2811293.70705  23886142.20305  -2170677.30546  23886139.46946
   4083840.59807  22377608.35907   3173780.85548  22377605.38348
 08 11 15  0 15 30.0000000  0  9  3  6 13 16 19 21 23 25 31
  -5964745.66007  20513023.56307  -4628536.45749  20513021.50449
  -3675159.06307  20403895.64807  -2849760.34448  20403893.52048
  -5110898.57006  22483609.51606  -3965114.17647  22483607.09047
   1221851.84807  20754110.91407    950671.73448  20754107.57448
  -5585191.75806  22979863.94506  -4327715.66847  22979859.47347
  -2486543.09006  23918838.50006  -1927533.56347  23918836.71147
  -1667809.64807  21447318.64807  -1290322.34448  21447314.43848
  -2905849.16005  23868148.35905  -2244356.84847  23868146.23847
   4153346.59407  22390834.63307   3227941.36748  22390832.41848
 08 11 15  0 16  0.0000000  0  9  3  6 13 16 19 21 23 25 31
  -6030966.75007  20500421.84407  -4680137.30149  20500419.99249
  -3707888.65207  20397667.35207  -2875263.92249  20397665.57449
  -5162766.03906  22473739.19506  -4005530.40247  22473736.75447
   1247610.14107  20759012.35207    970743.11348  20759008.73448
  -5692901.21106  22959368.01606  -4411645.10947  22959363.09047
  -2505833.77306  23915167.76606  -1942565.29746  23915164.74246
  -1667777.00807  21447324.95307  -1290296.92248  21447320.60948
  -3000335.64105  23850168.71105  -2317982.65247  23850166.62947
   4223155.88307  22404119.24207   3282338.17648  22404117.02748
 08 11 15  0 16 30.0000000  0  9  3  6 13 16 19 21 23 25 31
  -6096695.40207  20487913.86707  -4731354.42249  20487911.87949
  -3740107.74207  20391536.39807  -2900369.70749  20391534.43049
  -5214061.77306  22463978.66406  -4045501.11347  22463975.87147
   1273576.91807  20763953.84407    990976.95348  20763950.04748
  -5800367.02706  22938917.06306  -4495384.71147  22938912.79347
  -2524676.06306  23911581.81306  -1957247.55947  23911579.24647
  -1667113.19507  21447450.81307  -1289779.67648  21447446.51248
  -3094749.74606  23832202.14806  -2391552.09047  23832199.57047
   4293269.21507  22417461.46907   3336971.91448  22417459.25848
 08 11 15  0 17  0.0000000  0  9  3  6 13 16 19 21 23 25 31
  -6161931.73807  20475500.10207  -4782187.93048  20475497.90648
  -3771817.00007  20385502.25007  -2925078.22748  20385500.37948
  -5264785.30106  22454326.22706  -4085025.93047  22454323.30547
   1299750.46107  20768934.43807   1011371.91048  20768931.00448
  -5907587.89105  22918512.89805  -4578933.41847  22918509.61347
  -2543069.92206  23908081.82806  -1971580.44946  23908078.36746
  -1665819.74607  21447697.01607  -1288771.80948  21447692.48848
  -3189090.56605  23814249.94505  -2465064.44147  23814247.09847
   4363685.12907  22430861.28107   3391841.39148  22430858.68048
 08 11 15  0 17 30.0000000  0  9  3  6 13 16 19 21 23 25 31
  -6226674.88307  20463179.94507  -4832637.14549  20463178.04349
  -3803017.09007  20379565.19507  -2949389.97749  20379563.59449
  -5314935.18806  22444782.34406  -4124103.75847  22444780.27747
   1326129.17607  20773954.55507   1031926.74648  20773951.05948
  -6014562.58205  22898156.50005  -4662290.32847  22898153.27047
  -2561014.69506  23904667.14106  -1985563.38347  23904664.05147
  -1663897.75807  21448062.94507  -1287274.18048  21448057.91448
  -3283357.07806  23796311.50006  -2538518.82847  23796309.18047
   4434402.02307  22444317.58607   3446945.45348  22444315.28948
 08 11 15  0 18  0.0000000  0  9  3  6 13 16 19 21 23 25 31
  -6290922.71907  20450953.89107  -4882700.39549  20450952.15249
  -3833706.62507  20373725.29707  -2973303.90649  20373723.27049
  -5364509.08206  22435349.60206  -4162732.77347  22435346.24647
   1352713.32407  20779013.06307   1052641.65648  20779009.52748
  -6121287.65605  22877847.91405  -4745452.68047  22877845.03547
  -2578507.98006  23901338.79706  -1999194.48447  23901334.94547
  -1661346.34007  21448548.21107  -1285286.07848  21448543.68048
  -3377546.31606  23778387.79706  -2611913.02747  23778385.35247
   4505420.71907  22457832.16407   3502284.66848  22457830.14548
 08 11 15  0 18 30.0000000  0  9  3  6 13 16 19 21 23 25 31
  -6354678.41007  20438821.46107  -4932380.13749  20438819.85549
  -3863890.11307  20367981.61707  -2996823.50849  20367979.53549
  -5413510.54706  22426024.94506  -4200915.74647  22426020.70347
   1379497.87107  20784110.10907   1073512.72748  20784106.12548
  -6227765.35205  22857585.21105  -4828422.30947  22857582.70747
  -2595553.30906  23898095.27306  -2012476.55547  23898092.28947
  -1658170.60207  21449152.72707  -1282811.48448  21449148.51648
  -3471661.28906  23760478.46906  -2685249.34847  23760475.91047
   4576735.59407  22471403.59407   3557854.66448  22471401.21948
 08 11 15  0 19  0.0000000  0  9  3  6 13 16 19 21 23 25 31
  -6417938.13707  20426784.14107  -4981673.43049  20426781.92249
  -3893564.52707  20362334.62507  -3019946.43048  20362332.67248
  -5461934.05506  22416809.84406  -4238648.32847  22416807.61347
   1406484.74207  20789245.07807   1094541.44548  20789241.89848
  -6333990.64505  22837371.75805  -4911195.28547  22837368.29747
  -2612146.87106  23894937.53906  -2025406.59047  23894934.51247
  -1654368.57007  21449876.53907  -1279848.87948  21449872.07448
  -3565697.31606  23742584.25806  -2758524.16047  23742580.96547
   4648348.55906  22485030.44506   3613656.93848  22485028.09448
 08 11 15  0 19 30.0000000  0  9  3  6 13 16 19 21 23 25 31
  -6480699.70307  20414840.99207  -5030578.54349  20414838.66449
  -3922729.41407  20356784.98407  -3042672.31649  20356782.93449
  -5509777.42606  22407705.28906  -4275928.87947  22407703.59047
   1433674.07007  20794419.32007   1115727.92248  20794416.24248
  -6439960.80506  22817206.11706  -4993769.44547  22817202.33647
  -2628286.72306  23891866.10206  -2037983.07047  23891863.05147
  -1649940.02307  21450718.75807  -1276398.07848  21450714.61348
  -3659651.86706  23724705.57806  -2831735.48047  23724702.27347
   4720259.77707  22498714.76607   3669691.63348  22498713.08248
 08 11 15  0 20  0.0000000  0  9  3  6 13 16 19 21 23 25 31
  -6542959.18007  20402992.96107  -5079092.41449  20402990.98049
  -3951381.27307  20351332.94507  -3064998.44948  20351330.71148
  -5557036.60207  22398712.37507  -4312754.19947  22398709.98447
   1461067.84007  20799632.32807   1137073.70748  20799628.83648
  -6545670.03106  22797091.09406  -5076140.29347  22797087.17247
  -2643968.85506  23888881.65606  -2050202.90247  23888879.19947
  -1644882.52007  21451681.10907  -1272457.19548  21451676.85248
  -3753520.03505  23706842.42205  -2904879.51247  23706839.77747
   4792471.68007  22512456.74207   3725960.60948  22512454.75848
 08 11 15  0 20 30.0000000  0  9  3  6 13 16 19 21 23 25 31
  -6604714.62107  20391241.24207  -5127213.53548  20391239.27348
  -3979519.24607  20345978.06307  -3086924.13349  20345975.98849
  -5603708.81606  22389831.07006  -4349122.17647  22389828.53547
   1488666.56607  20804884.68007   1158579.19548  20804880.78548
  -6651115.88706  22777025.44506  -5158305.87947  22777021.36347
  -2659190.89106  23885984.93006  -2062064.21947  23885982.57047
  -1639195.68007  21452763.60907  -1268025.89848  21452758.80548
  -3847299.12905  23688997.15605  -2977954.11747  23688994.03147
   4864984.31306  22526254.85906   3782463.93848  22526253.62148
 08 11 15  0 21  0.0000000  0  9  3  6 13 16 19 21 23 25 31
  -6665970.44507  20379584.67207  -5174945.32449  20379582.65649
  -4007149.12507  20340720.25007  -3108453.91049  20340718.33649
  -5649798.40206  22381060.50806  -4385036.12947  22381058.16847
   1516464.02307  20810173.96107   1180239.55548  20810170.52048
  -6756301.66006  22757009.37506  -5240268.79747  22757005.84847
  -2673957.66406  23883175.06306  -2073570.77047  23883172.14147
  -1632885.95707  21453964.33607  -1263109.25048  21453959.75048
  -3940993.00405  23671166.66405  -3050962.32847  23671164.32047
   4937791.19906  22540109.64106   3839196.53948  22540107.28948
 08 11 15  0 21 30.0000000  0  9  3  6 13 16 19 21 23 25 31
  -6726723.13707  20368023.79707  -5222285.07849  20368021.41049
  -4034268.16407  20335559.41407  -3129585.63348  20335557.40248
  -5695301.55906  22372401.18806  -4420493.14547  22372398.62947
   1544461.78107  20815501.84407   1202055.99648  20815498.34848
  -6861222.49606  22737043.58606  -5322025.25847  22737039.53947
  -2688265.51206  23880452.63306  -2084719.73847  23880449.21147
  -1625951.43007  21455284.07007  -1257705.73448  21455279.30548
  -4034597.39105  23653355.16405  -3123900.77747  23653352.04347
   5010894.24207  22554021.51607   3896159.92648  22554019.02748
 08 11 15  0 22  0.0000000  0  9  3  6 13 16 19 21 23 25 31
  -6786975.16007  20356558.43807  -5269234.71149  20356555.80549
  -4060880.18007  20330495.75807  -3150322.26249  20330493.32449
  -5740220.40206  22363853.68006  -4455494.84447  22363850.84447
   1572655.35207  20820866.64107   1224025.01248  20820863.43848
  -6965880.16006  22717128.05506  -5403576.67247  22717123.23047
  -2702117.35206  23877816.27306  -2095513.38347  23877813.43847
  -1618396.59407  21456721.89107  -1251818.86348  21456717.17248
  -4128114.03506  23635559.58606  -3196770.91047  23635555.51647
   5084288.53906  22567987.77306   3953350.24648  22567985.63348
 08 11 15  0 22 30.0000000  0  9  3  6 13 16 19 21 23 25 31
  -6846719.61307  20345189.55507  -5315788.81348  20345187.29748
  -4086979.17207  20325529.09407  -3170659.14148  20325527.29748
  -5784547.34406  22355418.47706  -4490035.30947  22355416.21547
   1601050.62107  20826270.01607   1246151.19149  20826266.84449
  -7070266.40206  22697263.97706  -5484916.59447  22697259.03147
  -2715505.96506  23875268.49206  -2105946.08247  23875265.12147
  -1610216.15607  21458278.07007  -1245444.50448  21458273.78548
  -4221535.20306  23617781.82806  -3269566.61347  23617778.89547
   5157979.43406  22582010.39806   4010771.69948  22582007.32448
 08 11 15  0 23  0.0000000  0  9  3  6 13 16 19 21 23 25 31
  -6905960.04707  20333916.31307  -5361950.18049  20333914.19549
  -4112569.86307  20320659.29707  -3190599.94149  20320657.23849
  -5828285.80506  22347095.37506  -4524117.25047  22347093.27047
   1629641.77307  20831710.98407   1268430.00048  20831707.51648
  -7174383.73806  22677450.32806  -5566046.96547  22677446.30947
  -2728435.18806  23872807.91406  -2116020.80146  23872804.02046
  -1601415.48407  21459952.82807  -1238586.85948  21459948.86348
  -4314863.68806  23600022.33606  -3342290.08247  23600019.44547
   5231961.89106  22596088.98406   4068420.34848  22596086.03148
 08 11 15  0 23 30.0000000  0  9  3  6 13 16 19 21 23 25 31
  -6964693.73807  20322739.77307  -5407716.70748  20322737.23848
  -4137650.62107  20315886.78107  -3210143.37948  20315884.93448
  -5871432.08207  22338885.59407  -4557737.71147  22338882.94547
   1658429.96107  20837189.12507   1290862.35248  20837185.97348
  -7278228.21506  22657689.96106  -5646964.68447  22657684.92247
  -2740902.12906  23870435.82006  -2125735.29746  23870431.40246
  -1591993.93007  21461745.52307  -1231245.40248  21461741.15648
  -4408095.73806  23582280.86706  -3414938.41847  23582277.39847
   5306236.50006  22610222.21906   4126296.60948  22610220.55548
 08 11 15  0 24  0.0000000  0  9  3  6 13 16 19 21 23 25 31
  -7022920.87507  20311659.55507  -5453088.50449  20311657.49649
  -4162223.07807  20311210.43807  -3229290.74248  20311208.91048
  -5913987.11306  22330786.90606  -4590897.49247  22330784.44147
   1687412.76207  20842704.35907   1313446.34048  20842701.22348
  -7381799.38306  22637980.78906  -5727669.49647  22637976.18847
  -2752907.60906  23868150.91406  -2135090.25446  23868147.14146
  -1581953.44107  21463656.43007  -1223421.66448  21463652.32848
  -4501231.34006  23564558.21906  -3487511.63347  23564554.23847
   5380800.83206  22624411.83606   4184398.64548  22624409.48048
 08 11 15  0 24 30.0000000  0  9  3  6 13 16 19 21 23 25 31
  -7080633.44107  20300676.98407  -5498059.32848  20300674.53148
  -4186280.16407  20306632.92207  -3248036.52749  20306630.84849
  -5955942.23806  22322803.29706  -4623589.80547  22322800.41447
   1716596.88707  20848258.10907   1336187.21948  20848254.91448
  -7485087.72306  22618325.19506  -5808153.88747  22618321.23847
  -2764443.30106  23865955.70306  -2144079.06346  23865952.10946
  -1571288.05507  21465685.88307  -1215110.98848  21465681.57848
  -4594261.29306  23546854.89106  -3560002.44547  23546852.30947
   5455661.27306  22638657.39106   4242731.45748  22638655.23048
 08 11 15  0 25  0.0000000  0  9  3  6 13 16 19 21 23 25 31
  -7137841.57407  20289790.68807  -5542637.09049  20289788.57849
  -4209832.68407  20302150.68807  -3266389.13348  20302148.73048
  -5997306.83606  22314931.75006  -4655821.98047  22314928.78147
   1745970.77307  20853847.31307   1359075.95748  20853844.31348
  -7588101.93406  22598722.30506  -5888424.69147  22598718.52347
  -2775519.29306  23863847.85906  -2152709.71546  23863845.01646
  -1560009.34807  21467831.96107  -1206322.40648  21467827.91448
  -4687194.47706  23529169.95306  -3632417.91047  23529166.14847
   5530806.32406  22652957.01606   4301285.99648  22652955.25048
 08 11 15  0 25 30.0000000  0  9  3  6 13 16 19 21 23 25 31
  -7194549.17207  20278999.49207  -5586824.82448  20278997.27748
  -4232886.21907  20297763.82807  -3284352.92248  20297762.08248
  -6038084.88306  22307171.48406  -4687597.07847  22307169.46147
   1775528.67607  20859472.20307   1382108.08248  20859468.84848
  -7690845.32406  22579171.14106  -5968484.44547  22579167.64147
  -2786139.91806  23861827.36706  -2160985.52046  23861823.68846
  -1548123.90207  21470093.57007  -1197061.02048  21470089.83648
  -4780034.30506  23511503.16406  -3704760.64547  23511499.45747
   5606229.75406  22667310.17206   4360057.48848  22667308.05548
 08 11 15  0 26  0.0000000  0  9  3  6 13 16 19 21 23 25 31
  -7250749.18407  20268305.10907  -5630617.03948  20268302.44948
  -4255434.40207  20293472.95307  -3301922.93849  20293471.33649
  -6078269.49606  22299524.97706  -4718909.74647  22299522.60547
   1805276.33607  20865133.10207   1405288.07448  20865129.91048
  -7793309.21506  22559673.14106  -6048326.41047  22559669.16047
  -2796297.53106  23859894.15606  -2168900.53546  23859890.42246
  -1535625.27707  21472472.35907  -1187321.84848  21472467.94548
  -4872772.36706  23493855.69506  -3777024.03547  23493852.53147
   5681937.10506  22681716.28106   4419050.19948  22681714.11748
 08 11 15  0 26 30.0000000  0  9  3  6 13 16 19 21 23 25 31
  -7306434.02707  20257708.57807  -5674007.81648  20257706.07048
  -4277470.80107  20289279.72707  -3319094.15249  20289277.64849
  -6117851.41806  22291993.31306  -4749752.78947  22291990.21547
   1835219.64807  20870831.16407   1428620.53148  20870827.69148
  -7895484.96106  22540229.39106  -6127943.86347  22540225.19947
  -2805985.21506  23858051.39106  -2176449.37147  23858047.52047
  -1522508.23407  21474967.96107  -1177100.78548  21474964.20348
  -4965400.30906  23476228.79706  -3849201.64547  23476226.00447
   5757933.98006  22696178.48406   4478268.52347  22696175.17647
 08 11 15  0 27  0.0000000  0  9  3  6 13 16 19 21 23 25 31
  -7361609.44908  20247208.51608  -5717001.64849  20247206.65249
  -4299002.30907  20285182.52307  -3335871.95749  20285180.63349
  -6156836.50407  22284574.50007  -4780130.78947  22284571.19547
   1865351.47307  20876565.16407   1452099.87148  20876561.96148
  -7997377.10206  22520839.45306  -6207340.33247  22520835.14847
  -2815208.39106  23856296.52306  -2183636.27046  23856292.53546
  -1508781.09007  21477580.63307  -1166404.30948  21477576.84048
  -5057922.77706  23458623.02306  -3921297.10247  23458619.17647
   5834213.03906  22710693.93006   4537706.73448  22710690.89548
 08 11 15  0 27 30.0000000  0  9  3  6 13 16 19 21 23 25 31
  -7416271.91407  20236807.28107  -5759595.75849  20236805.15649
  -4320026.52307  20281182.18807  -3352254.45749  20281179.64149
  -6195221.32807  22277270.37507  -4810041.03547  22277266.84047
   1895673.62507  20882335.15607   1475727.51648  20882331.76248
  -8098981.10906  22501505.10906  -6286512.27747  22501501.54347
  -2823964.02306  23854630.10206  -2190458.86346  23854626.19946
  -1494441.79307  21480309.85207  -1155230.84848  21480305.20748
  -5150335.35905  23441037.15605  -3993306.86347  23441035.12947
   5910775.77006  22725262.49206   4597365.95748  22725260.59448
 08 11 15  0 28  0.0000000  0  9  3  6 13 16 19 21 23 25 31
  -7470426.35907  20226502.22707  -5801794.03149  20226499.49649
  -4340549.34407  20277276.46907  -3368246.25848  20277274.16848
  -6233010.46507  22270078.96907  -4839487.11747  22270076.18047
   1926179.68007  20888139.99207   1499498.46148  20888136.90648
  -8200300.44506  22482224.27306  -6365462.37547  22482220.80147
  -2832256.37106  23853052.45306  -2196920.44546  23853048.35546
  -1479496.81307  21483153.46107  -1143585.41448  21483149.17248
  -5242641.69506  23423471.43806  -4065233.85947  23423469.28547
   5987615.73406  22739884.93806   4657241.23448  22739882.52048
 08 11 15  0 28 30.0000000  0  9  3  6 13 16 19 21 23 25 31
  -7524064.78508  20216294.74208  -5843590.19549  20216292.61749
  -4360564.07007  20273467.46907  -3383842.14148  20273465.34048
  -6270195.77306  22263002.72706  -4868462.69947  22263000.03547
   1956876.10907  20893981.30507   1523417.75048  20893978.23848
  -8301325.90606  22462999.98406  -6444183.48847  22462995.85547
  -2840078.02006  23851563.43806  -2203015.21946  23851559.80946
  -1463940.69507  21486113.20307  -1131463.77348  21486109.59848
  -5334832.89806  23405928.46906  -4137071.17647  23405926.25847
   6064738.98006  22754561.26606   4717337.24248  22754558.96948
 08 11 15  0 29  0.0000000  0  9  3  6 13 16 19 21 23 25 31
  -7577190.76207  20206185.22707  -5884987.04349  20206182.92649
  -4380075.00807  20269754.93007  -3399045.46949  20269752.61349
  -6306780.09007  22256040.68807  -4896969.94547  22256038.80147
   1987758.22307  20899858.21907   1547481.71548  20899855.09048
  -8402059.80106  22443830.98406  -6522677.42247  22443826.84047
  -2847432.73806  23850163.64806  -2208746.19146  23850159.87546
  -1447778.30507  21489189.18007  -1118869.72748  21489185.00848
  -5426911.25006  23388406.48406  -4208820.53147  23388404.03547
   6142140.35506  22769290.60206   4777649.94548  22769288.60948
 08 11 15  0 29 30.0000000  0  9  3  6 13 16 19 21 23 25 31
  -7629799.07407  20196174.52307  -5925980.53549  20196172.35949
  -4399078.38707  20266138.40607  -3413853.29348  20266136.68448
  -6342758.02306  22249194.72706  -4925004.70347  22249192.09447
   2018829.30907  20905770.81307   1571692.93048  20905767.79348
  -8502495.72306  22424719.61706  -6600939.16847  22424714.18447
  -2854314.96106  23848854.40606  -2214108.99246  23848851.19546
  -1431007.02307  21492380.83607  -1105801.19148  21492376.04748
  -5518870.56606  23370906.84406  -4280477.11747  23370905.25847
   6219823.45706  22784073.18806   4838182.21948  22784070.32848
 08 11 15  0 30  0.0000000  0  9  3  6 13 16 19 21 23 25 31
  -7681890.66807  20186261.64107  -5966571.37149  20186259.22349
  -4417575.89807  20262618.35207  -3428266.93849  20262616.50449
  -6378130.48406  22242463.31306  -4952567.68047  22242460.91447
   2050087.64507  20911719.25807   1596050.05948  20911716.22748
  -8602633.05106  22405663.28906  -6678968.23447  22405659.34447
  -2860725.77006  23847634.36706  -2219104.41846  23847630.99646
  -1413629.27007  21495687.73407  -1092260.09848  21495683.04348
  -5610710.43406  23353430.82806  -4352040.62547  23353427.84847
   6297785.37906  22798908.00806   4898931.75448  22798906.78548
 08 11 15  0 30 30.0000000  0  9  3  6 13 16 19 21 23 25 31
  -7733465.15608  20176447.21908  -6006759.28149  20176445.12549
  -4435568.53507  20259194.52307  -3442287.16848  20259192.30548
  -6412896.45306  22235847.29706  -4979658.03547  22235845.31647
   2081531.89107  20917702.53107   1620552.06648  20917699.55948
  -8702470.67206  22386665.27306  -6756763.77347  22386660.80147
  -2866665.12906  23846503.85206  -2223732.52346  23846500.28946
  -1395647.07807  21499108.89807  -1078248.00848  21499105.36348
  -5702429.48006  23335977.16406  -4423510.01247  23335974.09847
   6376024.62906  22813796.79706   4959897.37948  22813795.19148
 08 11 15  0 31  0.0000000  0  9  3  6 13 16 19 21 23 25 31
  -7784525.74208  20166730.68808  -6046546.73849  20166728.53149
  -4453060.62107  20255866.10207  -3455917.35549  20255863.80549
  -6447059.49206  22229346.22706  -5006278.61747  22229344.11747
   2113157.52707  20923720.87507   1645195.39548  20923717.63348
  -8802010.36706  22367723.27306  -6834327.13747  22367719.29347
  -2872136.32806  23845462.49206  -2227995.78946  23845458.87146
  -1377065.07407  21502645.37507  -1063768.52348  21502641.50448
  -5794029.58606  23318546.25006  -4494886.71947  23318543.29747
   6454536.43807  22828737.82007   5021075.36348  22828735.37548
 08 11 15  0 31 30.0000000  0  9  3  6 13 16 19 21 23 25 31
  -7835066.98007  20157113.10907  -6085929.51649  20157110.95349
  -4470047.66407  20252633.64807  -3469154.00848  20252631.68448
  -6480613.26606  22222961.68006  -5032424.42247  22222958.92647
   2144968.91807  20929774.26607   1669983.48448  20929771.23048
  -8901245.19906  22348839.18006  -6911652.94548  22348835.55948
  -2877133.70706  23844511.53906  -2231889.89146  23844508.89846
  -1357880.14107  21506296.51607  -1048819.23848  21506292.03548
  -5885504.16406  23301138.83606  -4566165.59047  23301136.34047
   6533324.68407  22843730.38307   5082468.78948  22843727.70748
 08 11 15  0 32  0.0000000  0  9  3  6 13 16 19 21 23 25 31
  -7885095.86707  20147592.91407  -6124913.05949  20147591.03949
  -4486537.85907  20249495.52307  -3482003.50448  20249493.33248
  -6513565.01606  22216691.35906  -5058101.11747  22216688.71147
   2176957.21107  20935861.59407   1694909.40648  20935858.69548
  -9000180.78506  22330011.97706  -6988745.59448  22330008.64548
  -2881664.09006  23843649.57806  -2235420.06647  23843647.10547
  -1338101.03507  21510060.42207  -1033406.94948  21510055.55148
  -5976858.80106  23283754.66406  -4637351.03147  23283752.37547
   6612380.68006  22858774.35206   5144070.81647  22858771.82047
 08 11 15  0 32 30.0000000  0  9  3  6 13 16 19 21 23 25 31
  -7934600.59407  20138172.27307  -6163488.16449  20138170.72749
  -4502520.22707  20246454.21107  -3494457.29748  20246452.04348
  -6545902.09006  22210537.93806  -5083298.84047  22210535.31347
   2209133.71907  20941984.60207   1719982.00848  20941981.62948
  -9098804.03106  22311244.72706  -7065594.87148  22311241.17648
  -2885715.78506  23842878.83606  -2238577.21946  23842875.79346
  -1317717.71107  21513939.03107  -1017523.86748  21513934.35248
  -6068080.24605  23266395.85205  -4708432.61747  23266394.19147
   6691714.36306  22873870.29706   5205889.23848  22873868.61748
 08 11 15  0 33  0.0000000  0  9  3  6 13 16 19 21 23 25 31
  -7983586.25408  20128850.89808  -6201658.80549  20128848.60949
  -4518000.90607  20243508.60207  -3506520.16049  20243506.19549
  -6577629.81306  22204500.10906  -5108021.73447  22204497.33247
   2241491.74207  20948142.08607   1745196.05148  20948138.96548
  -9197118.71106  22292536.35906  -7142203.66048  22292533.01248
  -2889294.28106  23842198.14106  -2241365.68847  23842195.03147
  -1296737.83207  21517931.63307  -1001175.92648  21517926.84848
  -6159172.40606  23249061.32006  -4779413.52047  23249058.89847
   6771319.46106  22889019.25806   5267919.14148  22889017.22748
 08 11 15  0 33 30.0000000  0  9  3  6 13 16 19 21 23 25 31
  -8032048.35907  20119628.76607  -6239421.48849  20119626.45349
  -4532976.68807  20240658.32007  -3518189.59849  20240656.09049
  -6608743.16806  22198579.39106  -5132265.89847  22198576.42647
   2274034.69907  20954334.94507   1770554.18848  20954331.45348
  -9295118.95306  22273887.77306  -7218567.45748  22273883.75048
  -2892394.83605  23841607.17205  -2243781.73446  23841605.36346
  -1275158.40207  21522037.70307   -984360.78548  21522033.14548
  -6250129.24606  23231753.10906  -4850288.98047  23231750.49247
   6851198.50406  22904219.71906   5330162.52748  22904217.66448
 08 11 15  0 34  0.0000000  0  9  3  6 13 16 19 21 23 25 31
  -8079989.22707  20110505.66407  -6276778.00849  20110503.44149
  -4547451.33207  20237904.32007  -3529468.54349  20237901.66849
  -6639244.59407  22192775.12507  -5156033.26647  22192772.39147
   2306758.46107  20960561.87507   1796053.21148  20960558.47348
  -9392806.22706  22255298.92206  -7294687.38748  22255293.67648
  -2895020.93006  23841108.26606  -2245828.04346  23841105.44146
  -1252984.44507  21526257.28907   -967082.39148  21526253.20348
  -6340952.44506  23214469.71906  -4921060.30147  23214468.05547
   6931346.88706  22919471.76606   5392615.77748  22919468.84048
 08 11 15  0 34 30.0000000  0  9  3  6 13 16 19 21 23 25 31
  -8127399.29708  20101484.14808  -6313720.91049  20101481.92649
  -4561416.38307  20235246.85907  -3540350.39549  20235244.45749
  -6669124.50406  22187088.99206  -5179316.30947  22187086.80547
   2339671.54307  20966825.21107   1821699.76648  20966821.65648
  -9490169.54706  22236770.32806  -7370554.89848  22236766.14148
  -2897162.73806  23840700.27306  -2247497.02046  23840696.65246
  -1230208.16007  21530591.57007   -949334.63348  21530586.82448
  -6431630.92606  23197214.15606  -4991718.82847  23197211.98047
   7011772.73006  22934775.76606   5455285.23848  22934773.69948
 08 11 15  0 35  0.0000000  0  9  3  6 13 16 19 21 23 25 31
  -8174286.41408  20092561.60908  -6350256.32449  20092559.50849
  -4574880.10907  20232684.49207  -3550841.61349  20232682.27349
  -6698390.05506  22181520.17206  -5202120.62547  22181517.21547
   2372765.33207  20973122.50007   1847487.12548  20973119.49648
  -9587214.88706  22218303.22706  -7446174.60948  22218299.10548
  -2898826.91806  23840382.72706  -2248793.78146  23840381.16846
  -1206839.00007  21535038.82007   -931124.91448  21535033.70348
  -6522170.48406  23179985.29706  -5062269.14547  23179982.21947
   7092467.11706  22950131.65606   5518163.96147  22950129.65647
 08 11 15  0 35 30.0000000  0  9  3  6 13 16 19 21 23 25 31
  -8220651.74208  20083738.52308  -6386385.14849  20083736.34049
  -4587844.68807  20230217.46907  -3560943.86349  20230215.21949
  -6727042.06606  22176067.95306  -5224446.86747  22176064.83247
   2406037.92607  20979454.24207   1873413.82048  20979450.46948
  -9683941.98406  22199896.82006  -7521546.33648  22199893.03948
  -2900015.00005  23840156.79705  -2249719.59046  23840155.00046
  -1182880.03907  21539597.85207   -912455.60548  21539593.47348
  -6612570.66406  23162782.28106  -5132710.82447  23162780.27347
   7173427.54306  22965537.94506   5581249.98447  22965535.46947
 08 11 15  0 36  0.0000000  0  9  3  6 13 16 19 21 23 25 31
  -8266494.09408  20075014.95308  -6422106.46949  20075012.71549
  -4600310.71907  20227845.19507  -3570657.66049  20227843.07049
  -6755079.82006  22170732.52306  -5246294.48447  22170729.61747
   2439488.62907  20985819.73407   1899479.30148  20985816.08248
  -9780348.85506  22181551.26606  -7596668.57448  22181547.33248
  -2900726.82406  23840021.53106  -2250274.24646  23840019.00446
  -1158332.61707  21544268.95307   -893327.75448  21544264.13748
  -6702829.68006  23145606.94506  -5203042.51647  23145605.06347
   7254652.71506  22980994.78106   5644542.28548  22980993.11348
 08 11 15  0 36 30.0000000  0  9  3  6 13 16 19 21 23 25 31
  -8311804.18408  20066392.97708  -6457413.02749  20066390.62549
  -4612269.85507  20225569.52307  -3579976.45349  20225567.68449
  -6782493.72706  22165515.40606  -5267655.96147  22165512.55547
   2473125.84407  20992220.51607   1925690.11748  20992217.28548
  -9876424.68406  22163268.60906  -7671532.81648  22163264.98048
  -2900952.98405  23839978.78905  -2250450.46947  23839976.11347
  -1133190.00007  21549053.70307   -873736.10948  21549049.03148
  -6792936.52006  23128460.10906  -5273255.62147  23128458.13347
   7336150.25806  22996502.85906   5708046.84048  22996501.34848
 08 11 15  0 37  0.0000000  0  9  3  6 13 16 19 21 23 25 31
  -8356581.05107  20057872.12507  -6492304.10549  20057869.82449
  -4623721.59407  20223390.21107  -3588899.87949  20223388.60949
  -6809281.93006  22160418.39806  -5288529.87947  22160415.45747
   2506950.09407  20998657.43007   1952046.66848  20998654.09048
  -9972166.41806  22145048.95306  -7746136.74248  22145045.82848
  -2900691.72306  23840028.89806  -2250246.84847  23840025.87547
  -1107452.27707  21553951.09407   -853680.74648  21553946.39848
  -6882888.18406  23111343.35206  -5343347.83247  23111340.87147
   7417920.25406  23012063.29706   5771763.68848  23012060.84448
 08 11 15  0 37 30.0000000  0  9  3  6 13 16 19 21 23 25 31
  -8400823.23007  20049453.17207  -6526778.52349  20049450.72749
  -4634665.86307  20221308.16407  -3597427.88349  20221305.84049
  -6835443.17206  22155440.06306  -5308915.27747  22155437.41447
   2540961.52307  21005129.22707   1978549.07048  21005126.40248
 -10067571.44106  22126895.08606  -7820478.32048  22126890.75848
  -2899942.07806  23840171.83606  -2249662.70347  23840168.80547
  -1081120.18407  21558962.14807   -833162.24248  21558958.35248
  -6972681.73006  23094255.61706  -5413316.81347  23094253.88347
   7499962.43006  23027675.73406   5835692.62147  23027673.66047
 08 11 15  0 38  0.0000000  0  9  3  6 13 16 19 21 23 25 31
  -8444531.57807  20041135.52307  -6560836.98049  20041133.56349
  -4645104.70707  20219321.32807  -3605562.04348  20219319.05548
  -6860978.32806  22150580.89806  -5328812.84047  22150578.25047
   2575158.00007  21011636.69507   2005195.66448  21011633.73048
 -10162639.38706  22108804.16406  -7894557.21948  22108799.71548
  -2898705.12906  23840406.93806  -2248698.81647  23840404.06647
  -1054196.78507  21564085.82807   -812182.99248  21564081.37548
  -7062316.73006  23077199.28906  -5483162.27047  23077196.64847
   7582274.28106  23043338.87506   5899831.70348  23043337.77748
 08 11 15  0 38 30.0000000  0  9  3  6 13 16 19 21 23 25 31
  -8487705.44508  20032920.33608  -6594478.95349  20032917.41849
  -4655038.53907  20217430.84407  -3613302.69149  20217429.07849
  -6885886.66006  22145840.77306  -5348221.91847  22145837.95347
   2609539.26207  21018179.34407   2031986.23448  21018175.92648
 -10257368.16806  22090777.51606  -7968371.85948  22090772.69148
  -2896980.02005  23840735.46105  -2247354.59446  23840732.70346
  -1026683.43807  21569321.06307   -790744.04748  21569316.94948
  -7151790.94106  23060172.39106  -5552882.40247  23060169.89547
   7664854.71106  23059052.94506   5964180.04347  23059051.83647
 08 11 15  0 39  0.0000000  0  9  3  6 13 16 19 21 23 25 31
  -8530350.98808  20024805.14808  -6627709.25049  20024802.14549
  -4664474.56307  20215635.30507  -3620655.43449  20215633.49249
  -6910174.01607  22141219.03907  -5367147.12147  22141216.22747
   2644097.93807  21024755.49207   2058915.06348  21024752.28948
 -10351762.57406  22072814.82006  -8041925.93448  22072810.72748
  -2894773.55905  23841154.91405  -2245635.26646  23841153.16446
   -998588.86307  21574667.60907   -768852.19148  21574663.10548
  -7241108.94906  23043176.35906  -5622480.85947  23043173.49647
   7747695.89106  23074818.01606   6028731.58247  23074815.71947
 08 11 15  0 39 30.0000000  0  9  3  6 13 16 19 21 23 25 31
  -8572469.35907  20016790.06307  -6660528.75449  20016787.96549
  -4673415.04307  20213933.98407  -3627622.03949  20213931.98049
  -6933841.45306  22136715.43006  -5385589.28947  22136712.35247
   2678832.46107  21031365.60207   2085980.91848  21031361.86348
 -10445822.38306  22054916.08606  -8115219.26648  22054911.56648
  -2892086.49205  23841665.75005  -2243541.43846  23841663.41046
   -969915.98807  21580123.75007   -746509.71148  21580119.53948
  -7330270.10506  23026209.52306  -5691957.07047  23026206.07047
   7830795.34406  23090630.80506   6093484.37947  23090629.26647
 08 11 15  0 40  0.0000000  0  9  3  6 13 16 19 21 23 25 31
  -8614059.64108  20008875.63308  -6692936.75849  20008873.59049
  -4681859.99607  20212327.03907  -3634202.53149  20212325.18449
  -6956887.90206  22132329.85206  -5403547.56647  22132326.86747
   2713742.60207  21038008.79707   2113183.60548  21038005.61348
 -10539544.97306  22037081.14106  -8188249.83648  22037076.50448
  -2888918.20706  23842268.90606  -2241072.65247  23842266.48847
   -940665.91007  21585689.64807   -723717.46948  21585685.19948
  -7419271.87506  23009271.76606  -5761309.09447  23009270.35947
   7914152.45706  23106493.19506   6158437.93048  23106492.05948
 08 11 15  0 40 30.0000000  0  9  3  6 13 16 19 21 23 25 31
  -8655125.29308  20001061.06308  -6724935.96549  20001059.02049
  -4689813.97307  20210813.51607  -3640400.43849  20210811.16849
  -6979316.57806  22128061.89106  -5421024.44947  22128058.96147
   2748824.35907  21044684.57007   2140520.03548  21044681.33248
 -10632932.14806  22019310.32806  -8261019.07448  22019305.80148
  -2885272.03906  23842963.91406  -2238231.48447  23842960.95747
   -910844.09407  21591364.23407   -700479.69548  21591360.51248
  -7508115.77306  22992366.09406  -5830538.07447  22992364.04347
   7997762.48806  23122403.98406   6223588.56648  23122402.20348
 08 11 15  0 41  0.0000000  0  9  3  6 13 16 19 21 23 25 31
  -8695666.17607  19993346.36707  -6756526.26249  19993344.28949
  -4697277.98007  20209393.13307  -3646216.54349  20209391.25849
  -7001127.67207  22123911.15607  -5438020.10947  22123908.34447
   2784076.70707  21051392.68807   2167989.38348  21051389.59448
 -10725982.58606  22001602.80506  -8333525.88748  22001599.16848
  -2881147.87906  23843748.06306  -2235017.84447  23843745.14147
   -880452.69907  21597147.96107   -676798.09448  21597143.69148
  -7596800.35206  22975489.82006  -5899642.93447  22975487.36347
   8081623.40606  23138361.93006   6288934.71147  23138360.68047
 08 11 15  0 41 30.0000000  0  9  3  6 13 16 19 21 23 25 31
  -8735685.00408  19985731.02308  -6787709.75449  19985728.64149
  -4704255.75807  20208065.41407  -3651653.77749  20208063.05549
  -7022323.47706  22119877.17206  -5454536.31347  22119874.39847
   2819495.93007  21058132.72707   2195588.76248  21058129.88748
 -10818697.65206  21983959.46906  -8405771.39548  21983955.32448
  -2876548.64506  23844623.07806  -2231433.99647  23844620.47347
   -849496.45307  21603038.53107   -652676.35248  21603034.75448
  -7685326.39806  22958644.58606  -5968624.25847  22958641.32047
   8165731.60906  23154367.25806   6354473.51247  23154365.64147
 08 11 15  0 42  0.0000000  0  9  3  6 13 16 19 21 23 25 31
  -8775181.00007  19978215.15607  -6818485.85249  19978213.15649
  -4710747.43407  20206830.06307  -3656712.23448  20206827.72348
  -7042903.15206  22115961.04706  -5470572.42247  22115959.74247
   2855082.47307  21064904.76607   2223318.52348  21064901.82048
 -10911074.57806  21966381.53906  -8477753.39148  21966376.68048
  -2871473.50406  23845589.06306  -2227479.36347  23845586.74247
   -817976.80907  21609036.96907   -628115.60548  21609032.16848
  -7773691.21906  22941828.58606  -6037479.94547  22941826.08247
   8250086.10206  23170419.71106   6420204.25047  23170417.66847
 08 11 15  0 42 30.0000000  0  9  3  6 13 16 19 21 23 25 31
  -8814152.45707  19970799.25807  -6848853.20749  19970797.07849
  -4716752.37507  20205687.42207  -3661391.39848  20205684.99248
  -7062864.92206  22112162.01606  -5486127.06347  22112160.13347
   2890837.09407  21071708.78907   2251179.24648  21071705.51648
 -11003110.31607  21948867.35207  -8549469.53148  21948863.12948
  -2865920.85506  23846644.87506  -2223152.64547  23846642.65247
   -785893.70707  21615142.03907   -603115.79348  21615137.41848
  -7861891.38306  22925044.43806  -6106207.34047  22925042.28547
   8334687.22306  23186518.69506   6486127.16447  23186516.99647
 08 11 15  0 43  0.0000000  0  9  3  6 13 16 19 21 23 25 31
  -8852591.89507  19963484.09407  -6878806.01649  19963482.23049
  -4722263.99207  20204638.57007  -3665686.16449  20204635.97749
  -7082200.89507  22108482.79707  -5501194.06647  22108480.27047
   2926766.51207  21078546.00007   2279176.17648  21078542.47348
 -11094795.95707  21931420.60207  -8620912.87948  21931416.31348
  -2859883.26606  23847794.66406  -2218447.99646  23847790.96946
   -753241.94507  21621355.26607   -577672.87948  21621350.77748
  -7949917.31606  22908293.83606  -6174798.95747  22908291.21947
   8419541.11706  23202666.16406   6552247.05147  23202664.05947
 08 11 15  0 43 30.0000000  0  9  3  6 13 16 19 21 23 25 31
  -8890513.94507  19956267.99207  -6908355.66449  19956265.87949
  -4727298.29707  20203680.15607  -3669608.99249  20203678.02749
  -7100926.15606  22104919.82006  -5515785.16847  22104917.83247
   2962855.24607  21085413.25807   2307297.26248  21085409.98848
 -11186144.71506  21914037.27306  -8692093.71548  21914032.95348
  -2853375.69506  23849032.82806  -2213377.19546  23849028.92646
   -720038.51607  21627673.37507   -551800.09048  21627669.27748
