     2              OBSERVATION DATA                        RINEX VERSION / TYPE
DAT2RINW 3.10 001   .                   16NOV08 14:24:09    PGM / RUN BY / DATE 
.                   .                                       OBSERVER / AGENCY   
0220372125          TRIMBLE 5700        Nav 2.30 Sig 2.30   REC # / TYPE / VERS 
0                   TRM39105.00     NONE                    ANT # / TYPE        
----------------------------------------------------------- COMMENT             
Offset from BOTTOM OF ANTENNA to PHASE CENTER is  46.0 mm   COMMENT             
----------------------------------------------------------- COMMENT             
0231                                                        MARKER NAME
0231                                                        MARKER NUMBER       
 -3067629.5392  4051259.1751  3841867.5811                  APPROX POSITION XYZ 
        1.2990        0.0000        0.0000                  ANTENNA: DELTA H/E/N
*** Above antenna height is from mark to BOTTOM OF ANTENNA. COMMENT             
----------------------------------------------------------- COMMENT             
Note: The above offsets are CORRECTED.                      COMMENT             
Raw Offsets: H=      1.3410 E=      0.0000 N=      0.0000   COMMENT             
----------------------------------------------------------- COMMENT             
     1     1     0                                          WAVELENGTH FACT L1/2
     4    L1    C1    L2    P2                              # / TYPES OF OBSERV 
    30                                                      INTERVAL            
  2008    11    15     0     0    0.000000                  TIME OF FIRST OBS   
  2008    11    15     8    10    0.000000                  TIME OF LAST OBS    
    20                                                      # OF SATELLITES     
     2     7     7     7     7                              PRN / # OF OBS      
     3   638   639   632   632                              PRN / # OF OBS      
     4   218   222   208   208                              PRN / # OF OBS      
     6   578   579   575   575                              PRN / # OF OBS      
     7   537   538   533   533                              PRN / # OF OBS      
     8   451   452   445   445                              PRN / # OF OBS      
    11   671   673   623   624                              PRN / # OF OBS      
    13   375   376   335   335                              PRN / # OF OBS      
    16   449   449   441   441                              PRN / # OF OBS      
    17   417   417   417   417                              PRN / # OF OBS      
    19   699   704   680   680                              PRN / # OF OBS      
    20   353   356   350   350                              PRN / # OF OBS      
    21   143   145    97    97                              PRN / # OF OBS      
    23   411   418   389   389                              PRN / # OF OBS      
    25   565   568   539   539                              PRN / # OF OBS      
    27   459   460   449   449                              PRN / # OF OBS      
    28   546   546   546   546                              PRN / # OF OBS      
    29     6    10     0     0                              PRN / # OF OBS      
    31   190   192   171   171                              PRN / # OF OBS      
    32   306   322   251   251                              PRN / # OF OBS      
                                                            END OF HEADER       
 08 11 14 23 59 59.9980000  0  7  3  6 13 16 19 23 31
 -15421959.77006  20232726.81806 -11774204.96547  20232723.34247
 -12113868.63307  19930696.91207  -9363523.18848  19930693.79948
  -7628711.27306  22137803.10006  -5916552.53147  22137800.68947
  -2419801.46507  19917537.33407  -1871642.89148  19917533.63948
  -1253925.94505  22916578.10705   -546956.63346  22916571.99446
  -9849089.10207  20798476.41207  -7640795.87548  20798471.14348
   2399188.66406  21295978.98206   1874175.84047  21295974.52947
 08 11 15  0  0 29.9980000  0  8  3  6 13 16 19 21 23 31
 -15516125.45306  20214807.77106 -11847580.80547  20214804.82247
 -12175600.69107  19918949.76407  -9411626.08248  19918946.74848
  -7711132.25406  22122119.47506  -5980776.73047  22122115.42847
  -2414418.31307  19918561.71707  -1867448.23848  19918557.48248
  -1381572.11703  22892287.54503   -646421.16446  22892282.22546
    -92561.22311  23357897.89601         0.00000         0.00000
  -9882523.85507  20792113.85707  -7666848.91448  20792108.30348
   2445488.39506  21304788.80306   1910253.52047  21304785.53347
 08 11 15  0  0 59.9980000  0  8  3  6 13 16 19 21 23 31
 -15609795.74606  20196983.14606 -11920570.64147  20196980.01447
 -12236787.35507  19907306.54507  -9459303.99249  19907303.66649
  -7792995.49606  22106541.22506  -6044566.30147  22106537.26047
  -2408753.02707  19919640.10007  -1863033.74248  19919635.13548
  -1508995.39106  22868041.02906   -745712.09046  22868034.91246
   -138014.62102  23349250.10702         0.00000         0.00000
  -9915278.86707  20785880.69307  -7692372.28148  20785874.88548
   2492158.08206  21313669.74806   1946619.48447  21313665.26447
 08 11 15  0  1 29.9980000  0  9  3  6 13 16 19 21 23 25 31
 -15702971.53906  20179252.54506 -11993175.12947  20179249.74447
 -12297430.46108  19895766.48208  -9506558.35248  19895763.14648
  -7874300.86305  22091068.89605  -6107921.08247  22091066.12347
  -2402809.40607  19920770.96707  -1858402.36748  19920766.33848
  -1636196.12106  22843834.85006   -844829.51246  22843829.89646
   -183016.72702  23340684.17802         0.00000         0.00000
  -9947356.32807  20779776.92807  -7717367.73048  20779771.13148
   -196140.16814  23664808.57604   -144876.14556  23664807.17046
   2539195.12506  21322620.73206   1983271.70346  21322614.70946
 08 11 15  0  1 59.9980000  0  9  3  6 13 16 19 21 23 25 31
 -15795650.77006  20161616.69306 -12065392.67247  20161613.36547
 -12357528.94107  19884329.78707  -9553388.33248  19884326.74048
  -7955045.19106  22075704.74006  -6170838.78547  22075700.23647
  -2396587.96507  19921954.92807  -1853554.48848  19921950.95948
  -1763171.85906  22819672.84206   -943771.60947  22819667.82247
   -227565.54702  23332206.88102         0.00000         0.00000
  -9978755.75807  20773802.42807  -7741834.82848  20773797.06148
   -305412.78505  23644015.70905   -230023.66446  23644013.30746
   2586599.23006  21331640.72506   2020209.94546  21331635.95946
 08 11 15  0  2 29.9980000  0  9  3  6 13 16 19 21 23 25 31
 -15887837.28506  20144073.61506 -12137226.32447  20144070.66647
 -12417087.79707  19872996.35707  -9599797.84848  19872993.14648
  -8035232.17606  22060444.82606  -6233322.10947  22060440.61147
  -2390095.01207  19923190.46707  -1848495.05548  19923185.79148
  -1889925.77706  22795551.35006  -1042540.87147  22795548.06147
   -271665.22301  23323815.05301         0.00000         0.00000
 -10009482.28907  20767955.38907  -7765777.57848  20767948.83848
   -414618.51206  23623234.82606   -315119.02346  23623232.52946
   2634364.27306  21340730.92806   2057429.43046  21340726.05746
 08 11 15  0  2 59.9980000  0  9  3  6 13 16 19 21 23 25 31
 -15979513.29306  20126627.43606 -12208662.17247  20126624.61147
 -12476090.02707  19861768.43607  -9645773.60548  19861765.17048
  -8114843.14506  22045295.79506  -6295356.61747  22045292.28347
  -2383315.41407  19924480.54507  -1843212.25448  19924476.06148
  -2016439.39106  22771477.44306  -1141122.91047  22771473.20147
   -315298.23801  23315511.60001         0.00000         0.00000
 -10039519.23407  20762239.17807  -7789182.96548  20762233.15048
   -523739.22305  23602469.82605   -400148.10246  23602467.23646
   2682506.39106  21349891.73206   2094942.74246  21349887.63146
 08 11 15  0  3 29.9980000  0  9  3  6 13 16 19 21 23 25 31
 -16070673.77306  20109280.77106 -12279696.32047  20109278.21747
 -12534531.47707  19850647.38907  -9691312.39848  19850644.02948
  -8193872.23806  22030257.21706  -6356937.74647  22030253.82247
  -2376246.34407  19925825.78707  -1837703.88748  19925821.57648
  -2142706.72306  22747449.02906  -1239513.03547  22747445.30347
   -358458.47702  23307299.45902         0.00000         0.00000
 -10068862.62907  20756655.08407  -7812047.95748  20756649.67848
   -632769.89105  23581721.37305   -485107.05146  23581716.62746
   2731028.39106  21359124.57606   2132752.11747  21359120.72947
 08 11 15  0  3 59.9980000  0  9  3  6 13 16 19 21 23 25 31
 -16161317.61306  20092031.80306 -12350327.84847  20092029.67447
 -12592412.46907  19839633.18607  -9736414.46148  19839630.64348
  -8272318.84806  22015329.10006  -6418064.96947  22015325.96347
  -2368889.82007  19927225.44307  -1831971.56348  19927221.45148
  -2268726.44106  22723468.33406  -1337710.24647  22723463.81147
   -401145.85901  23299173.92801         0.00000         0.00000
 -10097513.16807  20751203.00607  -7834373.09448  20751198.42448
   -741710.23805  23560990.42805   -569995.54746  23560986.48646
   2779929.08206  21368430.54506   2170856.51247  21368426.86547
 08 11 15  0  4 29.9980000  0  9  3  6 13 16 19 21 23 25 31
 -16251443.79306  20074881.87306 -12420556.05948  20074880.19748
 -12649733.19507  19828725.10007  -9781079.97348  19828722.47948
  -8350181.64807  22000513.10007  -6478737.27747  22000509.35447
  -2361247.47707  19928680.31107  -1826016.50448  19928675.79548
  -2394497.06606  22699534.81806  -1435713.32447  22699531.82247
   -443359.70713  23291145.24003         0.00000         0.00000
 -10125471.50007  20745882.67807  -7856158.82448  20745876.41248
   -850559.21904  23540277.60004   -654812.89146  23540273.86946
   2829207.39806  21377807.69306   2209255.17646  21377805.25646
 08 11 15  0  4 59.9980000  0  9  3  6 13 16 19 21 23 25 31
 -16341059.30506  20057827.99006 -12490386.31347  20057826.36147
 -12706500.97307  19817922.49807  -9825314.58648  19817920.02548
  -8427466.05506  21985805.49806  -6538958.88347  21985802.42847
  -2353328.38307  19930187.15407  -1819845.80148  19930182.11548
  -2520024.21106  22675647.86506  -1533526.68447  22675645.30347
   -485106.28102  23283199.53702         0.00000         0.00000
 -10152745.41007  20740692.43607  -7877411.21148  20740685.92848
   -959323.54305  23519578.86505   -739564.31346  23519576.58046
   2878854.45306  21387256.00606   2247941.20346  21387251.35446
 08 11 15  0  5 29.9980000  0  9  3  6 13 16 19 21 23 25 31
 -16430160.12506  20040873.42806 -12559815.51647  20040870.17047
 -12762712.84007  19807225.95907  -9869116.03549  19807222.92849
  -8504167.90206  21971209.88906  -6598726.58247  21971206.41247
  -2345130.76207  19931747.14607  -1813458.05148  19931742.70548
  -2645303.28506  22651808.17806  -1631146.72747  22651805.48647
   -526381.53504  23275345.77104    -17327.19155  23275341.84245
 -10179332.27707  20735633.35707  -7898128.27048  20735626.44348
  -1067999.04705  23498899.52905   -824246.50046  23498896.81146
   2928872.23006  21396773.95106   2286916.06346  21396769.87346
 08 11 15  0  5 59.9980000  0  9  3  6 13 16 19 21 23 25 31
 -16518741.88706  20024016.26406 -12628840.27047  20024012.76447
 -12818365.76207  19796635.60007  -9912481.95748  19796632.24848
  -8580282.44906  21956725.27106  -6658036.64147  21956722.26047
  -2336653.06307  19933360.64607  -1806852.05148  19933356.57648
  -2770329.47306  22628015.79506  -1728569.67646  22628013.48646
   -567181.55104  23267581.15404    -49119.42645  23267578.85745
 -10205229.56307  20730705.80307  -7918307.99648  20730699.85748
  -1176581.81606  23478238.63106   -908856.48447  23478234.59647
   2979262.93805  21406362.67805   2326181.51246  21406360.21346
 08 11 15  0  6 29.9980000  0  9  3  6 13 16 19 21 23 25 31
 -16606803.07006  20007258.95906 -12697459.34847  20007256.03347
 -12873459.38307  19786151.48207  -9955412.06348  19786148.23648
  -8655807.89506  21942352.82606  -6716887.59847  21942349.69347
  -2327896.21907  19935026.93607  -1800028.55149  19935022.10449
  -2895100.56306  22604273.27106  -1825793.85946  22604269.32246
   -607504.86703  23259905.99803    -80540.05945  23259904.63145
 -10230437.19907  20725909.25607  -7937950.33648  20725903.57248
  -1285070.50806  23457593.85706   -993393.16047  23457590.84647
   3030025.71506  21416022.75606   2365736.88346  21416019.24446
 08 11 15  0  6 59.9970000  0  9  3  6 13 16 19 21 23 25 31
 -16694340.88706  19990601.22806 -12765670.62947  19990598.67347
 -12927992.68007  19775774.29007  -9997905.54348  19775770.88048
  -8730740.84006  21928094.41506  -6775276.94947  21928090.08747
  -2318862.88707  19936745.62607  -1792989.60548  19936741.19248
  -3019611.61706  22580579.04006  -1922815.41446  22580574.27846
   -647349.96105  23252325.43105   -111588.18446  23252321.51346
 -10254955.50807  20721243.11007  -7957055.51248  20721237.81048
  -1393461.28106  23436967.38406  -1077853.46147  23436963.59547
   3081157.18405  21425752.27405   2405579.53546  21425748.58746
 08 11 15  0  7 29.9970000  0  9  3  6 13 16 19 21 23 25 31
 -16781343.33206  19974045.08706 -12833464.71547  19974042.36047
 -12981952.61707  19765505.61007 -10039952.23848  19765502.79848
  -8805068.41406  21913950.11806  -6833194.49647  21913947.04047
  -2309536.97307  19938520.57907  -1785722.68448  19938515.95448
  -3143852.44106  22556937.29006  -2019626.42646  22556931.06746
   -686701.76205  23244837.24305   -142251.96545  23244831.76745
 -10278769.77007  20716710.61007  -7975612.08648  20716705.72048
  -1501743.59006  23416361.12606  -1162229.24647  23416357.81747
   3132676.34405  21435556.45405   2445724.34846  21435552.23946
 08 11 15  0  7 59.9970000  0  9  3  6 13 16 19 21 23 25 31
 -16867809.35206  19957590.90706 -12900840.84447  19957588.07547
 -13035339.89807  19755346.62607 -10081552.71948  19755343.52448
  -8878789.26206  21899920.68806  -6890639.30147  21899916.97047
  -2299922.99607  19940349.95407  -1778231.27048  19940345.89248
  -3267819.56306  22533346.62606  -2116224.16046  22533340.63446
   -725560.81605  23237441.36805   -172531.68845  23237437.98545
 -10301882.37907  20712312.93807  -7993621.91848  20712307.62248
  -1609915.40206  23395776.86006  -1246518.94147  23395773.94647
   3184577.84805  21445432.14205   2486167.01646  21445429.26746
 08 11 15  0  8 29.9970000  0  9  3  6 13 16 19 21 23 25 31
 -16953745.73006  19941237.24306 -12967804.28547  19941235.02847
 -13088162.77307  19745294.56307 -10122713.40648  19745291.45448
  -8951909.46106  21886007.22806  -6947616.10947  21886001.61847
  -2290030.27007  19942232.16507  -1770522.65648  19942228.67348
  -3391519.28506  22509806.82106  -2212613.50046  22509800.96246
   -763934.36705  23230139.39905   -202433.12946  23230136.59946
 -10324301.81607  20708047.05607  -8011091.61748  20708041.73548
  -1717983.75405  23375212.33705  -1330728.02347  23375208.02447
   3236852.41005  21455379.96205   2526900.42646  21455378.02446
 08 11 15  0  8 59.9970000  0  9  3  6 13 16 19 21 23 25 31
 -17039137.80106  19924988.15706 -13034343.55147  19924985.48947
 -13140407.33607  19735353.26707 -10163423.44948  19735349.87248
  -9024414.16806  21872210.02406  -7004113.25047  21872206.62247
  -2279846.21107  19944170.14907  -1762587.04748  19944166.02848
  -3514936.12106  22486321.79006  -2308782.44546  22486315.32546
   -801807.50806  23222932.56306   -231944.60246  23222930.08346
 -10346014.87507  20703915.10307  -8028010.87548  20703909.20848
  -1825933.60506  23354670.36006  -1414844.77047  23354666.48947
   3289513.02306  21465400.70406   2567934.69546  21465397.27446
 08 11 15  0  9 29.9970000  0  9  3  6 13 16 19 21 23 25 31
 -17123991.87507  19908841.35307 -13100463.62947  19908837.58747
 -13192081.14107  19725519.93807 -10203688.77049  19725517.25149
  -9096308.97706  21858528.53206  -7060135.18447  21858525.62647
  -2269379.55507  19946162.32107  -1754431.22348  19946157.38048
  -3638075.67206  22462888.96206  -2404735.28547  22462883.62247
   -839186.38306  23215820.97006   -261070.97746  23215816.95446
 -10367029.33607  20699915.90707  -8044385.77348  20699910.71648
  -1933771.36705  23334149.16505  -1498874.18446  23334144.75946
   3342551.19506  21475494.18106   2609263.08246  21475489.48946
 08 11 15  0  9 59.9970000  0  9  3  6 13 16 19 21 23 25 31
 -17208304.14506  19892796.49306 -13166161.50047  19892794.27447
 -13243181.42207  19715796.10307 -10243507.16448  19715793.14648
  -9167590.32406  21844964.90706  -7115679.08247  21844961.05247
  -2258629.19907  19948207.74307  -1746054.31648  19948203.66948
  -3760933.32006  22439509.82906  -2500468.42246  22439505.21246
   -876067.52705  23208801.34505   -289809.54746  23208798.93846
 -10387343.05907  20696050.64207  -8060214.64148  20696044.19248
  -2041493.09804  23313649.73504  -1582813.16046  23313646.72846
   3395968.87906  21485659.93806   2650887.21947  21485656.14247
 08 11 15  0 10 29.9970000  0  9  3  6 13 16 19 21 23 25 31
 -17292069.39106  19876856.04006 -13231433.09847  19876853.91147
 -13293704.05907  19706181.56307 -10282875.43448  19706178.53648
  -9238251.96506  21831517.84506  -7170740.11347  21831515.50547
  -2247591.96107  19950308.04807  -1737453.86748  19950303.88848
  -3883503.05106  22416185.22006  -2595977.19147  22416181.42747
   -912445.86705  23201878.78205   -318156.30946  23201875.23946
 -10406952.18007  20692319.04807  -8075494.49648  20692312.75948
  -2149093.28502  23293175.25102  -1666657.44146  23293171.03246
   3449768.94906  21495897.18106   2692809.33247  21495893.48147
 08 11 15  0 10 59.9970000  0  9  3  6 13 16 19 21 23 25 31
 -17375290.30906  19861019.93106 -13296280.52748  19861017.57948
 -13343652.69507  19696676.90707 -10321796.46548  19696673.72448
  -9308295.93806  21818188.97006  -7225319.85547  21818185.50947
  -2236272.59807  19952461.75907  -1728633.60548  19952457.43848
  -4005786.62906  22392915.89906  -2691263.07047  22392911.66547
   -948323.93406  23195052.35306   -346113.27046  23195048.31746
 -10425860.91407  20688720.95407  -8090228.57848  20688715.18548
  -2256574.31605  23272721.23505  -1750408.89146  23272717.82146
   3503946.87906  21506206.33706   2735025.89547  21506202.89247
 08 11 15  0 11 29.9970000  0  9  3  6 13 16 19 21 23 25 31
 -17457961.21506  19845288.81306 -13360699.40248  19845286.34148
 -13393022.56307  19687281.71207 -10360266.47348  19687278.90748
  -9377715.67606  21804978.93106  -7279413.18847  21804975.93147
  -2224667.42207  19954670.38407  -1719590.60948  19954665.99748
  -4127777.35906  22369701.70406  -2786320.74247  22369697.99347
   -983696.09805  23188320.79805   -373675.99246  23188316.46646
 -10444065.10207  20685257.05607  -8104413.67648  20685250.43148
  -2363930.18405  23252292.37605  -1834062.79747  23252288.53247
   3558506.49606  21516589.62606   2777539.85247  21516585.41947
 08 11 15  0 11 59.9970000  0  9  3  6 13 16 19 21 23 25 31
 -17540079.50407  19829662.11807 -13424687.68448  19829658.91548
 -13441812.38707  19677997.38407 -10398284.51648  19677994.66948
  -9446509.41806  21791887.56306  -7333018.66447  21791884.31047
  -2212776.49607  19956933.43107  -1710324.96948  19956928.89248
  -4249472.14506  22346544.07106  -2881147.79347  22346540.47847
  -1018559.85505  23181686.01705   -400842.53946  23181681.57946
 -10461563.90207  20681926.99307  -8118049.07048  20681921.07148
  -2471158.48406  23231886.43106  -1917617.27346  23231883.47446
   3613448.12906  21527044.56306   2820351.50447  21527040.86447
 08 11 15  0 12 29.9970000  0  9  3  6 13 16 19 21 23 25 31
 -17621641.05107  19814141.87607 -13488242.14148  19814138.70448
 -13490019.05507  19668824.36007 -10435848.14848  19668821.08348
  -9514671.67606  21778916.60306  -7386132.15246  21778911.93146
  -2200598.03107  19959250.60307  -1700835.27348  19959246.52148
  -4370865.84406  22323443.74306  -2975740.23446  22323439.74746
  -1052911.10205  23175149.23505   -427609.79746  23175144.40346
 -10478354.66007  20678731.11807  -8131132.78948  20678726.26348
  -2578254.54305  23211507.08705  -2001068.70747  23211504.94247
   3668774.12506  21537572.91506   2863462.65647  21537569.62247
 08 11 15  0 12 59.9970000  0  9  3  6 13 16 19 21 23 25 31
 -17702640.81606  19798727.72806 -13551358.84448  19798724.21248
 -13537638.68007  19659762.75907 -10472954.35949  19659759.52449
  -9582197.36306  21766067.41506  -7438749.55547  21766062.87647
  -2188128.99207  19961623.23507  -1691119.15248  19961619.15348
  -4491952.69506  22300401.96206  -3070093.62947  22300397.96647
  -1086745.11305  23168710.18105   -453973.93046  23168705.88446
 -10494434.20307  20675671.87607  -8143662.30148  20675666.12648
  -2685213.24205  23191153.40705  -2084413.14546  23191151.69646
   3724486.94106  21548174.86006   2906875.21547  21548171.86447
 08 11 15  0 13 29.9970000  0  9  3  6 13 16 19 21 23 25 31
 -17783075.28907  19783421.82907 -13614035.07848  19783418.87248
 -13584668.53907  19650813.25107 -10509601.00848  19650810.62648
  -9649082.71906  21753339.93106  -7490868.05147  21753335.32147
  -2175367.80107  19964051.96207  -1681175.38348  19964047.69648
  -4612728.14106  22277419.68806  -3164204.40247  22277415.27447
  -1120057.91005  23162371.39905   -479931.92246  23162367.25546
 -10509800.13707  20672747.98507  -8155635.73848  20672742.13048
  -2792030.43005  23170826.54005  -2167647.36246  23170826.15746
   3780588.67606  21558850.13406   2950590.82047  21558847.45047
 08 11 15  0 13 59.9970000  0  9  3  6 13 16 19 21 23 25 31
 -17862944.67206  19768222.54806 -13676270.95348  19768220.09948
 -13631109.96107  19641975.13407 -10545789.10548  19641972.57148
  -9715326.46107  21740734.75907  -7542486.52047  21740729.31347
  -2162317.00007  19966535.65707  -1671005.93448  19966531.20048
  -4733191.43006  22254495.56306  -3258071.86347  22254491.43847
  -1152850.06306  23156131.53206   -505484.18846  23156126.29046
 -10524454.52307  20669959.11007  -8167054.73048  20669954.01748
  -2898706.23005  23150528.00105  -2250771.34046  23150525.04046
   3837077.15605  21569598.97805   2994607.78546  21569596.57146
 08 11 15  0 14 29.9970000  0  9  3  6 13 16 19 21 23 25 31
 -17942240.07806  19753133.39906 -13738059.56648  19753131.02148
 -13676955.14107  19633251.23507 -10581512.60949  19633249.14949
  -9780919.98407  21728252.30607  -7593598.36747  21728248.88047
  -2148969.78507  19969075.41507  -1660605.53148  19969071.45448
  -4853332.76606  22231633.37606  -3351688.43847  22231628.75547
  -1185112.72706  23149991.94606   -530624.03546  23149986.64946
 -10538389.93406  20667306.97806  -8177913.52748  20667302.23548
  -3005231.14805  23130256.72005  -2333777.73446  23130252.99746
   3893959.15605  21580423.98505   3038931.40246  21580421.12246
 08 11 15  0 14 59.9970000  0  9  3  6 13 16 19 21 23 25 31
 -18020964.14106  19738153.33706 -13799402.98848  19738149.98948
 -13722207.59807  19624640.24307 -10616774.25048  19624636.87648
  -9845865.66806  21715893.31306  -7644205.42647  21715889.09547
  -2135330.63307  19971670.92307  -1649977.62948  19971666.50548
  -4973153.82806  22208832.02406  -3445055.46547  22208826.59547
  -1216848.38706  23143952.86006   -555353.11746  23143947.12246
 -10551610.69107  20664791.11007  -8188215.44948  20664785.81748
  -3111607.41806  23110014.90706  -2416668.32447  23110009.62247
   3951230.28105  21591322.52405   3083558.20346  21591319.83746
 08 11 15  0 15 29.9970000  0  9  3  6 13 16 19 21 23 25 31
 -18099110.53506  19723282.08706 -13860296.28948  19723278.70448
 -13766862.38307  19616142.82907 -10651570.18848  19616139.32148
  -9910156.26207  21703659.36807  -7694301.97747  21703654.98147
  -2121395.26207  19974322.64207  -1639118.88348  19974318.35648
  -5092647.29706  22186092.94606  -3538167.25447  22186087.16147
  -1248050.79706  23138014.98506   -579666.65646  23138011.46246
 -10564112.09407  20662412.60307  -8197956.80148  20662407.16548
  -3217828.40206  23089801.29006  -2499437.87146  23089796.07146
   4008894.64105  21602296.28205   3128491.46146  21602292.91146
 08 11 15  0 15 59.9970000  0  9  3  6 13 16 19 21 23 25 31
 -18176677.25406  19708521.30606 -13920737.88348  19708519.00548
 -13810918.31607  19607759.00907 -10685899.48848  19607755.63048
  -9973789.14507  21691549.91507  -7743886.02047  21691545.71247
  -2107163.84007  19977030.45407  -1628029.46148  19977025.89648
  -5211810.17206  22163417.49306  -3631021.44547  22163410.55247
  -1278717.87506  23132179.14206   -603563.03946  23132175.45446
 -10575893.65607  20660170.45407  -8207137.25448  20660164.82948
  -3323891.43006  23069618.38406  -2582084.39146  23069613.14946
   4066952.64505  21613343.22805   3173731.44946  21613340.39246
 08 11 15  0 16 29.9970000  0  9  3  6 13 16 19 21 23 25 31
 -18253656.32807  19693873.14907 -13980721.54348  19693870.32148
 -13854368.88707  19599490.94607 -10719757.07049  19599487.31049
 -10036756.35906  21679568.10306  -7792951.41047  21679564.11847
  -2092630.53507  19979796.47007  -1616704.82048  19979791.91548
  -5330633.70306  22140805.25906  -3723611.19947  22140798.96247
  -1308842.11706  23126446.83706   -627036.45746  23126443.20046
 -10586949.51206  20658066.69606  -8215752.22748  20658061.64648
  -3429788.60206  23049466.30606  -2664601.66447  23049462.61047
   4125409.76605  21624466.97805   3219282.44546  21624463.98946
 08 11 15  0 16 59.9970000  0  9  3  6 13 16 19 21 23 25 31
 -18330051.52707  19679336.07107 -14040250.28148  19679332.06348
 -13897218.46907  19591336.67307 -10753146.35948  19591333.65348
 -10099061.21106  21667711.21206  -7841500.64547  21667708.72047
  -2077800.69107  19982618.19607  -1605149.10948  19982614.35348
  -5449120.26206  22118258.30606  -3815938.35547  22118252.91147
  -1338427.08606  23120816.84506   -650089.70346  23120811.77846
 -10597284.76607  20656100.14207  -8223805.70348  20656094.79848
  -3535522.44105  23029345.21205  -2746991.63747  23029342.95047
   4184260.92205  21635666.15705   3265140.43846  21635663.42346
 08 11 15  0 17 29.9970000  0  9  3  6 13 16 19 21 23 25 31
 -18405867.32007  19664908.22007 -14099327.53948  19664904.30648
 -13939473.01607  19583295.68807 -10786071.98448  19583293.23548
 -10160707.52007  21655980.83707  -7889536.71547  21655977.24347
  -2062681.25007  19985495.39907  -1593367.73448  19985491.61448
  -5567273.98006  22095774.26706  -3908006.18047  22095769.40347
  -1367477.53106  23115288.33706   -672726.37146  23115284.18846
 -10606905.89807  20654269.47007  -8231302.70348  20654263.86448
  -3641097.27006  23009255.91506  -2829257.73847  23009252.55647
   4243499.19505  21646939.37605   3311300.10246  21646935.46246
 08 11 15  0 17 59.9970000  0  9  3  6 13 16 19 21 23 25 31
 -18481103.37907  19650591.04007 -14157953.03948  19650586.65348
 -13981132.99207  19575368.32107 -10818534.29749  19575365.79449
 -10221694.68806  21644374.61806  -7937059.14847  21644371.02447
  -2047273.69107  19988427.79007  -1581361.85248  19988423.68548
  -5685093.23406  22073354.17306  -3999813.34847  22073349.38047
  -1395992.79306  23109862.61806   -694946.02046  23109859.11446
 -10615813.77007  20652574.14207  -8238243.90248  20652568.79448
  -3746512.10506  22989196.64906  -2911399.16047  22989192.95047
   4303123.58605  21658286.17305   3357760.63346  21658280.90746
 08 11 15  0 18 29.9970000  0  9  3  6 13 16 19 21 23 25 31
 -18555772.69107  19636381.54007 -14216136.91848  19636378.55248
 -14022212.60507  19567551.10307 -10850544.39548  19567547.95448
 -10282036.04306  21632892.82106  -7984078.41047  21632889.13847
  -2031592.87107  19991411.74307  -1569143.03949  19991407.63049
  -5802590.04306  22050994.68106  -4091369.27747  22050989.93147
  -1423986.14806  23104535.66506   -716759.02346  23104531.39646
 -10624023.23807  20651011.67307  -8244640.90648  20651005.72048
  -3851779.58206  22969165.43806  -2993425.74647  22969161.21647
   4363118.75005  21669702.16505   3404510.03545  21669697.36445
 08 11 15  0 18 59.9970000  0  9  3  6 13 16 19 21 23 25 31
 -18629883.68807  19622278.43807 -14273885.71948  19622276.04448
 -14062721.21507  19559842.47807 -10882109.55948  19559839.62648
 -10341738.39806  21621531.28206  -8030599.72747  21621528.84547
  -2015649.12507  19994445.19607  -1556719.35548  19994441.86848
  -5919771.62906  22028696.57906  -4182679.59047  22028690.97047
  -1451466.16006  23099306.22806   -738172.04746  23099301.76746
 -10631544.61307  20649580.47807  -8250501.71148  20649573.99748
  -3956907.35206  22949159.07906  -3075343.48847  22949156.28247
   4423474.28904  21681187.06304   3451540.26245  21681182.74745
 08 11 15  0 19 29.9970000  0  9  3  6 13 16 19 21 23 25 31
 -18703445.64507  19608280.79807 -14331206.69948  19608278.11848
 -14102669.78107  19552240.14907 -10913238.30548  19552237.38048
 -10400811.04306  21610290.19606  -8076630.36347  21610287.23947
  -1999453.81307  19997527.61007  -1544099.65648  19997523.45848
  -6036646.71906  22006455.96206  -4273751.05147  22006450.71647
  -1478442.25806  23094173.99306   -759192.39146  23094168.07946
 -10638389.10507  20648278.03207  -8255835.10948  20648271.30648
  -4061904.30906  22929179.07906  -3157159.28947  22929175.83347
   4484178.90604  21692739.36804   3498842.56346  21692734.64646
 08 11 15  0 19 59.9970000  0  9  3  6 13 16 19 21 23 25 31
 -18776463.06307  19594385.97007 -14388103.38748  19594383.27148
 -14142063.27007  19544744.50107 -10943934.51248  19544740.82548
 -10459258.18406  21599168.97006  -8122173.63747  21599164.70047
  -1983013.33207  20000655.96207  -1531288.89548  20000650.98148
  -6153217.95306  21984273.32106  -4364585.76647  21984267.81347
  -1504918.93406  23089134.92306   -779823.52046  23089131.21246
 -10644562.74207  20647103.51707  -8260645.73848  20647097.08748
  -4166774.05506  22909222.11806  -3238875.95347  22909219.61847
   4545226.66804  21704355.67304   3546412.27345  21704350.88045
 08 11 15  0 20 29.9970000  0  9  3  6 13 16 19 21 23 25 31
 -18848946.27007  19580593.18107 -14444583.81648  19580590.06748
 -14180913.07007  19537351.52407 -10974207.09048  19537348.08748
 -10517089.59007  21588163.93807  -8167237.02747  21588159.40347
  -1966339.46907  20003828.95407  -1518296.28548  20003824.59548
  -6269495.17606  21962145.70406  -4455191.40247  21962141.29047
  -1530906.09006  23084189.76706   -800073.23046  23084184.40346
 -10650077.38307  20646053.94607  -8264942.90248  20646048.37648
  -4271526.07006  22889288.69606  -3320500.90247  22889285.27447
   4606605.21503  21716036.24303   3594239.71945  21716032.28645
 08 11 15  0 20 59.9970000  0  9  3  6 13 16 19 21 23 25 31
 -18920895.62907  19566901.06307 -14500648.23048  19566898.61448
 -14219220.89107  19530061.23507 -11004057.32848  19530058.22048
 -10574305.33207  21577275.64207  -8211820.70347  21577271.80647
  -1949434.30507  20007046.07107  -1505123.46148  20007041.93848
  -6385477.58206  21940075.68106  -4545567.31647  21940071.05647
  -1556404.42606  23079337.71206   -819942.09046  23079331.61446
 -10654935.38307  20645129.94607  -8268728.37548  20645124.14948
  -4376160.17605  22869376.92305  -3402033.96547  22869373.73947
   4668312.26604  21727780.73504   3642323.14545  21727776.14945
 08 11 15  0 21 29.9970000  0  9  3  6 13 16 19 21 23 25 31
 -18992313.97707  19553310.76707 -14556298.87148  19553308.08348
 -14256990.36307  19522874.27407 -11033488.08648  19522871.15348
 -10630907.84406  21566504.65706  -8255926.53947  21566500.17747
  -1932302.67607  20010305.49307  -1491774.14148  20010301.61848
  -6501166.65206  21918060.90706  -4635714.63747  21918056.59547
  -1581416.65206  23074577.86806   -839432.14147  23074572.81747
 -10659141.15607  20644329.32907  -8272005.59848  20644323.96648
  -4480678.39105  22849488.14205  -3483476.70347  22849484.41947
   4730343.43403  21739583.16503   3690659.12545  21739580.22845
 08 11 15  0 21 59.9970000  0  9  3  6 13 16 19 21 23 25 31
 -19063208.75007  19539820.24307 -14611541.55948  19539817.50148
 -14294230.32807  19515787.47007 -11062506.23048  19515784.65348
 -10686904.38306  21555848.05606  -8299560.21947  21555844.66547
  -1914954.08207  20013607.54007  -1478255.76248  20013602.65748
  -6616569.20306  21896099.82106  -4725638.65247  21896095.99747
  -1605950.69906  23069909.32906   -858549.56347  23069905.39247
 -10662704.19107  20643650.95407  -8274782.01648  20643645.81748
  -4585087.60906  22829619.40706  -3564834.51247  22829616.29447
   4792688.80103  21751447.68103   3739239.86345  21751443.94645
 08 11 15  0 22 29.9970000  0  9  3  6 13 16 19 21 23 25 31
 -19133586.12507  19526427.78207 -14666381.05148  19526425.09948
 -14330947.80107  19508800.84507 -11091117.26648  19508797.99748
 -10742300.39807  21545307.35307  -8342725.92247  21545304.00947
  -1897395.64507  20016948.38407  -1464573.85948  20016943.65348
  -6731689.98806  21874193.93106  -4815343.14847  21874188.50947
  -1630012.39106  23065330.82106   -877298.94947  23065327.50547
 -10665632.20707  20643093.94607  -8277063.56648  20643088.68848
  -4689393.04306  22809770.97806  -3646111.45747  22809768.44247
   4855340.55901  21763369.75901   3788059.31345  21763366.79045
 08 11 15  0 22 59.9970000  0  9  3  6 13 16 19 21 23 25 31
 -19203439.84807  19513134.91507 -14720812.53148  19513132.14248
 -14367137.75408  19501914.38408 -11119317.23449  19501911.63049
 -10797089.43406  21534881.43106  -8385418.73847  21534877.53647
  -1879623.38307  20020330.64207  -1450725.33648  20020326.25148
  -6846521.70306  21852341.86806  -4904822.41047  21852336.34947
  -1653595.75806  23060842.97006   -895675.58246  23060838.40746
 -10667920.81607  20642658.07107  -8278846.90248  20642652.89948
  -4793587.63305  22789943.76705  -3727302.03547  22789941.19247
   4918303.61701  21775349.10301         0.00000         0.00000
 08 11 15  0 23 29.9970000  0  8  3  6 13 16 19 21 23 25
 -19272777.53107  19499940.90707 -14774841.90248  19499937.34948
 -14402808.77007  19495126.07907 -11147112.83249  19495123.44649
 -10851278.13307  21524569.60307  -8427643.67647  21524566.20447
  -1861646.41007  20023751.26707  -1436717.30548  20023747.17748
  -6961070.70306  21830543.36006  -4994081.34447  21830538.97047
  -1676708.26206  23056444.17306   -913685.30946  23056441.61846
 -10669579.56307  20642342.39207  -8280139.45748  20642338.33748
  -4897678.01606  22770136.45406  -3808411.40247  22770133.34947
 08 11 15  0 23 59.9970000  0  8  3  6 13 16 19 21 23 25
 -19341593.60907  19486845.49307 -14828464.82048  19486842.44648
 -14437956.87507  19488437.78207 -11174500.96149  19488435.57949
 -10904861.75807  21514372.82107  -8469397.13347  21514369.26347
  -1843461.51207  20027211.38407  -1422547.25048  20027207.74748
  -7075330.88706  21808800.53206  -5083115.23446  21808795.99346
  -1699344.95706  23052136.22806   -931324.24246  23052132.50546
 -10670604.76607  20642147.29007  -8280938.34448  20642141.96248
  -5001658.43006  22750348.95406  -3889435.09047  22750346.31347
 08 11 15  0 24 29.9970000  0  9  3  6 13 16 19 21 23 25 31
 -19409888.85507  19473849.01707 -14881681.87948  19473846.48948
 -14472583.68007  19481848.36007 -11201482.87548  19481845.22048
 -10957840.23406  21504290.85306  -8510679.06647  21504287.73547
  -1825070.60907  20030711.21207  -1408216.68048  20030706.71648
  -7189301.37506  21787112.23506  -5171923.38147  21787107.97047
  -1721506.20706  23047919.97806   -948592.75446  23047915.26746
 -10670999.14807  20642072.75907  -8281245.68848  20642068.02148
  -5105528.31306  22730583.14206  -3970372.67247  22730580.21247
     59974.61711  21811637.29001         0.00000         0.00000
 08 11 15  0 24 59.9970000  0  9  3  6 13 16 19 21 23 25 31
 -19477651.80507  19460954.58707 -14934484.16848  19460951.64948
 -14506678.48807  19475359.97007 -11228050.25448  19475357.17748
 -11010201.50006  21494328.10306  -8551480.07847  21494323.40747
  -1806463.78107  20034251.93807  -1393717.85548  20034247.68848
  -7302969.30104  21765481.64904  -5260495.78947  21765477.77447
  -1743180.60206  23043795.68106   -965481.94946  23043791.16946
 -10670752.76207  20642119.61807  -8281053.72748  20642113.56348
  -5209275.22706  22710840.74306  -4051214.40647  22710837.35347
    124158.98811  21823851.34501         0.00000         0.00000
 08 11 15  0 25 29.9970000  0  9  3  6 13 16 19 21 23 25 31
 -19544879.51207  19448161.54807 -14986869.38748  19448158.32148
 -14540239.97707  19468973.47807 -11254202.06648  19468970.33348
 -11061942.54307  21484481.25107  -8591797.77747  21484477.66947
  -1787639.85907  20037833.60307  -1379049.87948  20037830.40348
  -7416331.14504  21743909.25904  -5348829.66446  21743905.63846
  -1764365.64806  23039763.36006   -981989.75846  23039761.22846
 -10669865.25407  20642288.16507  -8280362.16048  20642283.18148
  -5312895.46506  22691121.89906  -4131957.43847  22691119.10347
    188656.79711  21836126.97801         0.00000         0.00000
 08 11 15  0 25 59.9970000  0  9  3  6 13 16 19 21 23 25 31
 -19611564.81307  19435471.34507 -15038831.96148  19435468.39648
 -14573261.68407  19462690.05607 -11279933.27348  19462686.43848
 -11113056.43006  21474754.12606  -8631626.78547  21474750.40347
  -1768593.01207  20041458.14907  -1364208.17248  20041454.84948
  -7529378.16804  21722397.02404  -5436918.20346  21722393.81746
  -1785053.55106  23035826.94606   -998110.18046  23035824.38046
 -10668330.05907  20642581.14207  -8279165.93848  20642575.35348
  -5416380.62106  22671430.73506  -4212595.27347  22671427.39647
    253473.37101  21848460.97801         0.00000         0.00000
 08 11 15  0 26 29.9970000  0  9  3  6 13 16 19 21 23 25 31
 -19677710.28107  19422884.11007 -15090373.87148  19422881.77848
 -14605747.30107  19456508.29007 -11305246.73848  19456505.32148
 -11163543.93006  21465146.94606  -8670967.71947  21465143.03247
  -1749327.41807  20045124.48507  -1349196.01248  20045120.91948
  -7642111.73005  21700945.34505  -5524762.55546  21700940.22846
  -1805247.53505  23031983.47805  -1013845.73046  23031980.43846
 -10666152.05507  20642995.21207  -8277468.79348  20642989.69648
  -5519732.53506  22651762.72806  -4293129.18847  22651760.38447
    318604.35901  21860854.84501         0.00000         0.00000
 08 11 15  0 26 59.9970000  0  9  3  6 13 16 19 21 23 25 31
 -19743304.21507  19410402.29007 -15141486.03548  19410400.05648
 -14637686.31607  19450430.32907 -11330134.27048  19450427.66548
 -11213393.62106  21455660.47006  -8709811.62147  21455657.77147
  -1729832.84007  20048834.32107  -1334005.44548  20048830.39248
  -7754519.07406  21679554.71206  -5612352.68446  21679549.39946
  -1824935.57805  23028236.84505  -1029187.10246  23028233.61446
 -10663322.11707  20643533.25107  -8275263.64848  20643527.88048
  -5622938.32006  22632124.01706  -4373549.25447  22632121.07947
    384059.66011  21873309.83701         0.00000         0.00000
 08 11 15  0 27 29.9970000  0  9  3  6 13 16 19 21 23 25 31
 -19808342.77707  19398026.48507 -15192165.42248  19398023.30248
 -14669076.03507  19444456.88407 -11354593.77748  19444454.68148
 -11262601.69507  21446297.03207  -8748155.53547  21446293.69247
  -1710107.17607  20052588.01707  -1318634.78948  20052583.77448
  -7866595.29706  21658228.50106  -5699684.80546  21658223.13846
  -1844114.34405  23024588.22805  -1044131.57446  23024584.06346
 -10659837.92607  20644196.79007  -8272548.69948  20644191.50548
  -5725993.25005  22612512.45405  -4453851.77347  22612509.27447
    449841.40601  21885829.89901         0.00000         0.00000
 08 11 15  0 27 59.9970000  0  9  3  6 13 16 19 21 23 25 31
 -19872825.04307  19385755.33707 -15242411.34448  19385752.25948
 -14699916.41007  19438588.22007 -11378625.24648  19438585.39648
 -11311166.69906  21437055.59506  -8785998.40647  21437052.01747
  -1690150.84407  20056385.72807  -1303084.41448  20056381.27848
  -7978337.91405  21636964.61805  -5786756.93447  21636959.98947
  -1862782.18006  23021035.80606  -1058677.98447  23021032.16147
 -10655699.96107  20644984.10307  -8269324.32848  20644979.22048
  -5828895.09006  22592931.59506  -4534035.02347  22592928.36447
    515948.77002  21898409.67302         0.00000         0.00000
 08 11 15  0 28 29.9970000  0  9  3  6 13 16 19 21 23 25 31
 -19936745.10507  19373591.20407 -15292219.18048  19373588.03248
 -14730202.92607  19432824.78207 -11402225.12948  19432821.81748
 -11359082.75406  21427937.69606  -8823335.60547  21427932.81347
  -1669959.57807  20060227.95407  -1287350.97348  20060223.90348
  -8089739.96106  21615764.55606  -5873563.67246  21615759.80646
  -1880933.78905  23017581.05605  -1072822.13746  23017577.84146
 -10650904.95707  20645896.77407  -8265587.96548  20645891.46648
  -5931637.14506  22573380.68806  -4614093.73847  22573377.17347
    582385.69911  21911048.04801         0.00000         0.00000
 08 11 15  0 28 59.9970000  0  9  3  6 13 16 19 21 23 25 31
 -20000097.91807  19361535.95407 -15341585.00848  19361532.66948
 -14759931.24607  19427167.93107 -11425390.05548  19427165.02448
 -11406344.00007  21418943.90707  -8860162.52747  21418940.86847
  -1649529.40607  20064115.69607  -1271431.36748  20064111.25148
  -8200794.95705  21594631.74305  -5960100.02347  21594627.33747
  -1898564.35205  23014225.75105  -1086560.19946  23014222.26346
 -10645449.10207  20646934.94607  -8261336.66048  20646930.29048
  -6034212.92206  22553860.89206  -4694022.90647  22553857.33747
         0.00000  21923753.11001         0.00000         0.00000
 08 11 15  0 29 29.9970000  0  9  3  6 13 16 19 21 23 25 31
 -20062872.75007  19349590.42307 -15390500.43048  19349587.02148
 -14789092.03507  19421618.71207 -11448112.72748  19421616.05248
 -11452939.52707  21410077.10307  -8896470.68847  21410073.90747
  -1628851.50007  20068050.49307  -1255318.72748  20068046.09548
  -8311491.03505  21573566.15705  -6046356.75447  21573561.63847
  -1915662.70305  23010971.92305  -1099883.63346  23010969.33346
 -10639324.20307  20648100.79807  -8256564.00448  20648095.34548
  -6136610.77706  22534375.85306  -4773813.45747  22534371.56747
    716268.36311  21936531.35301         0.00000         0.00000
 08 11 15  0 29 59.9970000  0  9  3  6 13 16 19 21 23 25 31
 -20125058.60207  19337757.21207 -15438956.94148  19337753.53248
 -14817675.12107  19416179.64207 -11470385.25848  19416176.08348
 -11498858.29307  21401338.95407  -8932251.59847  21401335.34147
  -1607915.65207  20072034.87607  -1239005.10548  20072030.26748
  -8421815.68805  21552572.42305  -6132324.02747  21552568.17747
  -1932218.12105  23007821.97005  -1112783.96146  23007818.12246
 -10632520.78907  20649395.19607  -8251262.66848  20649389.90348
  -6238818.43006  22514925.43106  -4853455.74247  22514922.53247
    783732.14502  21949367.55602         0.00000         0.00000
 08 11 15  0 30 29.9970000  0  9  3  6 13 16 19 21 23 25 31
 -20186652.50007  19326035.89907 -15486952.17248  19326032.92348
 -14845678.88307  19410850.77407 -11492206.36748  19410847.43148
 -11544096.62107  21392730.88407  -8967502.23047  21392726.25947
  -1586720.60907  20076068.00907  -1222489.50848  20076063.77148
  -8531765.23405  21531649.96205  -6217998.93447  21531645.62247
  -1948227.86306  23004776.43806  -1125259.12147  23004772.22047
 -10625038.24207  20650819.51707  -8245432.16448  20650813.31748
  -6340831.77306  22495513.40706  -4932946.68047  22495509.54847
    851548.40201  21962273.61801         0.00000         0.00000
 08 11 15  0 30 59.9970000  0  9  3  6 13 16 19 21 23 25 31
 -20247654.16807  19314427.27407 -15534485.92248  19314424.81048
 -14873104.13307  19405631.54007 -11513576.67648  19405628.79048
 -11588654.64506  21384251.02406  -9002222.76247  21384245.99747
  -1565267.37507  20080150.17307  -1205772.71548  20080146.05248
  -8641337.85906  21510799.14906  -6303380.16447  21510795.61847
  -1963691.73405  23001833.44605  -1137308.94946  23001830.04046
 -10616877.71107  20652372.03207  -8239073.30148  20652366.21648
  -6442649.39106  22476137.94606  -5012285.04747  22476134.79047
    919715.64812  21975244.36002         0.00000         0.00000
 08 11 15  0 31 29.9970000  0  9  3  6 13 16 19 21 23 25 31
 -20308061.82007  19302932.33707 -15581556.79748  19302929.95448
 -14899950.06607  19400523.09507 -11534495.57848  19400520.39248
 -11632529.59806  21375901.93806  -9036411.05147  21375898.88847
  -1543555.20707  20084282.21207  -1188854.15248  20084277.86448
  -8750530.26206  21490020.74306  -6388465.12147  21490016.94647
  -1978607.79705  22998994.24305  -1148931.77346  22998991.13846
 -10608039.69907  20654053.24307  -8232186.52048  20654047.84948
  -6544268.05906  22456800.96206  -5091468.44147  22456797.25147
    988234.44901  21988283.57101         0.00000         0.00000
 08 11 15  0 31 59.9970000  0  9  3  6 13 16 19 21 23 25 31
 -20367876.73407  19291549.98507 -15628165.82448  19291547.56348
 -14926219.16407  19395524.09507 -11554965.00048  19395521.56348
 -11675723.04306  21367682.87606  -9070068.32447  21367679.65747
  -1521587.32007  20088462.76707  -1171736.34448  20088458.55648
  -8859342.47305  21469314.49305  -6473253.82846  21469309.94246
  -1992977.06306  22996260.84506  -1160128.68846  22996256.59946
 -10598527.30507  20655863.98507  -8224774.25448  20655858.63048
  -6645687.94906  22437500.29006  -5170496.89147  22437496.35647
   1057101.59801  22001389.89901         0.00000         0.00000
 08 11 15  0 32 29.9970000  0  9  3  6 13 16 19 21 23 25 31
 -20427098.24607  19280280.27407 -15674312.44148  19280277.70448
 -14951911.53507  19390634.91507 -11574985.03948  19390632.14248
 -11718233.41806  21359593.54806  -9103193.32447  21359590.07947
  -1499363.48007  20092691.61007  -1154419.05548  20092687.63048
  -8967772.41005  21448679.64905  -6557744.66846  21448675.84146
  -2006799.03505  22993629.89205  -1170899.05546  22993626.99746
 -10588341.48007  20657801.86807  -8216837.26648  20657797.13448
  -6746906.67206  22418240.15706  -5249368.60947  22418235.09147
   1126316.06311  22014560.39201         0.00000         0.00000
 08 11 15  0 32 59.9970000  0  9  3  6 13 16 19 21 23 25 31
 -20485722.44907  19269124.79807 -15719993.64148  19269121.80248
 -14977024.43007  19385856.18807 -11594553.52348  19385853.26748
 -11760057.07006  21351634.43106  -9135783.15247  21351630.93547
  -1476881.37907  20096969.86807  -1136900.52748  20096965.50548
  -9075814.94105  21428121.13405  -6641933.58247  21428116.86047
  -2020070.19905  22991104.65705  -1181240.19146  22991102.41946
 -10577481.00007  20659868.63407  -8208374.59048  20659863.91548
  -6847919.32406  22399016.92306  -5328079.77347  22399013.33747
   1195880.44901  22027799.39201         0.00000         0.00000
 08 11 15  0 33 29.9970000  0  9  3  6 13 16 19 21 23 25 31
 -20543747.89107  19258082.81307 -15765208.25848  19258079.11848
 -15001557.62107  19381187.91507 -11613670.30148  19381185.00548
 -11801192.05506  21343806.24306  -9167836.38347  21343802.58347
  -1454140.65207  20101296.54007  -1119180.48448  20101293.70848
  -9183467.05506  21407636.45406  -6725818.39547  21407631.21247
  -2032788.86306  22988684.30606  -1191150.85246  22988680.48946
 -10565945.80907  20662063.55607  -8199386.15248  20662058.54448
  -6948722.86706  22379834.82906  -5406627.94547  22379831.39647
         0.00000  22041110.92301         0.00000         0.00000
 08 11 15  0 33 59.9970000  0  9  3  6 13 16 19 21 23 25 31
 -20601177.87107  19247154.11807 -15809958.87148  19247150.79848
 -15025515.78508  19376628.90708 -11632338.99248  19376626.06348
 -11841641.59406  21336109.59506  -9199355.55147  21336106.34947
  -1431146.28507  20105672.89907  -1101262.82048  20105668.64948
  -9290731.32406  21387225.20406  -6809400.93847  21387219.55247
  -2044959.47306  22986368.18806  -1200634.44946  22986364.74746
 -10553741.89107  20664386.28207  -8189876.62948  20664381.04848
  -7049319.85905  22360691.82905  -5485015.21547  22360689.09947
     84668.16401  22054472.62601         0.00000         0.00000
 08 11 15  0 34 29.9970000  0  8  3  6 13 16 19 21 23 25
 -20658011.85507  19236338.85307 -15854245.06348  19236335.61448
 -15048899.55107  19372178.72807 -11650560.10248  19372175.57948
 -11881405.30506  21328542.71206  -9230340.26647  21328538.22447
  -1407898.89807  20110096.68107  -1083147.96148  20110092.68148
  -9397605.79306  21366886.84506  -6892679.69547  21366880.46647
  -2056581.10505  22984156.61805  -1209690.30546  22984154.43546
 -10540870.49207  20666835.72807  -8179846.96548  20666830.32948
  -7149708.28506  22341588.43106  -5563239.93847  22341585.51347
 08 11 15  0 34 59.9970000  0  8  3  6 13 16 19 21 23 25
 -20714244.30907  19225638.61007 -15898062.57048  19225635.44648
 -15071703.86707  19367839.82107 -11668329.69548  19367836.31748
 -11920476.85206  21321107.91506  -9260785.64147  21321103.72447
  -1384393.75007  20114569.71207  -1064832.26648  20114565.61048
  -9504083.06606  21346624.64206  -6975648.95346  21346617.31746
  -2067647.28105  22982050.96205  -1218313.26246  22982047.04446
 -10527327.69907  20669412.72807  -8169294.15248  20669407.78248
  -7249880.64106  22322525.72006  -5641296.32047  22322523.03647
 08 11 15  0 35 29.9970000  0  8  3  6 13 16 19 21 23 25
 -20769879.23407  19215051.45407 -15941414.46548  19215048.54448
 -15093933.66407  19363608.95407 -11685651.60248  19363605.65748
 -11958859.98406  21313802.68106  -9290694.54347  21313799.09547
  -1360635.49607  20119090.37607  -1046319.36348  20119086.27148
  -9610165.67206  21326436.77406  -7058310.64546  21326429.95846
  -2078162.18006  22980049.91506  -1226506.73047  22980047.03247
 -10513119.37507  20672116.51707  -8158222.73848  20672110.54048
  -7349839.23406  22303505.39906  -5719186.11747  22303502.32547
 08 11 15  0 35 59.9970000  0  8  3  6 13 16 19 21 23 25
 -20824913.06608  19204579.16508 -15984297.98048  19204575.71648
 -15115587.16007  19359488.63407 -11702524.46548  19359485.32948
 -11996551.38306  21306631.05606  -9320064.48047  21306626.56747
  -1336622.43007  20123659.93807  -1027607.87548  20123655.37648
  -9715849.21106  21306327.04806  -7140661.37946  21306320.54046
  -2088123.23806  22978154.47006  -1234268.59846  22978151.67346
 -10498244.42607  20674946.48507  -8146631.86348  20674941.41948
  -7449579.90206  22284524.36806  -5796906.09047  22284520.98947
 08 11 15  0 36 29.9970000  0  8  3  6 13 16 19 21 23 25
 -20879349.75007  19194219.87607 -16026716.19948  19194217.29448
 -15136669.27007  19355476.98507 -11718952.06648  19355474.32948
 -12033554.84006  21299589.18106  -9348898.31647  21299585.17347
  -1312359.37907  20128277.11807  -1008701.60948  20128272.89948
  -9821136.06306  21286291.40706  -7222703.09446  21286285.65346
  -2097534.43806  22976363.42306  -1241601.95346  22976360.27446
 -10482709.38707  20677902.68107  -8134526.64848  20677897.04448
  -7549104.81306  22265586.62606  -5874457.97347  22265582.99747
 08 11 15  0 36 59.9970000  0  8  3  6 13 16 19 21 23 25
 -20933189.25408  19183974.71208 -16068669.06649  19183971.84549
 -15157180.42207  19351573.50907 -11734934.77748  19351570.62248
 -12069869.32406  21292678.86806  -9377195.34847  21292675.44647
  -1287846.74607  20132941.50107   -989600.87148  20132938.04448
  -9926024.22306  21266331.80606  -7304434.16446  21266325.70046
  -2106394.75006  22974677.85306  -1248506.15246  22974674.30646
 -10466515.19507  20680984.85307  -8121907.78548  20680979.36848
  -7648411.92206  22246688.24306  -5951840.10547  22246683.95847
 08 11 15  0 37 29.9970000  0  8  3  6 13 16 19 21 23 25
 -20986427.47307  19173843.78207 -16110153.39848  19173840.52148
 -15177117.91407  19347779.80607 -11750470.48048  19347776.50948
 -12105491.02006  21285900.80606  -9404952.51247  21285896.54447
  -1263081.74607  20137654.54807   -970303.47348  20137650.16148
 -10030508.37506  21246449.18106  -7385850.39846  21246443.93146
  -2114700.82406  22973096.93806  -1254978.38346  22973093.15346
 -10449660.02307  20684192.08707  -8108773.90248  20684186.68548
  -7747495.67606  22227833.51706  -6029048.21547  22227828.97847
 08 11 15  0 37 59.9970000  0  8  3  6 13 16 19 21 23 25
 -21039071.64807  19163825.64207 -16151174.83648  19163822.49748
 -15196490.11707  19344093.21207 -11765565.71548  19344090.21248
 -12140427.12906  21279252.14206  -9432175.38347  21279248.90747
  -1238072.85507  20142412.94607   -950816.03948  20142409.05648
 -10134594.46106  21226641.97806  -7466956.43847  21226637.59547
  -2122459.81306  22971621.16506  -1261024.37147  22971617.47047
 -10432153.22307  20687524.06307  -8095132.24648  20687518.34948
  -7846361.93006  22209019.88406  -6106086.84847  22209015.39647
 08 11 15  0 38 29.9970000  0  8  3  6 13 16 19 21 23 25
 -21091119.00407  19153921.30607 -16191731.19548  19153918.71648
 -15215295.37907  19340514.80607 -11780219.16848  19340511.82148
 -12174674.68006  21272735.50106  -9458861.84047  21272732.81047
  -1212818.23407  20147219.08707   -931137.13348  20147214.72448
 -10238278.37905  21206910.27405  -7547749.06647  21206907.08347
  -2129668.94506  22970249.39206  -1266641.87147  22970245.34947
 -10413994.02707  20690979.28207  -8080982.25048  20690973.16148
  -7945006.35506  22190248.38406  -6182952.66847  22190244.26747
 08 11 15  0 38 59.9970000  0  8  3  6 13 16 19 21 23 25
 -21142574.77307  19144130.00107 -16231826.59849  19144126.54849
 -15233539.94907  19337043.07907 -11794435.71148  19337040.66948
 -12208238.70707  21266348.77407  -9485015.61347  21266344.72847
  -1187324.31307  20152070.19607   -911271.77048  20152065.62648
 -10341563.85505  21187256.75905  -7628231.21547  21187251.85647
  -2136334.09005  22968979.43105  -1271835.43047  22968975.95447
 -10395190.21907  20694557.47807  -8066329.93448  20694551.88448
  -8043432.66406  22171518.21206  -6259648.44947  22171514.99747
 08 11 15  0 39 29.9970000  0  8  3  6 13 16 19 21 23 25
 -21193439.53907  19134450.75907 -16271461.49249  19134447.40349
 -15251225.57407  19333677.39907 -11808216.70748  19333674.21248
 -12241119.57406  21260091.93106  -9510637.09847  21260087.02847
  -1161592.08207  20156967.11007   -891220.69148  20156962.36048
 -10444450.15205  21167678.84505  -7708402.41847  21167672.95447
  -2142455.28506  22967815.67306  -1276605.24647  22967811.46247
 -10375744.18007  20698258.23507  -8051177.19148  20698252.51348
  -8141639.51606  22152830.83706  -6336173.28547  22152826.82547
 08 11 15  0 39 59.9970000  0  8  3  6 13 16 19 21 23 25
 -21243717.80507  19124882.64207 -16310639.35949  19124879.81349
 -15268357.62907  19330417.49307 -11821566.36748  19330414.52448
 -12273321.71106  21253963.10306  -9535729.69147  21253960.10647
  -1135627.16807  20161907.54007   -870988.32048  20161904.34548
 -10546940.07805  21148175.44605  -7788264.71146  21148170.22846
  -2148037.46505  22966753.12605  -1280954.94147  22966749.95047
 -10355662.35907  20702079.25107  -8035529.05948  20702074.56748
  -8239629.91805  22134182.57905  -6412529.40647  22134179.91547
 08 11 15  0 40 29.9970000  0  8  3  6 13 16 19 21 23 25
 -21293413.33608  19115426.54808 -16349363.14149  19115423.07949
 -15284940.96107  19327261.93107 -11834488.45348  19327258.79848
 -12304848.51606  21247964.07906  -9560296.06647  21247960.39647
  -1109433.88307  20166892.30607   -850577.98448  20166888.70448
 -10649035.84406  21128746.91506  -7867819.82047  21128741.77847
  -2153084.16406  22965793.49306  -1284887.44947  22965789.47847
 -10334950.55107  20706020.69607  -8019389.98848  20706015.49348
  -8337405.57805  22115576.75905  -6488718.23047  22115573.73147
 08 11 15  0 40 59.9970000  0  8  3  6 13 16 19 21 23 25
 -21342530.18407  19106079.86007 -16387636.01648  19106076.06048
 -15300980.78507  19324209.61007 -11846987.01248  19324206.35648
 -12335704.46107  21242092.82907  -9584339.64547  21242088.93547
  -1083017.39807  20171919.72007   -829993.69948  20171915.93148
 -10750740.12505  21109393.22805  -7947069.86347  21109388.35647
  -2157599.50806  22964933.68106  -1288405.94546  22964929.19246
 -10313615.01607  20710081.39907  -8002764.90648  20710075.66148
  -8434969.28906  22097011.25906  -6564741.87547  22097008.02447
 08 11 15  0 41 29.9970000  0  8  3  6 13 16 19 21 23 25
 -21391063.61708  19096843.99308 -16425454.27748  19096840.75548
 -15316473.43407  19321261.29007 -11859059.20348  19321258.06048
 -12365884.32006  21236349.71206  -9607856.40647  21236346.12647
  -1056373.97707  20176989.79807   -809232.59048  20176986.02448
 -10852046.90603  21090114.60303  -8026010.16046  21090110.53646
  -2161579.10206  22964176.54006  -1291506.87546  22964171.89646
 -10291653.12908  20714260.44608  -7985651.76248  20714254.47848
  -8532314.34806  22078487.38406  -6640595.17647  22078484.59147
 08 11 15  0 41 59.9970000  0  8  3  6 13 16 19 21 23 25
 -21439019.34807  19087718.01707 -16462822.35548  19087714.93148
 -15331425.52307  19318415.75907 -11870710.16848  19318413.08348
 -12395393.75806  21230734.28206  -9630850.76247  21230730.05247
  -1029509.70307  20182101.79807   -788299.41848  20182097.76748
 -10952959.83602  21070912.27402  -8104643.62146  21070906.48946
  -2165028.32406  22963520.13406  -1294194.64147  22963517.16147
 -10269072.75007  20718557.33707  -7968056.64548  20718550.93548
  -8629444.58606  22060003.61806  -6716281.06647  22060001.30247
 08 11 15  0 42 29.9970000  0  8  3  6 13 16 19 21 23 25
 -21486389.60207  19078704.19607 -16499734.24649  19078700.78649
 -15345830.31607  19315674.78207 -11881934.67648  19315671.98948
 -12424224.91006  21225247.36806  -9653316.58647  21225243.85347
  -1002417.72307  20187257.49307   -767188.80148  20187251.94248
 -11053469.89105  21051785.61805  -8182963.21546  21051779.54846
  -2167939.77706  22962966.00106  -1296463.27346  22962962.55246
 -10245867.73007  20722973.36007  -7949974.84448  20722967.50548
  -8726350.43406  22041563.93106  -6791792.14147  22041561.15747
 08 11 15  0 42 59.9970000  0  8  3  6 13 16 19 21 23 25
 -21533178.02008  19069800.63408 -16536192.73849  19069797.39949
 -15359692.33207  19313037.05607 -11892736.26248  19313033.60348
 -12452380.94906  21219889.43806  -9675256.37947  21219885.01747
   -975102.38307  20192455.41507   -745904.11348  20192450.81348
 -11153579.32805  21032734.61805  -8260970.54747  21032730.10647
  -2170316.85505  22962513.25105  -1298315.57046  22962510.34946
 -10222043.96907  20727507.11807  -7931410.87548  20727500.68148
  -8823033.49606  22023165.77406  -6867129.58247  22023162.39247
 08 11 15  0 43 29.9970000  0  8  3  6 13 16 19 21 23 25
 -21579385.21508  19061007.63408 -16572198.35549  19061004.37649
 -15373013.59407  19310502.32907 -11903116.47748  19310499.31348
 -12479862.93406  21214659.84506  -9696670.92647  21214654.98147
   -947565.14807  20197695.25907   -724446.52748  20197691.78648
 -11253287.30906  21013761.43806  -8338665.02047  21013756.46647
  -2172160.73406  22962163.25106  -1299752.34446  22962160.63046
 -10197604.44907  20732156.93807  -7912367.11348  20732152.32148
  -8919492.90206  22004809.82906  -6942292.75847  22004807.16547
 08 11 15  0 43 59.9970000  0  8  3  6 13 16 19 21 23 25
 -21625012.68408  19052325.18808 -16607752.23849  19052321.29849
 -15385796.39507  19308069.29807 -11913077.08248  19308066.95448
 -12506671.93007  21209558.89207  -9717561.06647  21209554.79047
   -919807.87907  20202977.66507   -702817.50448  20202973.67348
 -11352593.29306  20994864.20406  -8416046.23847  20994859.76347
  -2173472.67206  22961913.24306  -1300774.62546  22961909.59146
 -10172552.48007  20736924.24307  -7892846.13348  20736918.76748
  -9015727.98406  21986497.50906  -7017281.10947  21986493.84547
 08 11 15  0 44 29.9970000  0  8  3  6 13 16 19 21 23 25
 -21670061.02708  19043752.70408 -16642854.85249  19043749.65749
 -15398042.31307  19305739.26707 -11922619.35549  19305736.29049
 -12532808.52007  21204584.86007  -9737927.23047  21204581.44647
   -891832.02707  20208301.22007   -681018.13748  20208297.14948
 -11451496.56605  20976043.05605  -8493113.68847  20976039.18547
  -2174252.75005  22961764.37605  -1301382.55146  22961761.55646
 -10146890.74607  20741807.51707  -7872850.01648  20741801.84948
  -9111737.44106  21968226.97806  -7092093.68047  21968223.87247
 08 11 15  0 44 59.9970000  0  8  3  6 13 16 19 21 23 25
 -21714519.89107  19035292.18107 -16677498.11349  19035289.53649
 -15409742.07007  19303513.29007 -11931736.05548  19303509.58748
