     2              OBSERVATION DATA                        RINEX VERSION / TYPE
DAT2RINW 3.10 001   .                   16NOV08 14:36:50    PGM / RUN BY / DATE 
.                   .                                       OBSERVER / AGENCY   
220188519           TRIMBLE 4700        Nav 1.41 Sig 0.00   REC # / TYPE / VERS 
00000000            TRM33429.00-GP  NONE                    ANT # / TYPE        
----------------------------------------------------------- COMMENT             
Offset from BOTTOM OF ANTENNA to PHASE CENTER is  62.5 mm   COMMENT             
----------------------------------------------------------- COMMENT             
0291                                                        MARKER NAME
0291                                                        MARKER NUMBER       
 -3061641.5225  4058613.5881  3838748.6686                  APPROX POSITION XYZ 
        1.3184        0.0000        0.0000                  ANTENNA: DELTA H/E/N
*** Above antenna height is from mark to BOTTOM OF ANTENNA. COMMENT             
----------------------------------------------------------- COMMENT             
Note: The above offsets are CORRECTED.                      COMMENT             
Raw Offsets: H=      1.3770 E=      0.0000 N=      0.0000   COMMENT             
----------------------------------------------------------- COMMENT             
     1     1     0                                          WAVELENGTH FACT L1/2
     4    L1    C1    L2    P2                              # / TYPES OF OBSERV 
    30                                                      INTERVAL            
  2008    11    15     0     0    0.000000                  TIME OF FIRST OBS   
  2008    11    15     8    10    0.000000                  TIME OF LAST OBS    
    19                                                      # OF SATELLITES     
     2     6     6     6     6                              PRN / # OF OBS      
     3   544   546   536   537                              PRN / # OF OBS      
     4   248   248   248   248                              PRN / # OF OBS      
     6   439   442   429   430                              PRN / # OF OBS      
     7   522   522   522   522                              PRN / # OF OBS      
     8   457   457   457   457                              PRN / # OF OBS      
    11   684   686   679   679                              PRN / # OF OBS      
    13   368   368   367   367                              PRN / # OF OBS      
    16   379   379   379   379                              PRN / # OF OBS      
    17   416   416   416   416                              PRN / # OF OBS      
    19   710   710   706   706                              PRN / # OF OBS      
    20   444   445   444   445                              PRN / # OF OBS      
    21   162   167   125   126                              PRN / # OF OBS      
    23   367   367   367   367                              PRN / # OF OBS      
    25   573   573   573   573                              PRN / # OF OBS      
    27    21    21    21    21                              PRN / # OF OBS      
    28   544   544   544   544                              PRN / # OF OBS      
    31   139   139   139   139                              PRN / # OF OBS      
    32   465   465   464   464                              PRN / # OF OBS      
                                                            END OF HEADER       
 08 11 15  0  0  0.0000000  0  8  3  6 13 16 19 21 23 31
  -1025583.15207  20879804.17207   -793797.42949  20879800.75849
   -415040.56307  20580433.55507   -323399.15549  20580429.74249
   -812254.02706  22785856.68806   -632341.19547  22785851.78947
    919087.23007  20571720.80507    702405.68349  20571715.50049
  -1540593.42606  23561321.94506  -1197488.80847  23561315.36347
    -24697.62902  24027525.18802         0.00000         0.00000
     95951.69107  21444585.12507     69856.34248  21444577.96148
   1683385.88307  21952664.96107   1288833.85548  21952659.30948
 08 11 15  0  0 30.0000000  0  8  3  6 13 16 19 21 23 31
  -1077661.89107  20869893.96907   -834378.25349  20869889.52049
   -434665.60507  20576699.13307   -338691.37349  20576695.01649
   -852797.12906  22778141.58606   -663933.23847  22778136.81647
    966657.34407  20580773.03107    739473.29149  20580768.07049
  -1626235.12906  23545025.78906  -1264222.58047  23545018.36347
    -28589.65601  24026782.94501         0.00000         0.00000
    104390.22307  21446190.88307     76431.80048  21446183.98448
   1771629.00407  21969457.08607   1357594.72048  21969452.09048
 08 11 15  0  1  0.0000000  0  9  3  6 13 16 19 21 23 25 31
  -1129485.52707  20860032.35907   -874760.29949  20860027.48849
   -453985.67207  20573022.53907   -353745.97849  20573018.57049
   -893023.93806  22770486.71906   -695278.82147  22770481.65647
   1014268.31307  20589833.12507    776572.73249  20589827.86749
  -1711894.53906  23528724.50806  -1330970.18647  23528718.32047
    -32270.85902  24026083.60902         0.00000         0.00000
    113267.50807  21447880.27307     83349.17048  21447873.82448
   -122913.69516  24349223.37506    -95859.15557  24349218.09847
   1860000.57807  21986273.22707   1426455.65348  21986268.85248
 08 11 15  0  1 30.0000000  0  9  3  6 13 16 19 21 23 25 31
  -1181041.94907  20850221.15607   -914934.13049  20850216.51649
   -472989.68807  20569406.33607   -368554.29749  20569402.07849
   -932921.23407  22762894.75007   -726367.61047  22762889.26647
   1061929.26607  20598902.95307    813711.13549  20598898.02049
  -1797558.95306  23512422.66406  -1397721.62547  23512417.54747
    -35729.14103  24025426.17203    -73716.00855  24025419.05145
    122594.24607  21449655.00007     90616.75648  21449648.53148
   -190672.67606  24336329.46106   -148658.35247  24336324.02047
   1948510.91407  22003116.28907   1495424.71648  22003111.17648
 08 11 15  0  2  0.0000000  0  9  3  6 13 16 19 21 23 25 31
  -1232320.12907  20840463.41407   -954891.13749  20840459.00049
   -491667.58207  20565851.98407   -383108.50649  20565847.74249
   -972477.18007  22755367.32007   -757190.44047  22755361.60247
   1109648.66807  20607983.18007    850895.07649  20607977.91049
  -1883217.00805  23496121.57805  -1464468.13647  23496117.03147
    -38953.83201  24024810.06301    -76228.65645  24024806.09845
    132379.99206  21451517.03906     98242.00348  21451510.51248
   -258579.60205  24323407.19505   -201572.84847  24323401.66047
   2037168.71907  22019987.52307   1564508.70148  22019983.14548
 08 11 15  0  2 30.0000000  0  9  3  6 13 16 19 21 23 25 31
  -1283315.22707  20830758.98407   -994627.57049  20830754.47349
   -510015.63307  20562360.32807   -397405.67549  20562356.30549
  -1011686.47306  22747906.10206   -787743.10347  22747901.51647
   1157428.94507  20617075.89107    888126.45249  20617070.32449
  -1968863.06306  23479823.72706  -1531205.32447  23479819.12547
    -41939.87104  24024244.43004    -78555.43045  24024238.23445
    142628.32007  21453467.43807    106227.70148  21453460.53148
   -326630.09006  24310456.99206   -254599.14447  24310452.49647
   2125976.65207  22036886.97707   1633709.67948  22036883.23448
 08 11 15  0  3  0.0000000  0  9  3  6 13 16 19 21 23 25 31
  -1334015.72707  20821111.29707  -1034134.45349  20821107.04749
   -528023.20308  20558933.78108   -411437.53449  20558929.62949
  -1050536.89806  22740512.76606   -818016.15647  22740507.75047
   1205278.85207  20626181.63307    925412.08849  20626176.24649
  -2054485.12906  23463530.67206  -1597923.81947  23463525.08247
    -44676.30503  24023722.59403    -80687.73045  24023717.85245
    153349.61706  21455507.35906    114581.96748  21455500.65648
   -394812.48805  24297482.43005   -307728.29047  24297477.98047
   2214944.40207  22053816.78107   1703035.18648  22053812.37548
 08 11 15  0  3 30.0000000  0  9  3  6 13 16 19 21 23 25 31
  -1384411.68007  20811521.14107  -1073404.00549  20811517.49249
   -545681.12108  20555573.79708   -425196.94749  20555568.96549
  -1089017.60206  22733190.38306   -848001.14447  22733185.10947
   1253206.21507  20635301.78907    962758.07849  20635296.26649
  -2140072.10206  23447244.96906  -1664614.93847  23447238.73447
    -47152.32404  24023252.14804    -82617.02345  24023246.56645
    164552.72307  21457639.16407    123311.65948  21457632.76648
   -463116.85905  24284484.32005   -360952.43347  24284480.06647
   2304079.88707  22070779.21107   1772491.39748  22070774.80548
 08 11 15  0  4  0.0000000  0  9  3  6 13 16 19 21 23 25 31
  -1434501.99207  20801989.15607  -1112435.42848  20801984.89148
   -562989.79307  20552280.13307   -438684.23849  20552275.18049
  -1127127.99206  22725938.27306   -877697.55247  22725933.23847
   1301208.92607  20644436.38307   1000162.76449  20644430.92649
  -2225622.85206  23430965.14106  -1731277.83747  23430958.98847
    -49367.43403  24022829.30503    -84343.13745  24022825.29745
    176236.98807  21459863.03107    132416.25248  21459856.10248
   -531542.82806  24271464.14106   -414271.33547  24271459.12547
   2393381.75807  22087772.40607   1842077.22948  22087768.24648
 08 11 15  0  4 30.0000000  0  9  3  6 13 16 19 21 23 25 31
  -1484284.82407  20792515.85207  -1151227.24149  20792511.51649
   -579948.53907  20549052.43007   -451898.82749  20549048.02349
  -1164865.87106  22718757.22706   -907103.67047  22718752.05947
   1349286.26207  20653585.28107   1037625.61749  20653579.77049
  -2311134.84806  23414691.95306  -1797910.54647  23414686.41047
    -51320.41403  24022456.85903    -85864.90245  24022453.86345
    188402.66007  21462178.30507    141896.00148  21462171.21548
   -600088.58606  24258419.70306   -467683.59747  24258415.62947
   2482849.90607  22104798.12507   1911792.64648  22104792.79748
 08 11 15  0  5  0.0000000  0  9  3  6 13 16 19 21 23 25 31
  -1533746.24207  20783103.71907  -1189768.61049  20783099.23049
   -596543.78907  20545894.73407   -464830.19349  20545890.41049
  -1202215.80506  22711650.06306   -936207.54347  22711645.04347
   1397449.97307  20662750.43807   1075155.76949  20662744.96149
  -2396592.96506  23398429.39106  -1864501.27647  23398424.28947
    -52996.50003  24022139.54703    -87170.87945  24022134.71145
    201062.75407  21464587.31307    151760.99848  21464579.63348
   -668739.88705  24245355.84405   -521178.10047  24245352.20347
   2572496.30507  22121857.25807   1981646.94948  22121852.64148
 08 11 15  0  5 30.0000000  0  9  3  6 13 16 19 21 23 25 31
  -1582876.17207  20773754.42207  -1228051.66549  20773750.21949
   -612766.51607  20542807.39107   -477471.28049  20542803.14149
  -1239167.56606  22704618.02306   -965001.10947  22704613.30147
   1445707.95707  20671933.80507   1112759.39249  20671928.28149
  -2481986.44906  23382179.60206  -1931041.61947  23382175.47747
    -54385.69104  24021874.07004    -88253.34445  24021869.89145
    214226.00807  21467092.45307    162018.07348  21467085.37948
   -737486.60506  24232273.90606   -574746.96747  24232270.26647
   2662328.93407  22138951.38307   2051646.38648  22138947.38348
 08 11 15  0  6  0.0000000  0  9  3  6 13 16 19 21 23 25 31
  -1631671.27307  20764469.31307  -1266073.82349  20764464.91849
   -628614.72307  20539791.59407   -489820.53649  20539788.04749
  -1275717.42606  22697662.43006   -993481.50747  22697657.55147
   1494060.68007  20681135.04707   1150436.82549  20681129.74249
  -2567311.48006  23365943.04706  -1997528.62047  23365938.45747
    -55485.05905  24021666.28105    -89109.93046  24021660.40246
    227893.93407  21469693.46107    172668.38348  21469686.23048
   -806325.84006  24219174.04706   -628387.92347  24219170.62147
   2752349.05907  22156081.85207   2121791.90248  22156077.71548
 08 11 15  0  6 30.0000000  0  9  3  6 13 16 19 21 23 25 31
  -1680129.47308  20755248.06308  -1303833.46049  20755243.96149
   -644087.50807  20536847.36707   -501877.25449  20536843.06649
  -1311863.00406  22690784.46906  -1021646.88747  22690779.15247
   1542507.72307  20690353.81307   1188187.76349  20690348.81649
  -2652565.49606  23349720.25006  -2063960.29447  23349714.64547
    -56292.31305  24021513.48405    -89738.95846  24021507.02046
    242067.14807  21472390.35907    183712.44648  21472382.83248
   -875255.68006  24206057.27306   -682099.46347  24206053.08247
   2842556.32807  22173248.02307   2192083.26048  22173243.14548
 08 11 15  0  7  0.0000000  0  9  3  6 13 16 19 21 23 25 31
  -1728246.22707  20746091.51607  -1341327.04749  20746087.16449
   -659180.98007  20533975.18807   -513638.42049  20533971.01249
  -1347598.78507  22683984.50807  -1049492.95847  22683978.96147
   1591051.51607  20699591.21907   1226014.07949  20699586.08249
  -2737742.80506  23333511.34406  -2130332.20447  23333506.39547
    -56803.02305  24021414.76605    -90136.92546  24021409.36346
    256749.26207  21475184.22707    195153.03148  21475177.05148
   -944271.15606  24192924.62506   -735877.74947  24192920.02747
   2932953.75407  22190450.14107   2262522.78748  22190445.21148
 08 11 15  0  7 30.0000000  0  9  3  6 13 16 19 21 23 25 31
  -1776005.75808  20737003.21108  -1378542.24549  20736999.26249
   -673880.51607  20531178.05507   -525092.59749  20531174.06349
  -1382908.82407  22677264.87507  -1077007.24347  22677260.44147
   1639705.39507  20708849.97707   1263926.17949  20708844.82849
  -2822827.12905  23317319.33605  -2196631.63547  23317314.41047
    -57001.23005  24021377.50805    -90291.29346  24021371.64546
    271954.49207  21478077.53907    207001.25448  21478070.37948
  -1013356.60905  24179778.17205   -789710.55847  24179772.87547
   3023554.97307  22207690.77307   2333121.13448  22207685.79748
 08 11 15  0  8  0.0000000  0  9  3  6 13 16 19 21 23 25 31
  -1823417.30508  20727981.26608  -1415486.29949  20727977.08649
   -688196.09408  20528454.06308   -536247.59549  20528449.93449
  -1417801.77307  22670624.91407  -1104196.56947  22670620.08647
   1688457.75007  20718127.47707   1301915.00049  20718122.01249
  -2907826.49206  23301145.68806  -2262864.82847  23301139.65247
    -56896.25004  24021396.65604    -90209.42145  24021391.19545
    287672.23807  21481069.13307    219248.82548  21481061.79748
  -1082521.16006  24166616.64806   -843604.98647  24166611.26647
   3114348.75807  22224968.43007   2403869.49348  22224963.46148
 08 11 15  0  8 30.0000000  0  9  3  6 13 16 19 21 23 25 31
  -1870474.55108  20719026.41408  -1452154.26749  20719022.49249
   -702122.76607  20525803.63307   -547099.52249  20525799.57049
  -1452270.57406  22664065.75006  -1131055.37747  22664060.80547
   1737312.43407  20727424.09407   1339983.57449  20727418.55549
  -2992733.96106  23284988.21106  -2329026.45947  23284981.55947
    -56482.34005  24021475.38305    -89886.99146  24021470.87946
    303907.17607  21484157.43807    231899.44948  21484150.87148
  -1151758.47704  24153440.14804   -897556.11347  24153435.91447
   3205339.14807  22242283.74207   2474771.07548  22242278.27048
 08 11 15  0  9  0.0000000  0  9  3  6 13 16 19 21 23 25 31
  -1917163.24208  20710141.84408  -1488535.06449  20710137.19949
   -715647.09808  20523230.31308   -557637.97749  20523225.58649
  -1486300.72706  22657589.38306  -1157572.38947  22657585.19147
   1786281.54707  20736742.65607   1378141.30049  20736737.46149
  -3077534.62506  23268851.15606  -2395104.88147  23268844.25047
    -55744.88705  24021615.32005    -89312.28846  24021611.52046
    320672.14806  21487347.48406    244963.05348  21487341.10948
  -1221054.09405  24140254.32805   -951552.65347  24140249.50447
   3296538.66407  22259638.19507   2545835.61648  22259633.10548
 08 11 15  0  9 30.0000000  0  9  3  6 13 16 19 21 23 25 31
  -1963487.97708  20701326.75808  -1524632.25249  20701322.35549
   -728774.94907  20520731.95307   -567867.46749  20520727.30549
  -1519896.15606  22651197.06306  -1183750.63847  22651191.90647
   1835358.07007  20746081.58607   1416382.75649  20746075.96149
  -3162232.25006  23252733.95306  -2461102.93947  23252726.74647
    -54688.37105  24021816.92205    -88489.09946  24021812.54746
    337960.98406  21490637.99206    258434.88648  21490631.03548
  -1290412.74605  24127054.41405  -1005598.31047  24127050.79747
   3387940.41007  22277031.52307   2617057.73948  22277026.92648
 08 11 15  0 10  0.0000000  0  9  3  6 13 16 19 21 23 25 31
  -2009449.22307  20692580.59407  -1560446.20649  20692576.37949
   -741507.77707  20518308.82807   -577789.15149  20518304.49649
  -1553057.58206  22644886.48406  -1209590.71847  22644880.98047
   1884538.87507  20755440.41407   1454705.44749  20755435.07849
  -3246826.53506  23236635.56306  -2527020.54047  23236629.19547
    -53313.56606  24022078.65606    -87417.77246  24022074.10246
    355771.64806  21494027.29706    272313.30648  21494020.23448
  -1359834.59405  24113844.22705  -1059693.25647  24113840.07447
   3479542.19507  22294462.90607   2688435.70148  22294458.22748
 08 11 15  0 10 30.0000000  0  9  3  6 13 16 19 21 23 25 31
  -2055040.76608  20683904.61708  -1595972.07949  20683900.37949
   -753840.45707  20515962.19507   -587399.03649  20515957.44149
  -1585777.72306  22638660.25806  -1235086.92947  22638655.04347
   1933828.10507  20764820.06307   1493112.62349  20764814.34849
  -3331310.38306  23220559.06306  -2592852.07647  23220552.40647
    -51614.34805  24022401.74205    -86093.71246  24022396.83646
    374108.92207  21497516.64107    286602.09948  21497509.66448
  -1429313.27305  24100623.17205  -1113832.46547  24100618.62547
   3571347.91007  22311932.69507   2759972.60048  22311927.75448
 08 11 15  0 11  0.0000000  0  9  3  6 13 16 19 21 23 25 31
  -2100259.46507  20675299.55507  -1631207.40449  20675295.62149
   -765770.86307  20513691.91407   -596695.43949  20513687.11349
  -1618052.82806  22632518.18806  -1260236.36347  22632513.07447
   1983226.78507  20774220.18007   1531605.08549  20774214.65649
  -3415679.90206  23204503.37506  -2658594.50947  23204497.76647
    -49587.55906  24022787.39106    -84514.37446  24022782.16446
    392974.53106  21501106.93006    301302.57648  21501100.04748
  -1498845.35505  24087392.18005  -1168013.31547  24087387.17647
   3663358.78907  22329441.96107   2831669.37048  22329436.74648
 08 11 15  0 11 30.0000000  0  9  3  6 13 16 19 21 23 25 31
  -2145100.19108  20666766.93008  -1666148.20549  20666762.27749
   -777294.70707  20511499.01607   -605675.04649  20511494.32849
  -1649876.77706  22626462.12506  -1285034.26747  22626457.60547
   2032738.16407  20783641.80507   1570185.37849  20783636.12949
  -3499928.82406  23188471.48406  -2724243.00447  23188465.26647
    -47228.00406  24023236.63306    -82675.77746  24023231.32046
    412372.07407  21504798.60207    316417.53048  21504791.51248
  -1568425.33605  24074151.77305  -1222231.48047  24074146.97347
   3755578.18407  22346990.38307   2903528.61448  22346986.06348
 08 11 15  0 12  0.0000000  0  9  3  6 13 16 19 21 23 25 31
  -2189561.58207  20658306.35207  -1700793.46049  20658301.85249
   -788411.98807  20509383.68007   -614337.87149  20509378.95349
  -1681249.15606  22620492.62506  -1309480.24047  22620487.96147
   2082360.83207  20793084.85207   1608852.39149  20793079.35949
  -3584055.34006  23172462.35906  -2789796.06347  23172456.94547
    -44534.42206  24023749.13306    -80576.87646  24023743.72346
    432301.09006  21508590.21906    331946.63848  21508584.33648
  -1638051.98805  24060901.60905  -1276485.99147  24060897.56347
   3848005.11707  22364578.55507   2975549.58748  22364574.17248
 08 11 15  0 12 30.0000000  0  9  3  6 13 16 19 21 23 25 31
  -2233639.85208  20649918.35208  -1735140.14849  20649913.94949
   -799120.02307  20507345.69507   -622681.77349  20507341.65649
  -1712164.77306  22614609.66406  -1333570.34947  22614604.08247
   2132096.21107  20802548.79707   1647607.22349  20802544.13749
  -3668054.56606  23156478.87506  -2855249.98147  23156471.75447
    -41503.21905  24024325.58605    -78214.87246  24024321.17646
    452763.93406  21512484.46106    347891.70648  21512477.00448
  -1707721.00405  24047644.14105  -1330773.51147  24047640.04347
   3940641.58607  22382206.49207   3047733.84548  22382202.28148
 08 11 15  0 13  0.0000000  0  9  3  6 13 16 19 21 23 25 31
  -2277339.27708  20641602.94508  -1769191.65349  20641597.98049
   -809424.18407  20505384.71907   -630710.99449  20505380.36749
  -1742627.87506  22608812.56306  -1357307.84947  22608807.59847
   2181938.05107  20812033.71107   1686445.01349  20812027.98849
  -3751930.18806  23140517.27306  -2920607.61547  23140510.49247
    -38138.73006  24024966.90606    -75593.22447  24024961.35947
    473754.37506  21516478.89106    364247.89548  21516471.77748
  -1777436.80905  24034378.25805  -1385097.48047  24034373.75047
   4033480.73807  22399873.13307   3120076.02648  22399868.87948
 08 11 15  0 13 30.0000000  0  9  3  6 13 16 19 21 23 25 31
  -2320651.44908  20633360.66408  -1802941.38649  20633355.87149
   -819316.79707  20503501.93007   -638419.51249  20503498.21949
  -1772629.87506  22603103.47706  -1380686.01147  22603098.40247
   2231892.87107  20821539.96107   1725370.83249  20821534.37549
  -3835672.62506  23124582.19506  -2985861.39047  23124575.52347
    -34432.22706  24025671.54706    -72705.03246  24025666.69546
    495279.87906  21520575.54706    381021.01648  21520567.82048
  -1847190.20305  24021103.93805  -1439450.75047  24021099.12547
   4126529.66807  22417580.15607   3192581.65248  22417575.82848
 08 11 15  0 14  0.0000000  0  9  3  6 13 16 19 21 23 25 31
  -2363576.90208  20625192.16408  -1836389.77449  20625187.73849
   -828799.54707  20501697.67207   -645808.66549  20501693.67249
  -1802169.59406  22597481.81306  -1403703.94947  22597477.32047
   2281957.72307  20831067.01607   1764382.40449  20831061.23449
  -3919281.52706  23108671.52306  -3051011.17947  23108664.78947
    -30384.57805  24026441.95305    -69551.04846  24026436.90246
    517337.97706  21524772.71906    398209.13048  21524764.83648
  -1916981.53505  24007822.91405  -1493833.62747  24007817.73847
   4219785.83607  22435326.32007   3265248.75048  22435321.10548
 08 11 15  0 14 30.0000000  0  9  3  6 13 16 19 21 23 25 31
  -2406110.13308  20617098.42208  -1869532.55249  20617093.41849
   -837868.02707  20499971.65607   -652875.01949  20499968.07449
  -1831241.96906  22591949.99206  -1426357.76047  22591945.53547
   2332136.06307  20840615.43007   1803482.38549  20840610.00449
  -4002750.41406  23092788.19506  -3116051.82248  23092781.39848
    -25990.33606  24027278.54706    -66126.89946  24027272.43046
    539932.66006  21529071.86706    415815.38248  21529064.70748
  -1986804.74605  23994536.25005  -1548241.32247  23994530.29347
   4313252.60907  22453112.24207   3338079.98448  22453106.55948
 08 11 15  0 15  0.0000000  0  9  3  6 13 16 19 21 23 25 31
  -2448248.25407  20609079.58607  -1902367.43949  20609075.40649
   -846520.27007  20498325.57807   -659617.02549  20498321.18449
  -1859843.86706  22586507.09406  -1448644.94047  22586502.72347
   2382428.93807  20850186.00807   1842671.63249  20850180.73449
  -4086075.46506  23076931.28906  -3180980.41747  23076925.00047
    -21246.44506  24028181.25006    -62430.35247  24028175.46947
    563065.21506  21533473.73406    433840.74848  21533466.71148
  -2056656.62905  23981243.95305  -1602671.37247  23981238.26247
   4406931.04707  22470938.82807   3411076.14948  22470933.46948
 08 11 15  0 15 30.0000000  0  9  3  6 13 16 19 21 23 25 31
  -2489981.50808  20601138.21908  -1934886.85849  20601133.72749
   -854747.85507  20496759.82007   -666028.13449  20496755.84049
  -1887964.44506  22581155.55506  -1470557.08347  22581152.06647
   2432844.03907  20859779.45307   1881956.11549  20859774.41449
  -4169245.98006  23061104.53106  -3245788.61247  23061098.78947
    -16143.26206  24029152.51606    -58453.81747  24029146.78147
    586743.80107  21537979.67207    452291.57348  21537972.60948
  -2126527.03105  23967948.29705  -1657115.85847  23967942.71147
   4500828.87507  22488807.04707   3484243.24648  22488802.43848
 08 11 15  0 16  0.0000000  0  9  3  6 13 16 19 21 23 25 31
  -2531305.40607  20593274.61707  -1967087.29349  20593269.51649
   -862547.15207  20495275.60207   -672105.49949  20495272.04749
  -1915598.79306  22575896.82006  -1492090.30747  22575892.46147
   2483383.62507  20869396.87507   1921337.60849  20869391.54749
  -4252256.36306  23045307.86706  -3310472.00847  23045302.39547
    -10676.21105  24030192.21905    -54193.74146  24030186.52346
    610971.30906  21542590.49206    471170.15148  21542583.13348
  -2196410.94905  23954649.58605  -1711570.82947  23954644.50847
   4594948.82407  22506717.41407   3557583.43248  22506713.13748
 08 11 15  0 16 30.0000000  0  9  3  6 13 16 19 21 23 25 31
  -2572213.10907  20585490.41407  -1998963.43049  20585485.19149
   -869912.79707  20493874.08607   -677844.96949  20493870.07449
  -1942739.98406  22570732.22706  -1513239.27847  22570727.72747
   2534052.48007  20879038.77307   1960819.82249  20879033.32049
  -4335099.11706  23029543.82006  -3375024.80947  23029537.53547
     -4838.82406  24031303.50806    -49645.12546  24031297.94946
    635752.54707  21547306.22707    490480.18648  21547298.93448
  -2266301.47305  23941349.86705  -1766030.98047  23941345.14547
   4689295.41007  22524670.85207   3631100.21348  22524666.73848
 08 11 15  0 17  0.0000000  0  9  3  6 13 16 19 21 23 25 31
  -2612696.57807  20577786.40607  -2030508.97449  20577781.85949
   -876837.26208  20492556.73408   -683240.65549  20492552.79749
  -1969379.43006  22565662.77306  -1533997.32147  22565658.81647
   2584857.01607  20888706.83607   2000407.76349  20888701.49649
  -4417764.67606  23013813.15606  -3439439.52547  23013806.63747
      1377.04305  24032485.18805    -44801.59446  24032480.80946
    661094.19907  21552128.46907    510226.92648  21552121.62148
  -2336189.42605  23928050.60205  -1820489.09347  23928045.99247
   4783875.18807  22542669.32807   3704798.69948  22542664.93048
 08 11 15  0 17 30.0000000  0  9  3  6 13 16 19 21 23 25 31
  -2652742.18807  20570165.96907  -2061713.35549  20570161.44549
   -883308.48408  20491325.21908   -688283.16849  20491321.09849
  -1995502.96506  22560691.64106  -1554353.33647  22560687.32047
   2635808.43007  20898402.75807   2040110.14349  20898397.04749
  -4500239.17606  22998118.93806  -3503705.36747  22998112.88747
      7984.78905  24033743.06305    -39652.72846  24033738.23446
    687007.94507  21557060.16407    530419.42448  21557052.83248
  -2406060.98805  23914754.64805  -1874934.44447  23914749.48047
   4878699.44507  22560713.54707   3778687.70948  22560708.97348
 08 11 15  0 18  0.0000000  0  9  3  6 13 16 19 21 23 25 31
  -2692351.04707  20562628.30507  -2092577.37549  20562624.30149
   -889328.33608  20490179.71908   -692973.95549  20490175.47349
  -2021111.37506  22555818.25006  -1574307.94647  22555813.40247
   2686903.74207  20908125.39107   2079924.66549  20908120.17649
  -4582522.40206  22982460.57006  -3567822.14947  22982454.56647
     14983.58205  24035074.38305    -34199.10846  24035070.42646
    713491.41407  21562099.53107    551055.90048  21562092.38748
  -2475916.53105  23901461.52305  -1929367.34347  23901455.83647
   4973765.74607  22578804.18807   3852765.33448  22578798.73048
 08 11 15  0 18 30.0000000  0  9  3  6 13 16 19 21 23 25 31
  -2731509.70708  20555176.83608  -2123090.61549  20555172.55949
   -894884.66407  20489122.35207   -697303.56949  20489118.52749
  -2046191.60906  22551045.78106  -1593850.99947  22551041.87947
   2738154.51607  20917877.96907   2119860.33449  20917873.46149
  -4664599.92606  22966842.03906  -3631778.66147  22966835.04747
     22386.57005  24036483.02305    -28430.55446  24036479.29346
    740556.19507  21567249.67207    572145.32048  21567242.39548
  -2545742.40605  23888173.71905  -1983777.08647  23888168.57447
   5069085.10507  22596943.09407   3927040.14448  22596937.79348
 08 11 15  0 19  0.0000000  0  9  3  6 13 16 19 21 23 25 31
  -2770225.47708  20547809.39108  -2153258.76049  20547804.93849
   -899985.59408  20488151.70308   -701278.30749  20488147.45749
  -2070749.27006  22546373.11706  -1612986.82947  22546367.96947
   2789551.60907  20927658.68007   2159910.01149  20927653.68449
  -4746477.81306  22951261.21906  -3695579.61147  22951253.78947
     30186.41805  24037967.43805    -22352.70846  24037963.05946
    768193.16407  21572508.78907    593680.60948  21572502.25048
  -2615545.02705  23874890.91405  -2038168.72947  23874885.97747
   5164648.34407  22615127.94507   4001504.96848  22615123.52748
 08 11 15  0 19 30.0000000  0  9  3  6 13 16 19 21 23 25 31
  -2808486.13707  20540528.93807  -2183072.26449  20540524.58249
   -904620.70307  20487269.37507   -704890.08349  20487265.37949
  -2094772.19106  22541801.10906  -1631706.01347  22541796.86747
   2841105.05907  20937469.22707   2200081.52349  20937463.41449
  -4828143.36706  22935720.45306  -3759215.05947  22935714.07847
     38395.03506  24039530.21106    -15956.36346  24039525.39846
    796412.50007  21577878.74207    615669.68048  21577872.20348
  -2685311.92605  23861615.10205  -2092532.51347  23861610.43447
   5260465.64507  22633361.82007   4076167.74748  22633357.07848
 08 11 15  0 20  0.0000000  0  9  3  6 13 16 19 21 23 25 31
  -2846295.80107  20533333.77307  -2212534.31649  20533329.67649
   -908794.45707  20486475.26607   -708142.35449  20486471.25449
  -2118264.19906  22537331.39106  -1650011.49747  22537326.64147
   2892808.95707  20947307.84407   2240370.27249  20947302.42249
  -4909598.77306  22920220.29706  -3822686.78647  22920213.93847
     47008.48404  24041168.76604     -9244.59546  24041164.28546
    825208.71107  21583358.82007    638108.27648  21583351.35548
  -2755046.12506  23848344.46906  -2146870.83747  23848340.24247
   5356531.44107  22651642.33607   4151024.18648  22651638.16848
 08 11 15  0 20 30.0000000  0  9  3  6 13 16 19 21 23 25 31
  -2883658.63307  20526223.82007  -2241648.20849  20526219.51249
   -912512.14508  20485767.61708   -711039.25749  20485763.70749
  -2141228.75406  22532961.60906  -1667905.93847  22532956.52747
   2944657.64507  20957174.50007   2280771.83049  20957168.79749
  -4990847.65206  22904759.00006  -3885997.59747  22904753.11347
     56022.97704  24042884.63304     -2220.24046  24042879.80546
    854576.05107  21588947.07007    660991.89848  21588939.77748
  -2824751.09406  23835080.54706  -2201186.37647  23835075.48447
   5452839.66807  22669969.03107   4226069.54348  22669964.50048
 08 11 15  0 21  0.0000000  0  9  3  6 13 16 19 21 23 25 31
  -2920563.63707  20519201.19507  -2270405.34549  20519197.05149
   -915764.11307  20485149.10907   -713573.26749  20485144.76249
  -2163654.66406  22528693.78106  -1685380.67847  22528688.36747
   2996660.32807  20967070.35207   2321293.39749  20967065.00049
  -5071877.94506  22889339.64806  -3949138.09047  22889332.92647
     65449.13305  24044678.69505      5124.86546  24044672.97346
    884523.53507  21594646.25807    684327.56848  21594639.26248
  -2894415.24606  23821823.93806  -2255470.14947  23821818.75447
   5549399.25007  22688343.60207   4301310.74948  22688339.44148
 08 11 15  0 21 30.0000000  0  9  3  6 13 16 19 21 23 25 31
  -2957008.23407  20512265.95307  -2298803.73049  20512261.53949
   -918548.62507  20484619.16407   -715743.01649  20484614.90649
  -2185539.10506  22524529.12506  -1702433.46447  22524524.75447
   3048817.60907  20976995.85907   2361935.41849  20976989.84849
  -5152685.67206  22873962.72706  -4012105.15747  22873956.94947
     75289.69504  24046551.03104     12792.84846  24046545.36746
    915052.10907  21600455.29707    708116.05848  21600448.31348
  -2964035.25406  23808575.66406  -2309719.50847  23808570.64547
   5646211.16807  22706766.29707   4376748.57448  22706761.68048
 08 11 15  0 22  0.0000000  0  9  3  6 13 16 19 21 23 25 31
  -2992987.89507  20505419.05507  -2326839.81549  20505415.04749
   -920862.45307  20484178.84407   -717545.99949  20484174.34849
  -2206877.11306  22520468.71106  -1719060.47447  22520464.80547
   3101132.06607  20986950.54707   2402699.92849  20986944.98049
  -5233265.61306  22858629.11706  -4074894.69148  22858622.65248
     85548.70704  24048502.89104     20786.88546  24048497.95346
    946164.39107  21606375.79707    732359.38348  21606368.04748
  -3033605.93806  23795336.58606  -2363930.37547  23795332.12547
   5743277.66807  22725237.85207   4452384.76148  22725232.75448
 08 11 15  0 22 30.0000000  0  9  3  6 13 16 19 21 23 25 31
  -3028502.83607  20498660.47707  -2354513.79049  20498656.62149
   -922706.77008  20483827.70308   -718983.11849  20483823.69949
  -2227668.25806  22516512.08606  -1735261.36347  22516507.73847
   3153602.36307  20996935.43807   2443585.87749  20996929.51649
  -5313616.64507  22843339.00807  -4137505.87648  22843331.42648
     96226.38302  24050534.66402     29107.07045  24050529.94545
    977858.50407  21612406.85907    757056.08648  21612400.12948
  -3103126.56306  23782107.35206  -2418102.30747  23782103.00047
   5840596.82807  22743756.68007   4528217.84648  22743750.86348
 08 11 15  0 23  0.0000000  0  9  3  6 13 16 19 21 23 25 31
  -3063548.87508  20491991.90608  -2381822.39249  20491987.36349
   -924078.52308  20483567.00008   -720052.01549  20483562.94949
  -2247908.22706  22512660.60906  -1751032.78247  22512655.75447
   3206230.50007  21006950.16407   2484594.82649  21006944.45349
  -5393733.52007  22828093.57007  -4199934.61548  22828085.19148
    107326.43403  24052646.94503     37756.47145  24052642.35545
   1010136.81607  21618549.27307    782208.01348  21618542.38348
  -3172592.22706  23768888.07006  -2472231.41147  23768883.47747
   5938171.41807  22762324.81307   4604249.97948  22762318.96948
 08 11 15  0 23 30.0000000  0  9  3  6 13 16 19 21 23 25 31
  -3098139.99208  20485409.44508  -2408776.50949  20485405.32849
   -924992.72308  20483392.76608   -720764.37049  20483388.47749
  -2267609.86706  22508912.10906  -1766384.69147  22508906.87147
   3259000.97707  21016992.00807   2525714.66049  21016986.43049
  -5473628.90206  22812888.85906  -4262190.71947  22812881.44947
    118835.12504  24054837.30504     46724.26346  24054832.42246
   1042983.43407  21624799.68807    807802.75748  21624792.87548
  -3242015.87906  23755677.03106  -2526327.74447  23755672.84447
   6035985.42607  22780938.32007   4680468.64248  22780933.21148
 08 11 15  0 24  0.0000000  0  9  3  6 13 16 19 21 23 25 31
  -3132288.26608  20478911.20308  -2435385.54149  20478907.06649
   -925462.99608  20483303.34408   -721130.81249  20483299.16049
  -2286786.12906  22505261.96106  -1781327.22247  22505258.34447
   3311899.39807  21027058.17207   2566934.20449  21027053.40249
  -5553314.36306  22797724.75006  -4324283.24548  22797717.86748
    130739.75805  24057102.93005     56000.64246  24057096.98446
   1076384.41007  21631155.68007    833829.48048  21631148.81648
  -3311409.41406  23742472.08606  -2580400.62847  23742467.61347
   6134024.46907  22799594.25007   4756862.68248  22799590.22748
 08 11 15  0 24 30.0000000  0  9  3  6 13 16 19 21 23 25 31
  -3165983.71108  20472498.91408  -2461641.73449  20472494.64549
   -925480.28108  20483299.82808   -721144.27549  20483295.87149
  -2305426.29306  22501715.75006  -1795852.02547  22501710.77347
   3364934.47307  21037150.62507   2608260.22749  21037145.53549
  -5632778.35506  22782603.64806  -4386203.22348  22782596.79748
    143050.70704  24059444.37504     65593.65346  24059439.89146
   1110347.71507  21637618.58607    860294.39548  21637611.65248
  -3380761.64506  23729274.72706  -2634441.30447  23729270.11347
   6232296.93407  22818294.84407   4833438.58648  22818290.55148
 08 11 15  0 25  0.0010000  0  9  3  6 13 16 19 21 23 25 31
  -3199231.05908  20466172.34108  -2487548.75849  20466168.33349
   -925048.85508  20483382.04408   -720808.10149  20483378.09949
  -2323533.86706  22498269.51306  -1809961.81747  22498264.41547
   3418102.93407  21047267.98107   2649690.19849  21047262.77849
  -5712025.67606  22767523.45806  -4447954.33948  22767517.11048
    155764.79705  24061864.31005     75500.67146  24061859.13046
   1144869.48007  21644188.31707    887194.43548  21644181.12248
  -3450077.30506  23716083.77106  -2688453.48347  23716079.66547
   6330801.10907  22837040.08307   4910195.08348  22837035.07948
 08 11 15  0 25 30.0010000  0  9  3  6 13 16 19 21 23 25 31
  -3232034.62108  20459930.22408  -2513109.97349  20459926.02149
   -924176.92608  20483548.13008   -720128.68149  20483544.41549
  -2341114.05906  22494923.92706  -1823660.67447  22494918.97047
   3471392.87507  21057408.73907   2691214.84149  21057403.77149
  -5791056.91806  22752483.73906  -4509537.13547  22752477.63047
    168874.14105  24064359.13005     85715.79246  24064353.60346
   1179938.24207  21650861.61407    914520.72648  21650854.32548
  -3519357.67606  23702900.32506  -2742438.14847  23702896.79847
   6429521.66407  22855825.86407   4987120.17448  22855820.91148
 08 11 15  0 26  0.0010000  0  9  3  6 13 16 19 21 23 25 31
  -3264400.53508  20453771.17708  -2538330.16049  20453766.91549
   -922870.21908  20483796.69208   -719110.46549  20483792.54049
  -2358172.77006  22491678.41906  -1836953.20647  22491673.34147
   3524799.75007  21067571.80207   2732830.58149  21067566.63849
  -5869878.18406  22737484.93506  -4570956.26647  22737478.43547
    182374.87905  24066928.76305     96235.79446  24066923.33746
   1215549.49607  21657637.88807    942269.73448  21657631.10348
  -3588608.81306  23689723.16106  -2796400.08747  23689718.76347
   6528455.32806  22874651.98906   5064211.30348  22874646.79048
 08 11 15  0 26 30.0010000  0  9  3  6 13 16 19 21 23 25 31
  -3296322.19908  20447696.63808  -2563204.18849  20447692.45449
   -921123.32807  20484129.27807   -717749.25849  20484124.54449
  -2374701.80906  22488533.49706  -1849832.96447  22488527.48147
   3578328.39807  21077758.13807   2774541.19849  21077752.36849
  -5948481.83207  22722528.05207  -4632205.86648  22722519.65348
    196272.76205  24069572.38805    107065.33546  24069567.79846
   1251707.53907  21664519.03607    970444.82348  21664512.11048
  -3657823.40206  23676551.90306  -2850333.50647  23676546.94247
   6627606.70306  22893519.48106   5141472.06448  22893515.59548
 08 11 15  0 27  0.0010000  0  9  3  6 13 16 19 21 23 25 31
  -3327812.01608  20441704.31008  -2587741.69849  20441700.04849
   -918949.73008  20484542.88808   -716055.54449  20484538.40749
  -2390713.49606  22485486.24706  -1862309.59047  22485481.42347
   3631965.14807  21087964.98907   2816336.07249  21087959.23149
  -6026878.90206  22707609.26306  -4693294.47648  22707601.53648
    210555.92205  24072291.81005    118195.03646  24072286.25546
   1288397.45707  21671500.37207    999034.35948  21671493.48148
  -3727012.61706  23663385.43506  -2904247.17347  23663380.19247
   6726961.89106  22912426.73906   5218891.65348  22912422.11848
 08 11 15  0 27 30.0010000  0  9  3  6 13 16 19 21 23 25 31
  -3358871.21108  20435793.73908  -2611943.66549  20435789.51349
   -916351.83608  20485037.36408   -714031.20049  20485032.94649
  -2406209.19506  22482536.74706  -1874384.17747  22482532.49747
   3685706.98807  21098191.84907   2858212.82549  21098186.23149
  -6105069.79706  22692729.27106  -4754222.39848  22692723.16148
    225222.46505  24075082.57505    129623.48745  24075077.39945
   1325616.50807  21678583.06707   1028036.19148  21678576.18548
  -3796176.86306  23650224.11406  -2958141.38747  23650219.43147
   6826517.57406  22931371.59106   5296467.48848  22931366.96248
 08 11 15  0 28  0.0010000  0  9  3  6 13 16 19 21 23 25 31
  -3389497.02708  20429966.13808  -2635807.92649  20429961.42749
   -913327.77708  20485612.70808   -711674.78749  20485608.51349
  -2421185.71906  22479686.82506  -1886054.22747  22479681.75147
   3739555.23807  21108438.56707   2900172.51949  21108432.87249
  -6183050.09807  22677890.51307  -4814986.21648  22677884.37648
    240275.94905  24077947.09905    141353.45345  24077942.29045
   1363365.98807  21685766.58307   1057451.39148  21685759.68148
  -3865312.06606  23637068.05206  -3012012.91047  23637063.62647
   6926275.04706  22950354.71606   5374200.58648  22950350.66148
 08 11 15  0 28 30.0010000  0  9  3  6 13 16 19 21 23 25 31
  -3419686.77708  20424221.13008  -2659332.41149  20424216.91949
   -909876.28108  20486269.57508   -708985.31249  20486265.19249
  -2435640.36706  22476935.87206  -1897317.57947  22476931.09147
   3793511.00007  21118706.03607   2942215.94949  21118700.67349
  -6260816.00807  22663092.20007  -4875583.03348  22663086.00948
    255718.44103  24080885.00503    153386.54745  24080881.16545
   1401646.03907  21693050.61407   1087279.98148  21693044.42348
  -3934414.73406  23623918.79406  -3065859.12747  23623913.87647
   7026235.08206  22969376.62206   5452091.45548  22969373.35348
 08 11 15  0 29  0.0010000  0  9  3  6 13 16 19 21 23 25 31
  -3449449.98008  20418557.15308  -2682524.49449  20418553.09949
   -906007.55508  20487005.60608   -705970.70549  20487001.33749
  -2449581.76206  22474283.39606  -1908180.99747  22474278.06747
   3847563.69107  21128991.91907   2984334.90949  21128986.37649
  -6338375.73807  22648332.73907  -4936019.18548  22648326.60348
    271540.25802  24083895.48102    165715.26644  24083891.91144
   1440445.85207  21700434.56007   1117513.57948  21700427.51348
  -4003492.85906  23610773.24706  -3119686.26347  23610768.38847
   7126386.58206  22988434.81706   5530131.54648  22988431.20448
 08 11 15  0 29 30.0010000  0  9  3  6 13 16 19 21 23 25 31
  -3478776.69108  20412976.48108  -2705376.47149  20412972.54449
   -901713.04708  20487823.06008   -702624.33949  20487818.79049
  -2462999.72707  22471730.47407  -1918636.57647  22471725.00947
   3901721.32407  21139297.51307   3026535.65249  21139292.23149
  -6415718.15606  22633614.65306  -4996286.00848  22633608.22048
    287751.69502  24086980.09102    178347.46945  24086977.07145
   1479772.87907  21707917.84107   1148157.99848  21707911.10648
  -4072535.76206  23597634.64606  -3173485.90747  23597630.56347
   7226737.95706  23007531.13806   5608327.37648  23007527.28648
 08 11 15  0 30  0.0010000  0  9  3  6 13 16 19 21 23 25 31
  -3507659.59008  20407480.21608  -2727882.61549  20407475.86849
   -896986.20308  20488722.74708   -698941.07349  20488718.43849
  -2475887.03507  22469277.88807  -1928678.64047  22469272.51747
   3955990.48007  21149624.63807   3068823.29449  21149619.11849
  -6492834.34406  22618940.06706  -5056376.52448  22618934.13048
    304359.91801  24090138.70001    191289.01245  24090137.38045
   1519632.89507  21715503.02807   1179217.75548  21715496.00148
  -4141534.57806  23584504.58306  -3227251.19647  23584500.57947
   7327294.48006  23026666.81706   5686683.10348  23026661.68148
 08 11 15  0 30 30.0010000  0  9  3  6 13 16 19 21 23 25 31
  -3536096.99608  20402068.97408  -2750041.62449  20402064.50949
   -891826.82408  20489704.31008   -694920.77549  20489700.71649
  -2488241.27707  22466927.22407  -1938305.32847  22466921.73947
   4010371.04707  21159973.01307   3111197.74049  21159967.72449
  -6569721.94906  22604308.95806  -5116288.91648  22604302.51348
    321366.26601  24093377.23901    204540.72344  24093374.08344
   1560025.18007  21723189.63007   1210692.24448  21723182.68548
  -4210486.82806  23571383.50506  -3280980.21947  23571378.89247
   7428055.95706  23045840.88006   5765198.53348  23045836.70048
 08 11 15  0 31  0.0010000  0  9  3  6 13 16 19 21 23 25 31
  -3564085.85908  20396742.73108  -2771851.12349  20396738.53249
   -886232.86308  20490768.66908   -690561.84049  20490764.45449
  -2500059.73007  22464678.22407  -1947514.51947  22464672.60647
   4064864.80907  21170342.79407   3153660.39949  21170337.42749
  -6646376.43406  22589721.73106  -5176019.65747  22589714.62247
    338773.68401  24096689.89601    218104.97344  24096686.43844
   1600951.48007  21730977.92707   1242582.85148  21730970.73948
  -4279388.06306  23558271.83306  -3334669.46647  23558266.92747
   7529024.00406  23065054.30206   5843874.90448  23065050.07948
 08 11 15  0 31 30.0010000  0  9  3  6 13 16 19 21 23 25 31
  -3591627.90608  20391501.84108  -2793312.44449  20391497.17349
   -880207.05908  20491915.42708   -685866.40649  20491911.07149
  -2511343.17207  22462531.71607  -1956306.82547  22462525.03247
   4119469.00807  21180734.01307   3196209.10249  21180728.14949
  -6722797.98006  22575179.91906  -5235568.89048  22575171.59148
    356580.80511  24100085.31001    231980.39153  24100074.93543
   1642407.73007  21738866.71607   1274886.40948  21738859.80648
  -4348238.71906  23545170.23106  -3388319.31247  23545165.94647
   7630195.39106  23084306.07506   5922709.70548  23084302.45448
 08 11 15  0 32  0.0010000  0  9  3  6 13 16 19 21 23 25 31
  -3618727.22708  20386344.70808  -2814428.77649  20386340.86049
   -873754.69908  20493143.34108   -680838.58349  20493139.13849
  -2522096.00007  22460485.03607  -1964685.63347  22460479.25547
   4174177.58208  21191144.61408   3238839.16449  21191139.04449
  -6798989.40206  22560681.31706  -5294938.78648  22560673.95048
    374783.48801  24103543.71601         0.00000         0.00000
   1684388.03107  21746855.18507   1307598.32848  21746848.20848
  -4417041.64106  23532077.37206  -3441931.95847  23532073.14247
   7731564.18806  23103595.95806   6001698.34048  23103592.37248
 08 11 15  0 32 30.0010000  0  9  3  6 13 16 19 21 23 25 31
  -3645374.50408  20381274.13008  -2835192.88749  20381269.55649
   -866867.25408  20494453.79408   -675471.75249  20494449.31749
  -2532307.91407  22458541.98907  -1972642.97347  22458536.55647
   4228999.50007  21201576.57507   3281557.52349  21201571.50949
  -6874939.95306  22546227.67706  -5354121.01848  22546221.38048
    393391.25411  24107085.13001         0.00000         0.00000
   1726900.06607  21754944.68507   1340724.57548  21754938.34948
  -4485785.96106  23518995.87206  -3495498.95747  23518990.88847
   7833137.93406  23122925.09906   6080846.66348  23122921.08348
 08 11 15  0 33  0.0010000  0  9  3  6 13 16 19 21 23 25 31
  -3671568.65608  20376289.31708  -2855603.90049  20376285.11049
   -859544.75808  20495847.20808   -669765.90549  20495842.84549
  -2541978.10507  22456701.04407  -1980178.16247  22456696.29047
   4283934.16008  21212030.16908   3324363.75749  21212025.36849
  -6950647.28906  22531820.74706  -5413113.71348  22531815.30648
         0.00000  24110707.27801         0.00000         0.00000
   1769942.29707  21763135.90307   1374263.97148  21763129.01348
  -4554469.47306  23505925.13006  -3549018.55947  23505920.45447
   7934916.60906  23142293.52806   6160154.68847  23142288.31747
 08 11 15  0 33 30.0010000  0  8  3  6 13 16 19 23 25 31
  -3697305.92208  20371391.79408  -2875658.92249  20371387.37649
   -851784.69508  20497323.95008   -663719.11049  20497319.79049
  -2551102.28507  22454965.04407  -1987287.92148  22454959.80248
   4338984.29707  21222506.13807   3367259.95249  21222500.42749
  -7026106.28106  22517461.21606  -5471912.92448  22517455.69648
   1813517.02307  21771427.38007   1408218.30948  21771421.18148
  -4623086.84406  23492868.23106  -3602486.65147  23492863.48147
   8036901.92206  23161700.83306   6239623.74147  23161694.66147
 08 11 15  0 34  0.0010000  0  8  3  6 13 16 19 23 25 31
  -3722589.31608  20366580.35608  -2895360.24749  20366576.45449
   -843591.50808  20498882.96608   -657334.79249  20498879.01349
  -2559683.54307  22453331.89607  -1993974.62547  22453326.59547
   4394145.08607  21233003.06007   3410242.37749  21232997.43149
  -7101319.07407  22503149.41107  -5530520.27248  22503143.04048
   1857618.61307  21779819.84907   1442583.16748  21779813.50948
  -4691640.40206  23479823.23906  -3655904.99647  23479818.42347
   8139088.71906  23181146.12206   6319249.78047  23181140.06347
 08 11 15  0 34 30.0010000  0  8  3  6 13 16 19 23 25 31
  -3747417.14108  20361856.15308  -2914706.61249  20361851.78249
   -834964.60208  20500524.50508   -650612.52049  20500520.71649
  -2567720.10506  22451803.16106  -2000236.88247  22451797.36447
   4449417.22707  21243520.78607   3453311.56149  21243515.02849
  -7176282.42207  22488884.84107  -5588933.24448  22488878.30648
   1902246.96507  21788312.55207   1477358.50148  21788305.05648
  -4760126.96506  23466790.10606  -3709271.13647  23466786.04047
   8241477.21906  23200629.93506   6399033.00348  23200624.43148
 08 11 15  0 35  0.0010000  0  8  3  6 13 16 19 23 25 31
  -3771788.70308  20357218.25508  -2933697.44149  20357213.93149
   -825903.75808  20502249.06708   -643552.12049  20502244.66549
  -2575210.58206  22450376.98106  -2006073.62147  22450371.66547
   4504800.53107  21254059.81707   3496467.37849  21254054.33749
  -7250993.92607  22474667.46607  -5647149.96148  22474660.89648
   1947401.18807  21796905.06007   1512543.62848  21796898.43148
  -4828543.80906  23453770.77806  -3762582.96747  23453766.33347
   8344067.03106  23220151.91906   6478973.08948  23220147.90348
 08 11 15  0 35 30.0010000  0  9  3  6 13 16 19 21 23 25 31
  -3795695.85908  20352668.62208  -2952326.40149  20352664.31049
   -816401.79308  20504057.09908   -636147.99349  20504052.54849
  -2582146.50006  22449057.34906  -2011478.23047  22449052.26347
   4560302.52307  21264621.41907   3539715.67849  21264616.38449
  -7325443.87507  22460499.84907  -5705162.87348  22460492.77448
     11428.57411  24129960.98101         0.00000         0.00000
   1993087.57007  21805598.90307   1548143.38348  21805592.43548
  -4896881.16406  23440766.09906  -3815832.82847  23440762.32547
   8446864.98006  23239714.18506   6559075.36948  23239709.23548
 08 11 15  0 36  0.0010000  0  9  3  6 13 16 19 21 23 25 31
  -3819138.76208  20348207.90308  -2970593.60149  20348203.34149
   -806460.67608  20505948.71608   -628401.65949  20505944.06749
  -2588528.38306  22447842.64606  -2016451.13547  22447838.16547
   4615921.17607  21275205.55207   3583054.88249  21275199.91149
  -7399631.65207  22446382.41107  -5762971.51848  22446375.28648
         0.00000  24134046.43501         0.00000         0.00000
   2039303.47707  21814393.66907   1584155.76948  21814386.71248
  -4965138.49206  23427777.72406  -3869020.35247  23427773.25947
   8549868.53106  23259314.81706   6639337.86648  23259310.61848
 08 11 15  0 36 30.0010000  0  8  3  6 13 16 19 23 25 31
  -3842119.63708  20343834.85608  -2988500.77949  20343830.39949
   -796083.55508  20507923.54408   -620315.58449  20507918.86049
  -2594358.19506  22446733.38006  -2020993.84247  22446728.53647
   4671653.35507  21285810.78607   3626482.55249  21285805.49349
  -7473557.93006  22432314.26306  -5820576.39648  22432308.29048
   2086044.07407  21823287.45007   1620577.01348  21823280.63848
  -5033316.36706  23414803.88006  -3922145.97147  23414799.38447
   8653073.77306  23278953.94206   6719757.50848  23278949.72848
 08 11 15  0 37  0.0010000  0  8  3  6 13 16 19 23 25 31
  -3864633.53508  20339550.55208  -3006044.07349  20339546.25149
   -785265.94108  20509981.95008   -611886.26549  20509977.67749
  -2599629.97707  22445730.67707  -2025101.73647  22445725.19647
   4727503.58607  21296439.00507   3670002.20749  21296434.02149
  -7547215.69506  22418297.70006  -5877972.03848  22418291.64248
   2133313.37907  21832283.42707   1657410.21548  21832276.09148
  -5101407.71106  23401846.16906  -3975204.14047  23401841.72847
   8756484.79306  23298632.34106   6800337.50448  23298628.06048
 08 11 15  0 37 30.0010000  0  8  3  6 13 16 19 23 25 31
  -3886669.25808  20335357.09908  -3023214.76949  20335352.97849
   -773998.03508  20512126.44208   -603106.08149  20512121.79849
  -2604332.81306  22444835.15306  -2028766.28147  22444830.77447
   4783481.78907  21307091.68507   3713621.56649  21307085.56049
  -7620592.53106  22404335.27106  -5935148.79648  22404328.37248
   2181120.35507  21841379.98907   1694662.39548  21841372.88048
  -5169399.90606  23388908.20006  -4028185.08447  23388902.59547
   8860111.10206  23318352.16906   6881085.22748  23318348.39648
 08 11 15  0 38  0.0010000  0  8  3  6 13 16 19 23 25 31
  -3908226.32408  20331254.90308  -3040012.48649  20331250.26349
   -762280.53908  20514356.14608   -593975.57449  20514351.35649
  -2608466.17207  22444049.73907  -2031987.09147  22444043.93147
   4839587.10907  21317767.71607   3757339.98449  21317762.14949
  -7693686.74607  22390425.28607  -5992105.32148  22390418.73548
   2229463.30507  21850579.52107   1732332.20548  21850572.65748
  -5237291.18407  23375989.11407  -4081087.38247  23375983.38847
   8963951.48006  23338112.37206   6961999.77748  23338108.31348
 08 11 15  0 38 30.0010000  0  8  3  6 13 16 19 23 25 31
  -3929305.42608  20327243.88808  -3056437.76249  20327239.13449
   -750115.24608  20516671.34108   -584496.12249  20516666.27849
  -2612030.63307  22443370.70807  -2034764.60947  22443365.42347
   4895817.98807  21328467.95807   3801156.24948  21328462.63448
  -7766497.64106  22376569.34906  -6048841.08148  22376563.61048
   2278339.55907  21859880.80207   1770417.57048  21859873.93148
  -5305080.60507  23363089.02807  -4133910.31048  23363084.06748
   9068003.58206  23357912.43506   7043079.30647  23357908.56047
 08 11 15  0 39  0.0010000  0  8  3  6 13 16 19 23 25 31
  -3949899.59808  20323324.54408  -3072485.16249  20323319.81749
   -737496.16008  20519072.48108   -574663.07049  20519067.95849
  -2615018.84806  22442802.77806  -2037093.09348  22442796.81748
   4952180.23807  21339193.69207   3845074.88449  21339188.59949
  -7839016.76206  22362769.74706  -6105349.45448  22362762.97048
   2327753.58207  21869283.73107   1808921.99748  21869276.82148
  -5372759.62907  23350210.31707  -4186647.18548  23350205.17348
   9172272.79706  23377754.48106   7124328.00547  23377750.75547
 08 11 15  0 39 30.0010000  0  9  3  6 13 16 19 21 23 25 31
  -3970012.71508  20319497.46608  -3088157.72949  20319492.77449
   -724428.35508  20521559.03608   -564480.35349  20521554.71249
  -2617434.65206  22442342.44206  -2038975.54648  22442336.96248
   5008669.50007  21349942.77107   3889092.47749  21349937.60349
  -7911246.71107  22349024.98907  -6161632.52248  22349018.59948
     29088.49211  24164918.18501         0.00000         0.00000
   2377699.69107  21878788.27107   1847841.02848  21878781.29448
  -5440330.34006  23337351.90306  -4239299.66948  23337346.89248
   9276753.71906  23397636.13806   7205741.69047  23397632.64247
 08 11 15  0 40  0.0010000  0  8  3  6 13 16 19 23 25 31
  -3989635.95308  20315762.90308  -3103448.55649  20315758.68549
   -710903.90608  20524132.46608   -553941.81949  20524128.66949
  -2619269.02306  22441993.24706  -2040404.92648  22441987.78648
   5065293.50007  21360718.40307   3933215.06149  21360713.25149
  -7983176.85507  22335337.02807  -6217681.96148  22335330.45848
   2428184.72707  21888395.31007   1887180.00448  21888388.56348
  -5507782.28506  23324516.02806  -4291859.59948  23324511.61048
   9381453.79706  23417560.57506   7287326.15247  23417556.40347
 08 11 15  0 40 30.0010000  0  9  3  6 13 16 19 21 23 25 31
  -4008778.50808  20312120.84908  -3118364.81849  20312115.81749
   -696933.04708  20526791.34108   -543055.43749  20526787.08749
  -2620530.83607  22441753.31707  -2041388.16648  22441747.82948
   5122042.52007  21371517.05207   3977435.05448  21371512.13048
  -8054814.78907  22321704.43507  -6273503.72348  22321698.14648
     23990.19111  24174481.52101         0.00000         0.00000
   2479197.56607  21898102.64607   1926930.26048  21898096.30648
  -5575122.66006  23311701.99706  -4344332.57948  23311696.95448
   9486362.61306  23437523.66906   7369073.22247  23437519.34147
 08 11 15  0 41  0.0010000  0  9  3  6 13 16 19 21 23 25 31
  -4027436.09808  20308570.00508  -3132903.20249  20308564.93849
   -682512.71908  20529535.28608   -531818.82149  20529530.94649
  -2621216.17207  22441622.71607  -2041922.18548  22441617.04048
   5178919.64807  21382340.65307   4021754.87649  21382335.57949
  -8126154.94906  22308129.09906  -6329093.44948  22308123.13448
         0.00000  24179388.39601         0.00000         0.00000
   2530740.18807  21907910.52807   1967093.30648  21907905.02148
  -5642345.93406  23298909.39606  -4396714.36548  23298904.44248
   9591482.29306  23457528.26306   7450984.60847  23457523.44647
 08 11 15  0 41 30.0010000  0  9  3  6 13 16 19 21 23 25 31
  -4045614.44508  20305110.78608  -3147068.13449  20305105.97449
   -667649.63707  20532363.56707   -520237.20049  20532359.43849
  -2621330.23007  22441601.20807  -2042011.08348  22441595.47448
   5235918.23807  21393187.29407   4066169.36248  21393181.89948
  -8197201.78906  22294609.21606  -6384454.61248  22294603.90748
     75985.34401  24184375.01301         0.00000         0.00000
   2582804.86307  21917818.26307   2007663.16848  21917811.29448
  -5709455.83606  23286138.56006  -4449007.77847  23286133.94247
   9696806.17606  23477570.05206   7533055.14347  23477565.57947
 08 11 15  0 42  0.0010000  0  8  3  6 13 16 19 23 25 31
  -4063310.54308  20301743.32508  -3160857.29549  20301739.20449
   -652341.73007  20535276.49707   -508308.95249  20535272.31749
  -2620870.00807  22441688.70807  -2041652.46448  22441684.15348
   5293040.87507  21404057.25507   4110680.50148  21404052.35348
  -8267950.27006  22281146.24706  -6439583.26948  22281140.28648
   2635392.37907  21927825.66907   2048640.46248  21927818.33748
  -5776447.48007  23273390.50507  -4501209.03247  23273385.91547
   9802335.50805  23497651.84105   7615285.77447  23497646.86447
 08 11 15  0 42 30.0010000  0  8  3  6 13 16 19 23 25 31
  -4080523.02008  20298468.04408  -3174269.61049  20298463.57549
   -636588.66407  20538274.02107   -496033.83549  20538270.16949
  -2619834.01607  22441885.59907  -2040845.20448  22441880.52448
   5350288.04707  21414950.88807   4155288.67849  21414945.26749
  -8338397.68807  22267740.60607  -6494477.35748  22267734.26748
   2688502.53107  21937931.72407   2090024.95848  21937925.13448
  -5843317.75406  23260665.50506  -4553315.73847  23260660.46247
   9908070.37105  23517771.65305   7697676.51247  23517767.83347
 08 11 15  0 43  0.0010000  0  9  3  6 13 16 19 21 23 25 31
  -4097258.28508  20295283.22408  -3187310.07549  20295278.85649
   -620397.73407  20541355.32507   -483417.53149  20541351.16549
  -2618228.20707  22442191.28607  -2039593.91348  22442186.68848
   5407652.61307  21425867.30207   4199988.32748  21425861.44248
  -8408548.92207  22254391.13807  -6549140.65448  22254384.45848
     47233.41011  24199839.31001         0.00000         0.00000
   2742126.63307  21948137.06007   2131809.95848  21948129.78648
  -5910070.93406  23247962.73106  -4605331.18747  23247957.52447
  10014003.10505  23537929.66905   7780221.44947  23537926.96247
 08 11 15  0 43 30.0010000  0  9  3  6 13 16 19 21 23 25 31
  -4113515.17208  20292189.40308  -3199977.76149  20292185.77149
   -603769.14507  20544519.26307   -470460.18749  20544515.08749
  -2616051.75007  22442605.36407  -2037897.98748  22442601.00148
   5465134.91007  21436805.61407   4244779.72148  21436799.80648
  -8478401.47707  22241098.57507  -6603571.17548  22241092.55248
     75173.27701  24205151.68501         0.00000         0.00000
   2796263.52007  21958438.20007   2173994.54548  21958431.53648
  -5976704.39506  23235283.13806  -4657253.34247  23235277.95047
  10120133.05906  23558126.41906   7862920.06748  23558123.22448
 08 11 15  0 44  0.0010000  0  8  3  6 13 16 19 23 25 31
  -4129305.09408  20289184.72408  -3212281.58749  20289180.65349
   -586715.12507  20547764.84907   -457171.34049  20547760.48149
  -2613315.76207  22443126.09107  -2035766.04547  22443121.37247
   5522723.15207  21447764.35607   4289653.66948  21447759.00948
  -8547964.80507  22227861.27807  -6657776.35248  22227854.38848
   2850899.94907  21968835.11407   2216568.38048  21968828.44248
  -6043227.39806  23222624.45006  -4709089.44247  23222619.21647
  10226447.78906  23578357.56006   7945762.70548  23578353.56748
 08 11 15  0 44 30.0010000  0  9  3  6 13 16 19 21 23 25 31
  -4144627.27307  20286269.08307  -3224220.95449  20286265.26349
   -569235.97707  20551091.04407   -443551.23149  20551087.21249
