     2.10           OBSERVATION DATA    G (GPS)             RINEX VERSION / TYPE
Pinnacle 1.00                           16-NOV-08 16:01     PGM / RUN BY / DATE
build April 19, 2002                                        COMMENT
-Unknown-           -Unknown-                               OBSERVER / AGENCY
         Begin Pinnacle project                             COMMENT
1115                                                        COMMENT
                                                            COMMENT
                                                            COMMENT
November 16, 2008 3:45:30 pm                                COMMENT
                                                            COMMENT
                                                            COMMENT
D:\2008-----\gps\20081115\Pinnacle.dbd                 COMMENT
         End Pinnacle project                               COMMENT
                                                            COMMENT
7221                                                        MARKER NAME
7221(Tail)(Head)                                            MARKER NUMBER
AF83006AI2O         TPS GB-1000         3.1 Jun,28,2007 p3  REC # / TYPE / VERS
-Unknown-           TPSPG_A1        NONE                    ANT # / TYPE
 -3053180.4762  4056222.8315  3848002.0926                  APPROX POSITION XYZ
        1.5630        0.0000        0.0000                  ANTENNA: DELTA H/E/N
     1     1                                                WAVELENGTH FACT L1/2
     7    L1    L2    C1    P1    P2    D1    D2            # / TYPES OF OBSERV
    30.000                                                  INTERVAL
  2008    11    15     0    20    0.0000000     GPS         TIME OF FIRST OBS
  2008    11    15     2    20    0.0000000     GPS         TIME OF LAST OBS
    12                                                      # OF SATELLITES
   G 3   241   241   241   241   241   241   241            PRN / # OF OBS
   G 6   241   241   241   241   241   241   241            PRN / # OF OBS
   G 7   179   179   179   179   179   179   179            PRN / # OF OBS
   G11    22    22    22    22    22    22    22            PRN / # OF OBS
   G13   241   241   241   241   241   241   241            PRN / # OF OBS
   G16   241   241   241   241   241   241   241            PRN / # OF OBS
   G19   241   241   241   241   241   241   241            PRN / # OF OBS
   G21   137   137   137   137   137   137   137            PRN / # OF OBS
   G23   213   213   213   213   213   213   213            PRN / # OF OBS
   G25   241   241   241   241   241   241   241            PRN / # OF OBS
   G27    62    58    62    58    58    58    58            PRN / # OF OBS
   G31    98    98    98    98    98    98    98            PRN / # OF OBS
SE TPS 2892abb3                                             COMMENT
                                                            END OF HEADER
 08 11 15  0 20  0.0000000  0  9G 6G16G 3G23G31G13G19G21G25         
 107774829.714    83980386.7674   20508864.349 8  20508864.29445  20508868.79945
       844.768         658.260  
 110163067.788    85841352.1774   20963331.089 7  20963330.33845  20963335.29645
     -1023.178        -797.282  
 108024184.810    84174698.5244   20556317.732 7  20556317.33145  20556321.69645
      1965.770        1531.764  
 113503510.343    88444309.1814   21599001.000 7  21599000.30044  21599002.43744
      -271.554        -211.607  
 119185770.335    92872028.5494   22680293.820 7  22680294.06445  22680298.31845
     -2506.708       -1953.284  
 118489305.185    92329335.9904   22547763.752 6  22547763.71442  22547766.62342
      1474.449        1148.912  
 120585228.736    93962518.9634   22946601.745 6  22946601.13844  22946603.44644
      3422.384        2666.789  
 126448580.442    98531363.8714   24062362.691 6  24062361.52843  24062366.19943
       420.347         327.541  
 125369276.522    97690347.2184   23856977.248 7  23856977.16043  23856979.35043
      3027.929        2359.419  
 08 11 15  0 20 30.0000000  0  9G 6G16G 3G23G31G13G19G21G25         
 107749648.627    83960765.1374   20504072.760 8  20504072.64445  20504076.18545
       833.757         649.679  
 110193769.934    85865275.9104   20969173.370 7  20969172.84145  20969176.79945
     -1023.843        -797.798  
 107965369.827    84128868.6714   20545125.483 7  20545124.93445  20545129.31245
      1955.040        1523.409  
 113511876.559    88450828.3094   21600593.776 7  21600593.36944  21600594.32544
      -286.388        -223.160  
 119261026.095    92930669.3554   22694614.740 7  22694615.12245  22694618.32245
     -2510.537       -1956.257  
 118445269.945    92295022.7954   22539384.341 6  22539384.95143  22539387.24242
      1461.010        1138.448  
 120482594.388    93882544.1154   22927071.986 6  22927071.00944  22927073.02044
      3419.698        2664.699  
 126436104.780    98521642.5574   24059988.093 6  24059987.34543  24059993.08043
       411.132         320.370  
 125278388.358    97619525.2774   23839681.331 6  23839681.71843  23839684.33243
      3031.084        2361.885  
 08 11 15  0 21  0.0000000  0  9G 6G16G 3G23G31G13G19G21G25         
 107724846.617    83941438.8904   20499352.982 8  20499353.09045  20499356.62445
       821.144         639.847  
 110224540.476    85889252.9484   20975029.269 7  20975028.78045  20975032.28245
     -1026.090        -799.544  
 107906925.746    84083327.8304   20534003.702 7  20534002.92745  20534008.06745
      1942.671        1513.768  
 113520736.249    88457731.9484   21602278.658 7  21602278.55444  21602280.19744
      -302.808        -235.963  
 119336445.431    92989437.6424   22708967.030 7  22708967.25845  22708970.06845
     -2515.961       -1960.491  
 118401687.200    92261062.2324   22531090.969 6  22531090.91843  22531093.90743
      1445.938        1126.677  
 120380090.898    93802671.2904   22907563.743 5  22907562.56443  22907567.04243
      3415.271        2661.271  
 126423953.935    98512174.3874   24057675.759 6  24057674.32142  24057679.67042
       400.338         311.957  
 125187455.276    97548668.3294   23822377.870 6  23822377.19842  23822379.62542
      3032.555        2363.025  
 08 11 15  0 21 30.0000000  0  9G 6G16G 3G23G31G13G19G21G25         
 107700405.827    83922394.1074   20494702.096 8  20494701.75345  20494705.66045
       808.028         629.635  
 110255360.369    85913268.4364   20980893.973 7  20980893.21745  20980897.23045
     -1028.790        -801.653  
 107848835.485    84038062.6944   20522949.558 7  20522949.11945  20522953.22745
      1929.767        1503.715  
 113530070.735    88465005.5634   21604056.185 7  21604055.92244  21604057.23744
      -319.706        -249.119  
 119412009.706    93048318.8724   22723345.990 7  22723346.90145  22723349.87745
     -2521.871       -1965.094  
 118358540.256    92227441.2324   22522880.726 6  22522881.36243  22522883.10043
      1430.318        1114.524  
 120277702.567    93722888.1824   22888080.206 5  22888078.44143  22888083.25743
      3410.345        2657.416  
 126412111.005    98502946.1054   24055423.045 6  24055421.85742  24055426.61742
       388.960         303.090  
 125096460.966    97477763.6754   23805061.269 6  23805061.33842  23805064.23342
      3033.492        2363.762  
 08 11 15  0 22  0.0000000  0  9G 6G16G 3G23G31G13G19G21G25         
 107676354.044    83903652.4514   20490124.832 8  20490124.51145  20490129.08745
       795.003         619.478  
 110286256.718    85937343.5114   20986773.666 7  20986773.06445  20986776.59645
     -1031.406        -803.690  
 107791128.153    83993095.9404   20511968.758 8  20511968.55145  20511972.60445
      1916.937        1493.719  
 113539907.164    88472670.2924   21605927.709 7  21605927.30744  21605928.60144
      -336.485        -262.200  
 119487745.702    93107333.9014   22737758.992 7  22737759.54045  22737762.07645
     -2527.638       -1969.587  
 118315858.561    92194182.7614   22514758.518 6  22514758.25743  22514761.24143
      1414.691        1102.361  
 120175459.291    93643218.0894   22868623.460 5  22868621.15043  22868626.80543
      3405.423        2653.571  
 126400604.684    98493980.1174   24053232.908 6  24053231.39042  24053236.30142
       377.661         294.277  
 125005435.229    97406834.5354   23787739.938 6  23787739.16542  23787743.18442
      3034.434        2364.485  
 08 11 15  0 22 30.0000000  0  9G 6G16G 3G23G31G13G19G21G25         
 107652716.445    83885233.5314   20485626.959 8  20485626.85245  20485631.12245
       780.052         607.836  
 110317254.568    85961497.6754   20992672.286 7  20992671.58445  20992675.32945
     -1035.899        -807.196  
 107733829.877    83948447.9414   20501064.892 8  20501064.58745  20501068.89845
      1902.146        1482.190  
 113550269.987    88480745.2064   21607899.632 7  21607899.29844  21607900.83644
      -355.151        -276.745  
 119563677.856    93166501.7814   22752207.815 7  22752208.21245  22752211.72345
     -2535.303       -1975.560  
 118273668.887    92161307.6834   22506730.308 6  22506730.39043  22506732.63743
      1397.139        1088.675  
 120073388.396    93563682.3324   22849201.823 6  22849201.01844  22849203.49844
      3398.519        2648.199  
 126389461.328    98485296.9534   24051112.597 6  24051112.53442  24051116.90042
       364.413         283.966  
 124914405.020    97335901.9344   23770417.699 6  23770417.12442  23770421.04742
      3033.421        2363.705  
 08 11 15  0 23  0.0000000  0  9G 6G16G 3G23G31G13G19G21G25         
 107629515.726    83867155.0364   20481212.020 8  20481211.51345  20481215.90045
       765.387         596.407  
 110348375.544    85985747.7754   20998594.855 7  20998594.02845  20998597.65445
     -1040.115        -810.477  
 107676964.515    83904137.2714   20490244.421 8  20490243.97345  20490247.63845
      1887.579        1470.842  
 113561181.259    88489247.4894   21609976.020 7  21609975.53544  21609977.67844
      -373.536        -291.062  
 119639828.569    93225839.9624   22766698.410 7  22766698.85645  22766702.93645
     -2542.700       -1981.322  
 118231995.223    92128834.6854   22498799.734 7  22498799.70143  22498802.35043
      1379.796        1075.176  
 119971514.844    93484300.3714   22829815.601 6  22829815.23144  22829817.52944
      3391.773        2642.946  
 126378704.530    98476915.0294   24049066.165 6  24049065.87043  24049070.17543
       351.407         273.815  
 124823394.953    97264985.0174   23753099.125 5  23753098.45842  23753101.53742
      3032.617        2363.080  
 08 11 15  0 23 30.0000000  0  9G 6G16G 3G23G31G13G19G21G25         
 107606804.921    83849458.2904   20476890.002 8  20476889.73545  20476894.55345
       748.371         583.143  
 110379672.145    86010134.7264   21004550.101 8  21004549.66545  21004553.30745
     -1046.636        -815.554  
 107620586.114    83860206.0514   20479515.556 8  20479514.89745  20479519.28545
      1870.650        1457.656  
 113572693.043    88498217.7034   21612166.746 7  21612166.04944  21612169.07644
      -394.226        -307.188  
 119716249.838    93285388.9604   22781241.069 7  22781241.47245  22781245.07445
     -2552.383       -1988.867  
 118190892.698    92096806.7564   22490978.177 7  22490978.54144  22490981.37544
      1360.068        1059.791  
 119869893.987    93405115.3114   22810478.233 6  22810477.62644  22810479.76544
      3382.619        2635.814  
 126368388.569    98468876.6054   24047102.804 6  24047101.89443  24047106.93942
       336.021         261.820  
 124732460.137    97194126.7094   23735793.903 5  23735793.86742  23735797.25142
      3029.374        2360.549  
 08 11 15  0 24  0.0000000  0  9G 6G16G 3G23G31G13G19G21G25         
 107584632.632    83832181.1704   20472671.208 8  20472670.56245  20472675.28945
       728.871         567.952  
 110411192.214    86034695.8164   21010548.202 7  21010547.80445  21010551.23845
     -1055.592        -822.534  
 107564744.842    83816693.3854   20468889.515 8  20468889.35945  20468892.75245
      1851.200        1442.500  
 113584853.653    88507693.4844   21614480.774 7  21614480.53144  21614482.54144
      -417.367        -325.216  
 119792989.519    93345186.0874   22795844.047 7  22795843.82944  22795847.89644
     -2564.485       -1998.307  
 118150410.602    92065262.2554   22483274.796 7  22483274.83944  22483277.88344
      1337.825        1042.462  
 119768576.541    93326166.6694   22791198.226 7  22791196.69644  22791199.89244
      3370.954        2626.716  
 126358562.922    98461220.2384   24045232.946 6  24045231.53642  24045236.87542
       318.123         247.897  
 124641650.889    97123366.2474   23718513.233 5  23718512.80941  23718517.38441
      3023.635        2356.077  
 08 11 15  0 24 30.0000000  0  9G 6G16G 3G23G31G13G19G21G25         
 107563046.841    83815361.0684   20468563.445 7  20468563.14945  20468567.56845
       708.848         552.349  
 110442983.371    86059468.1304   21016597.912 8  21016597.25345  21016601.22145
     -1065.117        -829.965  
 107509489.568    83773637.3364   20458374.728 8  20458374.10545  20458378.47845
      1831.159        1426.873  
 113597709.970    88517711.3824   21616927.227 7  21616927.27744  21616928.65844
      -441.033        -343.668  
 119870094.907    93405268.1764   22810516.753 7  22810516.92144  22810520.76844
     -2577.175       -2008.189  
 118110598.572    92034239.8944   22475698.960 7  22475698.86444  22475701.64444
      1314.965        1024.647  
 119667612.930    93247493.7214   22771985.214 6  22771983.87244  22771987.63444
      3358.629        2617.104  
 126349276.835    98453984.3444   24043466.236 6  24043465.29042  24043470.26942
       299.620         233.460  
 124551017.292    97052742.6634   23701265.119 4  23701264.98641  23701269.36641
      3017.280        2351.135  
 08 11 15  0 25  0.0000000  0  9G 6G16G 3G23G31G13G19G21G25         
 107542072.939    83799017.7604   20464572.156 8  20464571.99745  20464575.92645
       687.629         535.826  
 110475070.229    86084470.8684   21022703.917 7  21022703.21245  21022706.85545
     -1075.786        -838.277  
 107454846.397    83731058.2454   20447976.234 8  20447975.76045  20447979.82845
      1809.933        1410.336  
 113611286.584    88528290.5314   21619510.548 7  21619509.80344  21619512.64844
      -465.856        -363.008  
 119947590.636    93465654.4234   22825263.794 7  22825264.14744  22825267.51344
     -2591.000       -2018.956  
 118071483.355    92003760.4984   22468254.847 7  22468254.84544  22468257.77644
      1290.906        1005.898  
 119567030.627    93169117.9204   22752845.029 7  22752843.93844  22752847.63844
      3345.058        2606.540  
 126340556.397    98447189.2014   24041806.616 6  24041805.68443  24041810.58443
       279.937         218.122  
 124460586.534    96982277.1714   23684055.191 4  23684054.76441  23684061.08641
      3009.572        2345.118  
 08 11 15  0 25 30.0000000  0  9G 6G16G 3G23G31G13G19G21G25         
 107521792.133    83783214.5244   20460712.690 8  20460712.19545  20460716.73945
       663.210         516.794  
 110507533.817    86109767.1784   21028880.943 7  21028880.39045  21028884.04045
     -1089.660        -849.087  
 107400898.166    83689020.6594   20437710.121 8  20437710.05945  20437714.42945
      1785.417        1391.234  
 113625663.782    88539493.5104   21622246.542 7  21622246.03244  21622248.41044
      -493.862        -384.826  
 120025557.402    93526407.7264   22840101.047 7  22840101.14444  22840103.14744
     -2608.000       -2032.205  
 118033147.877    91973888.6964   22460960.194 7  22460960.27844  22460963.01844
      1263.563         984.596  
 119466913.199    93091104.3534   22733793.333 6  22733791.99044  22733796.30744
      3328.201        2593.400  
 126332484.015    98440899.0294   24040271.181 6  24040271.32043  24040274.12243
       256.999         200.251  
 124370442.251    96912034.8394   23666900.956 3  23666899.53341  23666908.56241
      2998.797        2336.717  
 08 11 15  0 26  0.0000000  0  9G 6G16G 3G23G31G13G19G21G25         
 107502248.232    83767985.5074   20456993.564 8  20456992.94445  20456997.48645
       639.411         498.246  
 110540417.326    86135390.6814   21035138.625 7  21035138.07545  21035142.11345
     -1102.902        -859.406  
 107347689.365    83647559.2564   20427585.099 8  20427584.91345  20427588.48645
      1761.511        1372.611  
 113640885.366    88551354.4604   21625142.855 7  21625142.60144  21625143.88344
      -521.233        -406.157  
 120104038.097    93587561.4834   22855035.566 7  22855035.94144  22855036.86444
     -2624.366       -2044.958  
 117995636.389    91944658.9614   22453822.087 7  22453822.46744  22453825.07244
      1236.819         963.764  
 119367306.666    93013488.8964   22714838.175 6  22714836.48544  22714840.55244
      3311.887        2580.688  
 126325104.850    98435149.0314   24038866.961 6  24038865.68943  24038870.51943
       234.610         182.825  
 124280630.005    96842051.3134   23649812.181 4  23649809.61141  23649817.59441
      2988.479        2328.690  
 08 11 15  0 26 30.0000000  0  9G 6G16G 3G23G31G13G19G21G25         
 107483434.675    83753325.5884   20453413.561 8  20453413.16045  20453417.21845
       615.697         479.764  
 110573713.648    86161335.8664   21041474.947 7  21041474.56745  21041477.47645
     -1116.035        -869.640  
 107295214.645    83606669.8654   20417599.617 8  20417599.11045  20417602.79445
      1737.631        1353.994  
 113656943.693    88563867.4144   21628198.697 7  21628198.21443  21628199.56744
      -548.462        -427.385  
 120183025.393    93649109.9844   22870066.105 7  22870065.55944  22870068.29844
     -2640.618       -2057.621  
 117958945.177    91916068.4254   22446840.292 7  22446839.83844  22446843.02644
      1210.087         942.925  
 119268206.766    92936268.2064   22695979.784 6  22695978.36544  22695982.61044
      3295.601        2568.000  
 126318412.833    98429934.4684   24037592.893 6  24037592.17743  24037597.79643
       212.337         165.460  
 124191145.414    96772323.0224   23632783.379 4  23632783.14141  23632789.54241
      2977.981        2320.510  
 08 11 15  0 27  0.0000000  0  9G 6G16G 3G23G31G13G19G21G25         
 107465333.217    83739220.5554   20449969.407 8  20449969.19545  20449972.93745
       592.342         461.559  
 110607404.294    86187588.3194   21047885.120 7  21047884.75645  21047888.62445
     -1128.769        -879.565  
 107243456.868    83566339.1254   20407750.243 8  20407749.65545  20407754.03545
      1714.117        1335.672  
 113673819.055    88577017.0294   21631410.687 7  21631410.24143  21631409.51443
      -575.317        -448.305  
 120262500.606    93711038.6654   22885189.014 7  22885188.94844  22885193.18844
     -2656.473       -2069.979  
 117923057.086    91888103.6874   22440010.142 7  22440009.56443  22440013.14143
      1183.687         922.347  
 119169597.619    92859429.9404   22677215.560 7  22677214.63944  22677218.33844
      3279.590        2555.518  
 126312391.166    98425242.2624   24036446.948 6  24036447.11143  24036451.28343
       190.356         148.328  
 124101972.274    96702837.4604   23615815.501 4  23615815.11941  23615821.41441
      2968.046        2312.746  
 08 11 15  0 27 30.0000000  0  9G 6G16G 3G23G31G13G19G21G25         
 107447942.888    83725669.6524   20446660.018 8  20446659.81945  20446663.83045
       568.643         443.102  
 110641487.685    86214146.8024   21054371.298 7  21054370.81445  21054374.82545
     -1141.843        -889.751  
 107192416.219    83526567.1874   20398037.693 8  20398037.05245  20398041.38245
      1690.207        1317.048  
 113691510.121    88590802.2714   21634777.169 7  21634776.97543  21634775.81943
      -602.473        -469.465  
 120342461.826    93773346.0494   22900405.630 7  22900405.76644  22900409.97544
     -2672.651       -2082.580  
 117887972.152    91860764.7554   22433333.778 7  22433333.73443  22433337.01543
      1156.893         901.480  
 119071480.345    92782974.9484   22658545.054 7  22658543.92045  22658547.41844
      3263.167        2542.725  
 126307039.518    98421072.1334   24035428.834 7  24035428.29943  24035433.65943
       168.007         130.921  
 124013111.820    96633595.5284   23598905.822 5  23598905.88542  23598909.98142
      2957.586        2304.624  
 08 11 15  0 28  0.0000000  0  9G 6G16G 3G23G31G13G19G21G25         
 107431226.210    83712643.6684   20443479.203 8  20443479.07046  20443482.81146
       545.852         425.342  
 110675925.812    86240981.6934   21060925.173 7  21060924.66545  21060928.37745
     -1153.989        -899.205  
 107142056.125    83487325.5664   20388454.769 8  20388454.35645  20388458.45445
      1667.169        1299.085  
 113709978.853    88605193.4604   21638291.632 8  21638291.55644  21638291.17044
      -628.708        -489.899  
 120422871.046    93836002.5244   22915707.374 7  22915707.87944  22915710.94445
     -2687.899       -2094.457  
 117853654.210    91834023.4894   22426802.586 6  22426802.64943  22426806.40643
      1130.985         881.289  
 118973819.965    92706875.9924   22639960.735 7  22639959.44444  22639963.13044
      3247.564        2530.565  
 126302322.069    98417396.1974   24034531.273 6  24034530.53643  24034535.63843
       146.525         114.171  
 123924528.596    96564569.6484   23582050.140 5  23582049.62142  23582053.55142
      2947.967        2297.127  
 08 11 15  0 28 30.0000000  0  9G 6G16G 3G23G31G13G19G21G25         
 107415172.220    83700134.0704   20440424.279 8  20440423.93545  20440428.37545
       525.084         409.160  
 110710707.495    86268084.2954   21067544.187 7  21067543.69445  21067546.65845
     -1164.127        -907.105  
 107092367.013    83448606.7804   20378999.032 7  20378998.73945  20379003.02445
      1646.101        1282.681  
 113729213.066    88620181.1594   21641951.675 8  21641951.31144  21641951.79144
      -652.906        -508.758  
 120503716.687    93898999.0894   22931091.417 7  22931091.30044  22931095.72844
     -2701.133       -2104.772  
 117820093.760    91807872.4824   22420417.289 6  22420417.32043  22420419.94443
      1107.010         862.599  
 118876607.992    92631126.4364   22621461.698 7  22621460.76344  22621464.06344
      3233.895        2519.916  
 126298228.615    98414206.4804   24033752.232 6  24033751.15043  24033756.31043
       127.039          98.989  
 123836213.944    96495753.0224   23565244.546 5  23565243.66842  23565249.58542
      2940.316        2291.156  
 08 11 15  0 29  0.0000000  0  9G 6G16G 3G23G31G13G19G21G25         
 107399729.708    83688100.9474   20437485.619 8  20437485.20046  20437489.47846
       503.676         392.473  
 110745781.139    86295414.3854   21074218.690 7  21074218.12245  21074220.53945
     -1174.846        -915.463  
 107043298.407    83410371.5184   20369661.790 8  20369661.51545  20369666.19545
      1624.398        1265.763  
 113749161.019    88635724.9994   21645747.910 7  21645747.54744  21645749.43844
      -677.681        -528.062  
 120584946.708    93962295.1734   22946549.692 7  22946549.62044  22946552.78144
     -2714.947       -2115.544  
 117787241.128    91782273.0154   22414165.508 6  22414165.65643  22414167.90743
      1082.420         843.452  
 118779795.259    92555687.9664   22603039.203 7  22603038.26044  22603040.67744
      3219.538        2508.733  
 126294708.462    98411463.4904   24033082.508 6  24033081.88743  24033087.15543
       106.898          83.294  
 123748118.781    96427107.4244   23548479.537 5  23548479.08742  23548484.95142
      2931.915        2284.624  
 08 11 15  0 29 30.0000000  0  9G 6G16G 3G23G31G13G19G21G25         
 107384902.011    83676546.8994   20434663.747 7  20434663.41745  20434667.77045
       485.140         378.034  
 110781149.552    86322974.1584   21080949.064 8  21080948.54145  21080951.12445
     -1182.744        -921.620  
 106994854.989    83372623.4074   20360443.062 7  20360442.54545  20360447.95345
      1605.458        1251.008  
 113769824.898    88651826.6854   21649679.956 7  21649679.45844  21649681.15844
      -699.619        -545.154  
 120666564.257    94025893.2284   22962081.590 7  22962082.17144  22962085.12944
     -2725.925       -2124.101  
 117755101.208    91757228.9104   22408050.546 7  22408050.77443  22408052.85043
      1060.535         826.393  
 118683387.667    92480565.2084   22584693.317 7  22584692.41244  22584694.81444
      3207.919        2499.666  
 126291766.701    98409171.2094   24032523.196 6  24032522.19543  24032525.64643
        89.526          69.754  
 123660248.626    96358637.2004   23531759.399 5  23531757.73242  23531764.14342
      2926.321        2280.259  
 08 11 15  0 30  0.0000000  0  9G 6G16G 3G23G31G13G19G21G25         
 107370621.320    83665419.0884   20431946.050 7  20431945.80145  20431950.31846
       467.338         364.160  
 110816744.921    86350710.7814   21087722.482 8  21087721.94545  21087725.41945
     -1189.856        -927.160  
 106946969.741    83335310.2464   20351330.354 7  20351330.22245  20351335.91445
      1587.310        1236.867  
 113791136.106    88668432.8114   21653734.736 7  21653734.42244  21653736.86444
      -720.698        -561.589  
 120748500.279    94089739.4534   22977673.226 7  22977673.50944  22977676.25744
     -2736.068       -2132.003  
 117723606.939    91732687.9364   22402057.514 6  22402056.78944  22402059.36743
      1039.449         809.960  
 118587319.784    92405707.1284   22566411.591 7  22566410.76444  22566414.18544
      3197.017        2491.181  
 126289336.153    98407277.2834   24032059.858 6  24032058.89043  24032063.52043
        72.913          56.814  
 123572537.921    96290291.2244   23515067.666 5  23515066.49643  23515072.65143
      2921.456        2276.442  
 08 11 15  0 30 30.0000000  0  9G 6G16G 3G23G31G13G19G21G25         
 107356853.919    83654691.2534   20429326.149 8  20429325.48945  20429330.46145
       451.015         351.449  
 110852533.164    86378597.6974   21094532.674 8  21094532.08045  21094535.78145
     -1195.491        -931.543  
 106899610.365    83298406.8454   20342318.494 7  20342317.84145  20342323.54845
      1570.533        1223.799  
 113813059.942    88685516.3264   21657906.560 7  21657906.31944  21657909.71944
      -740.341        -576.885  
 120830720.628    94153807.2424   22993319.209 7  22993319.04144  22993322.01944
     -2744.748       -2138.764  
 117692726.737    91708625.4444   22396180.810 7  22396181.24543  22396182.76243
      1019.798         794.656  
 118491559.984    92331089.1204   22548189.535 7  22548188.38244  22548192.18544
      3187.494        2483.769  
 126287384.184    98405756.2564   24031688.572 6  24031688.23743  24031693.28243
        57.735          44.991  
 123484955.284    96222045.0194   23498402.155 6  23498401.37443  23498405.87243
      2917.922        2273.711  
 08 11 15  0 31  0.0000000  0  9G 6G16G 3G23G31G13G19G21G25         
 107343571.841    83644341.5974   20426798.613 7  20426798.26445  20426803.05945
       434.306         338.421  
 110888486.105    86406612.9584   21101374.584 8  21101374.01245  21101377.44145
     -1201.522        -936.244  
 106852750.017    83261892.3014   20333401.258 8  20333400.47145  20333405.76445
      1553.355        1210.396  
 113835568.201    88703055.2174   21662190.375 7  21662189.81344  21662192.36344
      -760.342        -592.472  
 120913196.897    94218074.4374   23009013.565 7  23009013.99644  23009017.03744
     -2753.804       -2145.826  
 117662433.344    91685020.1944   22390415.791 6  22390415.34143  22390418.38643
       999.630         778.935  
 118396082.889    92256691.4214   22530019.918 7  22530018.95644  22530022.16644
      3177.486        2475.958  
 126285883.794    98404587.1044   24031403.634 6  24031404.21643  24031407.35343
        42.129          32.844  
 123397475.180    96153878.7044   23481755.633 6  23481755.47443  23481758.76243
      2913.914        2270.580  
 08 11 15  0 31 30.0000000  0  9G 6G16G 3G23G31G13G19G21G25         
 107330763.998    83634361.4654   20424361.284 8  20424360.89645  20424365.94845
       419.308         326.733  
 110924592.567    86434747.8514   21108245.179 8  21108244.87345  21108247.92445
     -1205.801        -939.587  
 106806378.557    83225758.7094   20324577.736 7  20324577.66945  20324581.58745
      1537.847        1198.323  
 113858648.411    88721039.7844   21666582.800 7  21666582.54244  21666583.45444
      -778.581        -606.683  
 120995917.426    94282531.9664   23024754.261 7  23024754.32144  23024757.86844
     -2761.121       -2151.520  
 117632717.575    91661865.0614   22384761.639 6  22384761.52943  22384763.16743
       981.174         764.555  
 118300879.852    92182507.2484   22511903.505 7  22511902.35844  22511905.77344
      3169.132        2469.457  
 126284825.191    98403762.2144   24031202.144 6  24031201.94542  24031204.44943
        28.202          21.964  
 123310088.674    96085785.3354   23465126.664 6  23465127.06543  23465129.45443
      2911.582        2268.764  
 08 11 15  0 32  0.0000000  0  9G 6G16G 3G23G31G13G19G21G25         
 107318404.253    83624730.5084   20422009.532 8  20422008.91545  20422013.98545
       403.990         314.800  
 110960825.678    86462981.4324   21115140.014 8  21115139.37645  21115142.60745
     -1210.421        -943.193  
 106760471.027    83189986.6284   20315841.341 8  20315841.04945  20315845.38145
      1521.971        1185.950  
 113882273.800    88739449.2064   21671078.208 7  21671078.47744  21671079.12344
      -797.131        -621.134  
 121078855.487    94347159.0124   23040536.425 7  23040536.17444  23040541.23144
     -2768.747       -2157.465  
 117603554.200    91639140.3444   22379211.606 6  22379211.63944  22379214.31943
       962.341         749.874  
 118205927.260    92108518.2294   22493834.818 7  22493833.84144  22493838.32944
      3160.348        2462.607  
 126284183.498    98403262.1994   24031080.546 6  24031079.42743  24031082.85943
        13.895          10.819  
 123222772.136    96017746.4814   23448510.931 6  23448510.48143  23448513.32143
      2908.833        2266.614  
 08 11 15  0 32 30.0000000  0  9G 6G16G 3G23G31G13G19G21G25         
 107306501.171    83615455.3894   20419744.229 8  20419743.97645  20419748.91145
       389.406         303.431  
 110997194.370    86491320.6544   21122060.465 8  21122060.08445  21122064.03145
     -1214.277        -946.193  
 106715036.813    83154583.3584   20307195.945 8  20307195.58345  20307199.44745
      1506.831        1174.150  
 113906452.091    88758289.4474   21675678.836 7  21675678.45244  21675680.18743
      -814.879        -634.974  
 121162018.707    94411961.4804   23056362.298 7  23056362.08544  23056367.28745
     -2775.608       -2162.811  
 117574953.540    91616854.1154   22373768.695 7  22373769.41744  22373772.32944
       944.238         735.769  
 118111235.889    92034732.7904   22475815.878 7  22475814.46144  22475819.00144
      3152.249        2456.298  
 126283968.055    98403094.3174   24031038.586 6  24031037.15842  24031042.27242
         0.330           0.249  
 123135536.491    95949770.6494   23431910.331 6  23431910.17343  23431912.75043
      2906.742        2264.995  
 08 11 15  0 33  0.0000000  0  9G 6G16G 3G23G31G13G19G21G25         
 107295056.155    83606537.2114   20417566.139 7  20417565.56145  20417571.07245
       373.740         291.222  
 111033699.532    86519766.2314   21129007.470 8  21129007.10545  21129010.71145
     -1219.242        -950.057  
 106670078.433    83119550.8664   20298640.718 8  20298640.48445  20298644.09045
      1490.540        1161.456  
 113931183.175    88777560.4244   21680385.299 7  21680384.91443  21680384.86643
      -833.713        -649.647  
 121245408.356    94476940.4094   23072231.111 7  23072231.24945  23072235.43345
     -2783.552       -2169.000  
 117546917.823    91595008.0974   22368433.867 7  22368433.96244  22368437.13344
       924.977         720.753  
 118016809.494    91961153.8314   22457847.711 7  22457846.69244  22457849.73744
      3142.962        2449.061  
 126284180.959    98403260.2104   24031079.273 6  24031077.78942  24031082.43142
       -14.371         -11.210  
 123048385.301    95881860.6494   23415325.502 6  23415326.21743  23415327.93443
      2903.476        2262.442  
 08 11 15  0 33 30.0000000  0  9G 6G16G 3G23G31G13G19G21G25         
 107284053.234    83597963.5124   20415472.492 7  20415472.18145  20415477.39345
       359.751         280.327  
 111070325.298    86548305.7864   21135977.405 8  21135976.85745  21135980.16845
     -1222.524        -952.618  
 106625581.121    83084877.6574   20290172.872 8  20290172.61145  20290176.57745
      1475.906        1150.051  
 113956450.848    88797249.5114   21685193.417 7  21685193.19443  21685193.07443
      -850.827        -662.988  
 121329007.714    94542082.7554   23088139.731 7  23088139.62745  23088143.66745
     -2789.781       -2173.856  
 117519432.810    91573591.2034   22363203.321 6  22363203.52244  22363206.42344
       907.320         706.998  
 117922634.719    91887770.9214   22439925.809 7  22439925.02344  22439927.36444
      3135.290        2443.084  
 126284807.676    98403748.5404   24031197.452 6  24031197.43542  24031200.76842
       -27.446         -21.388  
 122961305.433    95814006.2214   23398754.545 6  23398753.90543  23398756.70043
      2901.806        2261.135  
 08 11 15  0 34  0.0000000  0  9G 6G16G 3G23G31G13G19G21G25         
 107273466.808    83589714.3614   20413457.968 8  20413457.62546  20413462.59146
       345.473         269.195  
 111107045.757    86576919.1224   21142964.965 8  21142964.25646  21142968.05046
     -1226.082        -955.389  
 106581520.767    83050544.9104   20281788.399 8  20281787.77845  20281791.70345
      1460.910        1138.369  
 113982228.254    88817335.7764   21690098.107 7  21690097.23843  21690099.18043
      -868.206        -676.524  
 121412790.476    94607367.9964   23104083.071 7  23104083.21345  23104087.67545
     -2796.279       -2178.920  
 117492474.260    91552584.5404   22358074.199 7  22358074.07644  22358077.08444
       889.373         693.021  
 117828688.280    91814565.9304   22422049.341 7  22422047.91444  22422050.72044
      3127.235        2436.799  
 126285822.947    98404539.6804   24031391.984 6  24031389.76442  24031393.99942
       -40.808         -31.806  
 122874273.385    95746189.0464   23382192.998 6  23382192.21543  23382196.39043
      2899.788        2259.570  
 08 11 15  0 34 30.0000000  0  9G 6G16G 3G23G31G13G19G21G25         
 107263335.496    83581819.8364   20411530.072 8  20411529.89545  20411534.11445
       330.823         257.786  
 111143899.581    86605636.3834   21149977.859 7  21149977.18745  21149980.61945
     -1229.949        -958.396  
 106537937.047    83016583.5784   20273494.609 7  20273493.95745  20273498.84945
      1445.565        1126.407  
 114008553.355    88837848.8264   21695108.195 7  21695107.99643  21695109.17743
      -885.899        -690.308  
 121496794.868    94672825.9344   23120068.470 7  23120068.57145  23120072.95345
     -2803.104       -2184.235  
 117466081.991    91532019.1214   22353051.373 7  22353051.28844  22353054.89644
       871.012         678.712  
 117735011.389    91741570.9744   22404223.322 7  22404222.18344  22404225.10244
      3118.761        2430.196  
 126287266.816    98405664.7654   24031666.650 6  24031666.78242  24031669.15342
       -54.575         -42.525  
 122787330.386    95678441.2584   23365648.718 6  23365648.21643  23365651.25743
      2897.319        2257.646  
 08 11 15  0 35  0.0000000  0  9G 6G16G 3G23G31G13G19G21G25         
 107253622.865    83574251.5524   20409682.082 8  20409681.85745  20409685.96445
       315.845         246.119  
 111180849.943    86634428.8684   21157009.285 8  21157008.93746  21157012.12746
     -1234.245        -961.744  
 106494794.013    82982965.6314   20265284.719 8  20265284.37845  20265288.59645
      1429.811        1114.140  
 114035388.591    88858759.3724   21700214.976 7  21700214.64743  21700215.65743
      -903.940        -704.368  
 121580983.791    94738427.6554   23136088.547 7  23136089.00045  23136094.36045
     -2810.318       -2189.861  
 117440220.646    91511867.4214   22348130.173 7  22348130.56544  22348132.63044
       852.228         664.082  
 117641569.862    91668759.4064   22386441.329 7  22386440.41344  22386443.33044
      3109.823        2423.249  
 126289104.354    98407096.6034   24032015.917 6  24032014.95742  24032020.12142
       -68.742         -53.528  
 122700442.506    95610736.4294   23349114.327 6  23349114.04343  23349117.95543
      2894.378        2255.359  
 08 11 15  0 35 30.0000000  0  9G 6G16G 3G23G31G13G19G21G25         
 107244341.338    83567019.2024   20407915.649 8  20407915.53045  20407919.98945
       301.818         235.176  
 111217909.572    86663306.4934   21164061.485 8  21164060.87745  21164065.14846
     -1237.547        -964.321  
 106452105.069    82949701.5084   20257161.408 8  20257160.73945  20257165.04045
      1414.970        1102.573  
 114062745.417    88880076.3744   21705421.123 7  21705421.57344  21705422.96944
      -920.991        -717.649  
 121665369.349    94804182.5934   23152147.686 7  23152147.95945  23152152.10645
     -2816.530       -2194.697  
 117414904.005    91492140.1704   22343312.015 7  22343312.31444  22343315.45044
       834.370         650.166  
 117548378.597    91596142.8494   22368707.449 7  22368706.80644  22368708.80744
      3101.773        2416.974  
 126291348.753    98408845.4774   24032442.696 6  24032441.49242  24032446.22342
       -82.026         -63.910  
 122613624.734    95543086.2324   23332593.064 6  23332592.47143  23332597.09743
      2892.326        2253.758  
 08 11 15  0 36  0.0000000  0  9G 6G16G 3G23G31G13G19G21G25         
 107235488.447    83560120.8414   20406231.032 8  20406230.90245  20406235.25845
       287.116         223.726  
 111255075.896    86692267.2694   21171134.013 8  21171133.53946  21171137.60445
     -1241.488        -967.391  
 106409869.526    82916790.6924   20249124.507 8  20249124.42345  20249128.36745
      1399.437        1090.464  
 114090620.737    88901797.3944   21710725.212 7  21710724.62644  21710727.00944
      -938.624        -731.401  
 121749948.467    94870088.3534   23168242.277 7  23168242.67745  23168246.85445
     -2823.360       -2200.018  
 117390130.968    91472836.4954   22338598.528 7  22338598.34744  22338601.01344
       815.866         635.740  
 117455437.696    91523721.3864   22351021.977 7  22351020.99944  22351023.80944
      3092.997        2410.123  
 126293998.240    98410910.0164   24032948.172 6  24032946.22142  24032952.07542
       -95.943         -74.765  
 122526877.050    95475490.6444   23316086.100 6  23316085.30343  23316089.45643
      2889.563        2251.587  
 08 11 15  0 36 30.0000000  0  9G 6G16G 3G23G31G13G19G21G25         
 107227075.818    83553565.5534   20404630.222 8  20404630.12945  20404634.36645
       273.085         212.795  
 111292360.588    86721320.2704   21178229.184 8  21178228.57845  21178232.39546
     -1244.788        -969.961  
 106368099.966    82884242.9714   20241175.918 8  20241175.54545  20241180.01145
      1384.570        1078.888  
 114119024.485    88923930.1504   21716130.227 7  21716129.89444  21716133.11543
      -955.599        -744.613  
 121834731.994    94936153.4134   23184376.129 7  23184375.99445  23184380.07945
     -2829.505       -2204.802  
 117365914.377    91453966.4174   22333990.414 7  22333990.10744  22333993.02244
       797.928         621.770  
 117362761.297    91451506.0494   22333386.336 7  22333385.22444  22333387.82444
      3084.785        2403.719  
 126297065.550    98413300.0824   24033530.315 6  24033530.48942  24033535.14942
      -109.212         -85.085  
 122440213.693    95407960.7674   23299594.752 6  23299594.27143  23299597.83643
      2887.344        2249.889  
 08 11 15  0 37  0.0000000  0  9G 6G16G 3G23G31G13G19G21G25         
 107219093.945    83547345.9134   20403111.784 8  20403111.46945  20403115.67445
       258.417         201.358  
 111329754.173    86750458.1174   21185345.102 8  21185344.72446  21185347.94346
     -1248.727        -973.030  
 106326787.364    82852051.3224   20233313.899 7  20233313.68845  20233318.37745
      1368.992        1066.746  
 114147946.636    88946466.8854   21721634.214 7  21721634.25143  21721635.19143
      -973.163        -758.309  
 121919710.045    95002370.0514   23200547.190 7  23200547.09545  23200550.48545
     -2836.313       -2210.110  
 117342246.151    91435523.6334   22329485.773 7  22329485.27744  22329489.83444
       779.318         607.265  
 117270342.396    91379491.3374   22315798.857 7  22315798.55844  22315800.82144
      3075.856        2396.768  
 126300542.419    98416009.3284   24034192.992 6  24034192.62642  24034196.05142
      -123.197         -95.999  
 122353627.717    95340491.2074   23283117.503 6  23283117.36643  23283121.00543
      2884.410        2247.582  
 08 11 15  0 37 30.0000000  0  9G 6G16G 3G23G31G13G19G21G25         
 107211557.982    83541473.7384   20401677.430 8  20401677.38545  20401681.60145
       244.248         190.322  
 111367271.864    86779692.6644   21192484.930 8  21192484.39445  21192487.11145
     -1252.173        -975.719  
 106285948.221    82820228.6054   20225542.603 7  20225541.79345  20225546.51145
      1353.857        1054.960  
 114177401.507    88969418.7174   21727238.821 7  21727238.58743  21727239.96343
      -990.222        -771.599  
 122004897.412    95068749.7874   23216757.916 7  23216758.08245  23216761.74245
     -2842.596       -2215.002  
 117319142.560    91417520.8514   22325090.073 7  22325090.21944  22325093.43544
       761.174         593.114  
 117178198.749    91307691.0844   22298264.966 6  22298264.16144  22298265.60944
      3067.311        2390.116  
 126304444.870    98419050.1904   24034936.085 6  24034934.95943  24034939.29843
      -136.724        -106.540  
 122267137.088    95273095.9254   23266659.141 6  23266658.91343  23266661.79043
      2881.892        2245.633  
 08 11 15  0 38  0.0000000  0  9G 6G16G 3G23G31G13G19G21G25         
 107204461.452    83535943.9654   20400327.082 8  20400326.66545  20400331.21345
       229.772         179.039  
 111404907.057    86809018.7724   21199646.387 8  21199645.64145  21199648.81746
     -1255.930        -978.645  
 106245577.266    82788770.7154   20217860.151 7  20217859.74445  20217864.81345
      1338.422        1042.920  
 114207381.610    88992779.8044   21732942.870 6  21732942.02343  21732944.32243
     -1007.560        -785.098  
 122090287.177    95135287.2164   23233007.356 7  23233007.43045  23233011.00245
     -2849.148       -2220.119  
 117296598.338    91399953.9204   22320799.256 7  22320798.59144  22320802.81344
       742.732         578.755  
 117086326.314    91236102.1944   22280781.416 7  22280780.96244  22280783.88144
      3058.415        2383.181  
 126308767.419    98422418.4034   24035758.124 6  24035757.79543  24035760.97243
      -150.558        -117.317  
 122180737.802    95205771.8204   23250217.553 6  23250216.87943  23250220.49743
      2878.971        2243.342  
 08 11 15  0 38 30.0000000  0  9G 6G16G 3G23G31G13G19G21G25         
 107197814.569    83530764.5574   20399062.070 8  20399061.64945  20399065.92445
       214.376         167.044  
 111442670.141    86838444.5394   21206832.423 8  21206832.18246  21206834.97246
     -1260.570        -982.265  
 106205685.786    82757686.4384   20210269.182 7  20210268.98545  20210274.18645
      1322.035        1030.154  
 114237896.214    89016557.4064   21738750.362 6  21738749.98843  21738751.55443
     -1025.716        -799.267  
 122175888.884    95201989.7954   23249296.401 7  23249296.58844  23249300.43345
     -2856.585       -2225.911  
 117274624.907    91382831.7564   22316618.304 7  22316618.60844  22316621.37544
       723.229         563.558  
 116994737.723    91164734.4764   22263352.957 6  22263351.65744  22263355.24444
      3048.518        2375.468  
 126313521.509    98426122.8734   24036662.902 6  24036663.28543  24036666.68143
      -165.327        -128.823  
 122094442.777    95138528.9344   23233795.913 6  23233796.02243  23233799.10743
      2875.054        2240.309  
 08 11 15  0 39  0.0000000  0  9G 6G16G 3G23G31G13G19G21G25         
 107191600.597    83525922.4854   20397879.597 8  20397879.42145  20397882.94145
       199.809         155.697  
 111480544.229    86867956.7984   21214039.678 8  21214038.95346  21214042.07846
     -1264.431        -985.269  
 106166258.088    82726963.5494   20202766.181 7  20202765.40845  20202770.96945
      1306.412        1017.987  
 114268927.132    89040737.3484   21744655.265 6  21744654.93343  21744657.28843
     -1043.066        -812.778  
 122261685.169    95268844.0054   23265622.829 7  23265623.26244  23265626.28044
     -2863.212       -2231.076  
 117253206.862    91366142.3634   22312542.145 7  22312541.81544  22312546.37744
       704.549         548.998  
 116903418.777    91093576.8654   22245974.791 6  22245973.85044  22245978.04944
      3039.350        2368.315  
 126318690.893    98430150.9824   24037647.574 6  24037646.86443  24037649.54743
      -179.359        -139.762  
 122008237.836    95071356.2734   23217392.314 6  23217392.11443  23217395.26343
      2871.851        2237.801  
 08 11 15  0 39 30.0000000  0  9G 6G16G 3G23G31G13G19G21G25         
 107185829.014    83521425.1424   20396781.337 8  20396780.99245  20396784.86745
       184.885         144.063  
 111518539.490    86897563.4824   21221269.779 8  21221269.23246  21221272.48746
     -1268.653        -988.562  
 106127304.800    82696610.3374   20195353.956 8  20195353.72545  20195359.16945
      1290.398        1005.506  
 114300483.157    89065326.4384   21750659.735 7  21750659.24443  21750661.27943
     -1060.741        -826.555  
 122347685.371    95335857.1164   23281988.941 7  23281988.91344  23281991.47344
     -2870.210       -2236.524  
 117232354.941    91349894.0994   22308574.040 7  22308573.75944  22308576.93644
       685.479         534.137  
 116812381.419    91022638.6624   22228651.408 6  22228649.76044  22228654.58944
      3029.708        2360.812  
 126324286.552    98434511.2324   24038712.006 7  24038711.91643  24038714.03043
      -193.771        -150.984  
 121922135.444    95004263.5054   23201007.385 6  23201006.77043  23201010.06443
      2868.208        2234.972  
 08 11 15  0 40  0.0000000  0  9G 6G16G 3G23G31G13G19G21G25         
 107180502.537    83517274.6324   20395767.743 8  20395767.28045  20395771.46445
       169.184         131.835  
 111556658.392    86927266.5044   21228523.610 8  21228523.16846  21228526.70446
     -1273.644        -992.451  
 106088829.541    82666629.6114   20188032.037 8  20188031.56745  20188037.32545
      1273.592         992.415  
 114332565.931    89090325.9844   21756765.747 6  21756764.38843  21756767.26243
     -1079.134        -840.883  
 122433891.558    95403030.7334   23298393.136 7  23298392.96144  23298395.24644
     -2877.901       -2242.522  
 117212072.906    91334089.8994   22304715.158 7  22304715.37044  22304718.18144
       665.620         518.666  
 116721630.964    90951924.0314   22211381.668 6  22211381.03344  22211385.60744
      3019.254        2352.667  
 126330311.845    98439206.2474   24039859.227 7  24039859.24843  24039860.95143
      -208.960        -162.822  
 121836140.800    94937254.6994   23184643.183 6  23184642.70443  23184646.69343
      2863.723        2231.471  
 08 11 15  0 40 30.0000000  0  9G 6G16G 3G23G31G13G19G21G25         
 107175634.331    83513481.2124   20394841.595 8  20394841.27345  20394845.04645
       155.141         120.897  
 111594914.651    86957076.5634   21235803.340 8  21235802.86246  21235806.62346
     -1276.988        -995.055  
 106050846.542    82637032.4744   20180804.025 7  20180803.68545  20180809.18445
      1258.384         980.565  
 114365187.689    89115745.5034   21762973.594 7  21762973.50643  21762975.33343
     -1095.857        -853.924  
 122520316.658    95470374.9324   23314838.640 7  23314838.97744  23314841.71944
     -2883.950       -2247.229  
 117192375.276    91318741.0924   22300966.830 7  22300966.19944  22300970.03144
       647.351         504.432  
 116631183.310    90881445.3584   22194170.006 6  22194169.13244  22194173.67044
      3010.370        2345.738  
 126336781.113    98444247.2154   24041089.753 7  24041089.96543  24041092.12043
      -222.554        -173.434  
 121750270.107    94870342.4884   23168302.844 6  23168302.21743  23168305.92343
      2860.754        2229.169  
 08 11 15  0 41  0.0000000  0  9G 6G16G 3G23G31G13G19G21G25         
 107171223.845    83510044.4704   20394002.305 8  20394002.11745  20394006.04845
       139.781         108.920  
 111633307.691    86986993.2094   21243109.751 8  21243109.24246  21243112.77246
     -1281.666        -998.700  
 106013356.441    82607819.4094   20173670.008 8  20173669.20845  20173674.96445
      1241.826         967.663  
 114398346.798    89141583.7314   21769283.455 7  21769283.31342  21769283.03242
     -1113.861        -867.946  
 122606959.233    95537888.5884   23331325.065 6  23331325.06944  23331329.91744
     -2891.333       -2252.982  
 117173262.337    91303847.8844   22297329.739 7  22297329.60344  22297332.86744
       627.722         489.127  
 116541040.361    90811204.0894   22177017.645 6  22177016.12344  22177020.28444
      3000.064        2337.705  
 126343694.949    98449634.6164   24042405.671 7  24042405.97243  24042407.49943
      -237.510        -185.076  
 121664525.294    94803528.3654   23151985.128 6  23151985.11443  23151989.65743
      2856.411        2225.771  
 08 11 15  0 41 30.0000000  0  9G 6G16G 3G23G31G13G19G21G25         
 107167249.326    83506947.4324   20393245.929 8  20393245.65445  20393249.32245
       124.821          97.268  
 111671815.840    87016999.5454   21250437.460 8  21250436.86046  21250440.51446
     -1285.932       -1002.025  
 105976338.493    82578974.2684   20166625.486 8  20166624.74645  20166630.57445
      1225.651         955.052  
 114432020.468    89167822.9434   21775691.506 7  21775691.85042  21775693.30842
     -1131.430        -881.629  
 122693797.594    95605554.8184   23347849.569 6  23347848.86744  23347855.40544
     -2898.259       -2258.394  
 117154713.812    91289394.4864   22293799.598 7  22293800.22144  22293803.09344
       608.479         474.144  
 116451182.648    90741185.0884   22159918.804 7  22159917.96144  22159920.45744
      2990.046        2329.918  
 126351032.423    98455352.1174   24043801.301 6  24043800.62543  24043804.24243
      -252.061        -196.404  
 121578887.575    94736797.6874   23135688.675 6  23135688.67243  23135692.91243
      2852.376        2222.634  
 08 11 15  0 42  0.0000000  0  9G 6G16G 3G23G31G13G19G21G25         
 107163717.590    83504195.4294   20392574.007 8  20392573.68545  20392577.28045
       110.091          85.789  
 111710446.405    87047101.2674   21257788.517 8  21257787.99046  21257791.73746
     -1289.992       -1005.187  
 105939800.456    82550503.0744   20159672.620 8  20159672.35545  20159677.72745
      1209.672         942.599  
 114466214.237    89194467.4234   21782198.584 7  21782199.28042  21782199.81642
     -1148.707        -895.083  
 122780837.761    95673378.2714   23364412.877 6  23364412.01943  23364418.93543
     -2904.955       -2263.608  
 117136737.507    91275386.9654   22290379.428 7  22290379.60444  22290382.28444
       589.427         459.293  
 116361619.937    90671395.9754   22142875.469 7  22142874.38744  22142877.44444
      2980.202        2322.245  
 126358801.352    98461405.8224   24045279.637 6  24045278.43843  24045282.82543
      -266.438        -207.627  
 121493366.553    94670157.9434   23119414.262 6  23119414.18643  23119418.53743
      2848.431        2219.564  
 08 11 15  0 42 30.0000000  0  9G 6G16G 3G23G31G13G19G21G25         
 107160626.415    83501786.7244   20391985.405 8  20391985.03645  20391989.23945
        95.487          74.406  
 111749197.298    87077296.7644   21265162.635 8  21265161.88246  21265165.66946
     -1293.932       -1008.263  
 105903741.140    82522404.9234   20152810.771 7  20152810.05245  20152815.65245
      1193.741         930.195  
 114500925.325    89221515.0034   21788803.738 7  21788803.79343  21788806.00043
     -1165.882        -908.495  
 122868077.177    95741357.0134   23381013.070 5  23381012.46243  23381019.71843
     -2911.529       -2268.732  
 117119332.303    91261824.4594   22287067.259 7  22287067.36744  22287070.96644
       570.391         444.461  
 116272352.396    90601836.8814   22125888.853 6  22125887.39344  22125890.42744
      2970.387        2314.581  
 126367000.506    98467794.7514   24046839.760 6  24046838.66743  24046843.89643
      -280.727        -218.764  
 121407962.825    94603609.5934   23103162.918 6  23103163.07743  23103166.26843
      2844.585        2216.562  
 08 11 15  0 43  0.0000000  0  9G 6G16G 3G23G31G13G19G21G25         
 107157968.785    83499715.8384   20391479.846 8  20391479.36945  20391483.82145
        80.865          63.014  
 111788061.665    87107580.6714   21272558.000 8  21272557.38746  21272561.39446
     -1297.878       -1011.335  
 105868154.416    82494675.0224   20146039.111 7  20146038.79944  20146042.67644
      1177.833         917.791  
 114536145.329    89248959.1024   21795505.964 7  21795505.99143  21795507.59543
     -1182.970        -921.796  
 122955508.464    95809485.2444   23397652.312 6  23397652.66544  23397657.85044
     -2918.067       -2273.818  
 117102492.522    91248702.5504   22283862.293 7  22283862.28944  22283865.76144
       551.380         429.642  
 116183375.374    90532504.1544   22108955.903 7  22108955.40544  22108958.02344
      2960.522        2306.902  
 126375623.673    98474514.0954   24048481.143 7  24048480.55843  24048483.45943
      -295.030        -229.895  
 121322672.354    94537149.4944   23086933.093 6  23086933.29743  23086936.26343
      2840.610        2213.454  
 08 11 15  0 43 30.0000000  0  9G 6G16G 3G23G31G13G19G21G25         
 107155796.051    83498022.8004   20391066.278 8  20391066.07045  20391070.51645
        64.908          50.574  
 111827091.363    87137993.4184   21279985.273 8  21279984.59046  21279988.52446
     -1303.176       -1015.469  
 105833093.048    82467354.4804   20139367.131 7  20139366.59544  20139370.81544
      1160.510         904.288  
 114571924.608    89276839.0504   21802314.209 7  21802313.30343  21802315.32243
     -1201.372        -936.130  
 123043182.537    95877802.6564   23414336.194 6  23414336.27144  23414340.99144
     -2925.933       -2279.940  
 117086270.485    91236061.9944   22280775.705 7  22280776.06744  22280779.20444
       530.995         413.760  
 116094742.999    90463440.0044   22092090.501 7  22092089.91244  22092091.92244
      2949.223        2298.087  
 126384723.290    98481604.7054   24050212.997 7  24050212.82243  24050214.81843
      -310.689        -242.094  
 121237549.315    94470819.8534   23070734.968 6  23070735.11343  23070738.62344
      2835.175        2209.228  
 08 11 15  0 44  0.0000000  0  9G 6G16G 3G23G31G13G19G21G25         
 107154078.788    83496684.6764   20390739.620 8  20390739.35545  20390743.67545
        49.948          38.920  
 111866257.400    87168512.3974   21287438.411 8  21287437.92346  21287441.69546
     -1307.524       -1018.853  
 105798528.362    82440420.9644   20132789.909 7  20132789.16744  20132794.05644
      1144.164         891.547  
 114608232.708    89305131.0564   21809222.715 6  21809223.26542  21809225.93742
     -1218.793        -949.714  
 123131069.722    95946286.1344   23431061.655 6  23431062.04244  23431065.49444
     -2932.834       -2285.323  
 117070637.931    91223880.7714   22277801.062 7  22277801.32744  22277804.62544
       511.561         398.614  
 116006428.574    90394623.6154   22075283.910 6  22075282.68644  22075285.15444
      2938.762        2289.949  
 126394270.824    98489044.3614   24052029.236 7  24052029.14743  24052032.14643
      -325.448        -253.604  
 121152567.236    94404600.0414   23054563.139 6  23054563.15544  23054566.70044
      2830.657        2205.693  
 08 11 15  0 44 30.0000000  0  9G 6G16G 3G23G31G13G19G21G25         
 107152802.470    83495690.1484   20390497.200 8  20390496.90245  20390500.82645
        33.981          26.480  
 111905545.424    87199126.4354   21294914.533 8  21294913.79146  21294918.02746
     -1312.844       -1022.992  
 105764446.910    82413863.9984   20126304.159 7  20126303.58644  20126308.18544
      1126.769         878.003  
 114645054.028    89333822.9734   21816230.305 6  21816229.65043  21816231.36543
     -1237.113        -963.968  
 123219154.834    96014923.8544   23447823.654 6  23447823.19144  23447827.59044
     -2940.653       -2291.423  
 117055581.454    91212148.4484   22274935.276 7  22274934.96844  22274939.11244
       491.052         382.638  
 115918419.953    90326045.5024   22058536.730 7  22058535.67043  22058537.23843
      2927.287        2280.998  
 126404253.319    98496822.9184   24053929.044 7  24053928.69743  24053932.08543
      -341.231        -265.894  
 121067714.459    94338480.9954   23038416.560 6  23038416.09143  23038419.55543
      2825.048        2201.331  
 08 11 15  0 45  0.0000000  0  9G 6G16G 3G23G31G13G19G21G25         
 107151985.760    83495053.7524   20390341.572 8  20390341.15845  20390345.17145
        20.429          15.919  
 111944974.496    87229850.3694   21302417.811 8  21302417.47146  21302421.11446
     -1315.781       -1025.281  
 105730868.340    82387698.8644   20119913.784 7  20119913.21744  20119917.74944
      1111.777         866.320  
 114682405.923    89362928.3294   21823338.004 6  21823337.70643  21823340.68843
     -1253.015        -976.375  
 123307456.216    96083730.0654   23464627.276 6  23464626.96144  23464631.72444
     -2946.105       -2295.657  
 117041121.081    91200880.6224   22272184.031 7  22272184.56244  22272187.24844
       472.942         368.537  
 115830738.556    90257722.3654   22041850.480 6  22041849.11643  22041851.97643
      2918.112        2273.865  
 126414690.074    98504955.4524   24055915.023 6  24055915.04543  24055918.03143
      -354.596        -276.311  
 120983012.651    94272479.5934   23022298.343 6  23022298.24144  23022301.16344
      2821.734        2198.748  
 08 11 15  0 45 30.0000000  0  9G 6G16G 3G23G31G13G19G21G25         
 107151614.741    83494764.6534   20390270.987 8  20390270.61145  20390274.56045
         3.976           3.108  
 111984531.205    87260673.7674   21309945.304 8  21309944.80946  21309948.34746
     -1321.652       -1029.854  
 105697779.869    82361915.6244   20113617.938 7  20113617.54144  20113622.08944
      1093.825         852.337  
 114720273.566    89392435.5714   21830544.167 6  21830543.55743  21830545.46343
     -1271.807        -991.009  
 123395959.754    96152693.7904   23481468.366 6  23481468.62744  23481473.38344
     -2954.454       -2302.163  
 117027243.490    91190066.8964   22269542.460 6  22269541.60344  22269547.32244
       451.916         352.143  
 115743372.889    90189645.2544   22025225.474 6  22025224.13043  22025226.07243
      2905.917        2264.357  
 126425567.816    98513431.6344   24057984.892 7  24057984.21543  24057987.21543
      -370.928        -289.031  
 120898450.738    94206587.1914   23006206.353 6  23006206.48543  23006208.87543
      2815.412        2193.841  
 08 11 15  0 46  0.0000000  0  9G 6G16G 3G23G31G13G19G21G25         
