     2.10           OBSERVATION DATA    G (GPS)             RINEX VERSION / TYPE
Pinnacle 1.00                           16-NOV-08 16:01     PGM / RUN BY / DATE
build April 19, 2002                                        COMMENT
-Unknown-           -Unknown-                               OBSERVER / AGENCY
         Begin Pinnacle project                             COMMENT
1115                                                        COMMENT
                                                            COMMENT
                                                            COMMENT
November 16, 2008 3:45:30 pm                                COMMENT
                                                            COMMENT
                                                            COMMENT
D:\2008-----\gps\20081115\Pinnacle.dbd                 COMMENT
         End Pinnacle project                               COMMENT
                                                            COMMENT
7230                                                        MARKER NAME
7230(Tail)(Head)                                            MARKER NUMBER
AF83006AI2O         TPS GB-1000         3.1 Jun,28,2007 p3  REC # / TYPE / VERS
-Unknown-           TPSPG_A1        NONE                    ANT # / TYPE
 -3062460.3352  4050019.2037  3847195.6995                  APPROX POSITION XYZ
        1.5039        0.0000        0.0000                  ANTENNA: DELTA H/E/N
     1     1                                                WAVELENGTH FACT L1/2
     7    L1    L2    C1    P1    P2    D1    D2            # / TYPES OF OBSERV
    30.000                                                  INTERVAL
  2008    11    15     4    40    0.0000000     GPS         TIME OF FIRST OBS
  2008    11    15     6    40    0.0000000     GPS         TIME OF LAST OBS
     8                                                      # OF SATELLITES
   G 4     6     0     6     0     0     5     0            PRN / # OF OBS
   G 8    90    71    90    71    71    89    71            PRN / # OF OBS
   G11   241   241   241   241   241   241   241            PRN / # OF OBS
   G17   153   149   153   149   149   153   149            PRN / # OF OBS
   G19    59    56    59    56    56    59    56            PRN / # OF OBS
   G20   137   137   137   137   137   137   137            PRN / # OF OBS
   G28   241   241   241   241   241   241   241            PRN / # OF OBS
   G32   210   209   210   209   209   210   209            PRN / # OF OBS
SE TPS c22d7bf3                                             COMMENT
                                                            END OF HEADER
 08 11 15  4 40  0.0000000  0  4G11G 8G19G28                        
 104687660.519    81574811.1524   19921398.708 6  19921398.71644  19921401.15444
       136.056         106.019  
 112758164.131    87863513.1864   21457162.780 6  21457162.19144  21457166.49344
      -914.391        -712.499  
 116820080.272    91028635.1334   22230118.480 5  22230117.71242  22230120.27342
     -2145.936       -1672.154  
 119015471.715    92739319.0324   22647884.819 6  22647884.64543  22647886.16143
      2828.333        2203.900  
 08 11 15  4 40 30.0000000  0  4G11G 8G19G28                        
 104683797.137    81571800.7284   19920664.172 7  19920663.31644  19920666.34944
       122.576          95.511  
 112785876.972    87885107.5884   21462436.017 6  21462435.38444  21462440.44043
      -932.078        -726.290  
 116884474.621    91078812.5184   22242372.240 6  22242370.76642  22242373.82742
     -2145.945       -1672.181  
 118930659.559    92673231.6774   22631746.245 6  22631744.90143  22631748.96143
      2826.879        2202.768  
 08 11 15  4 41  0.0000000  0  4G11G 8G19G28                        
 104680315.695    81569087.9094   19920001.329 6  19920000.84045  19920003.93044
       108.716          84.709  
 112814096.943    87907097.1564   21467805.672 6  21467805.36344  21467810.22444
      -950.078        -740.321  
 116948846.557    91128972.4324   22254621.565 5  22254620.59643  22254623.32243
     -2146.374       -1672.496  
 118845870.584    92607162.3694   22615611.271 6  22615610.42743  22615612.69943
      2824.901        2201.209  
 08 11 15  4 41 30.0000000  0  4G11G 8G19G28                        
 104677233.273    81566686.0274   19919414.595 7  19919413.83544  19919417.18044
        96.555          75.239  
 112842839.923    87929494.2614   21473275.469 6  21473275.62243  21473279.46944
      -966.357        -753.003  
 117013213.319    91179128.3264   22266870.430 6  22266869.11742  22266870.73842
     -2145.018       -1671.431  
 118761124.813    92541126.7074   22599484.091 6  22599484.25742  22599484.98042
      2824.585        2200.984  
 08 11 15  4 42  0.0000000  0  4G11G 8G19G28                        
 104674543.825    81564590.3524   19918902.470 6  19918902.64844  19918905.41144
        83.657          65.183  
 112872099.216    87952293.6864   21478844.418 6  21478843.64744  21478848.26744
      -983.356        -766.261  
 117077569.359    91229275.8724   22279117.091 6  22279116.71142  22279118.57942
     -2144.451       -1670.999  
 118676419.071    92475122.2084   22583365.815 6  22583365.16042  22583367.71642
      2823.375        2200.032  
 08 11 15  4 42 30.0000000  0  4G11G 8G19G28                        
 104672237.635    81562793.3084   19918464.375 6  19918463.65044  19918467.03344
        70.069          54.608  
 112901864.557    87975487.4164   21484507.814 6  21484508.02944  21484512.26543
     -1001.015        -780.003  
 117141904.900    91279407.4224   22291358.384 6  22291357.63942  22291360.35442
     -2144.590       -1671.107  
 118591746.308    92409143.4494   22567253.157 6  22567252.22842  22567255.85042
      2821.425        2198.513  
 08 11 15  4 43  0.0000000  0  4G11G 8G19G28                        
 104670334.238    81561310.1274   19918101.818 5  19918101.54444  19918104.63744
        57.221          44.599  
 112932154.386    87999089.8794   21490271.863 5  21490271.51544  21490276.43244
     -1017.937        -793.201  
 117206239.994    91329538.6434   22303602.226 5  22303601.13542  22303603.46742
     -2144.017       -1670.657  
 118507128.796    92343207.7244   22551151.370 5  22551150.13642  22551152.79743
      2820.104        2197.468  
 08 11 15  4 43 30.0000000  0  4G11G 8G19G28                        
 104668829.193    81560137.3564   19917816.631 6  19917815.26944  19917818.28344
        43.874          34.194  
 112962963.908    88023097.2464   21496134.932 6  21496134.07744  21496138.86444
     -1035.276        -806.704  
 117270570.419    91379666.1834   22315844.617 5  22315843.58242  22315845.34342
     -2143.931       -1670.578  
 118422565.637    92277314.3764   22535057.942 6  22535058.44042  22535062.67743
      2818.185        2195.992  
 08 11 15  4 44  0.0000000  0  4G11G 8G19G28                        
 104667755.937    81559301.0394   19917612.298 6  19917611.11144  19917613.81044
        27.656          21.563  
 112994325.543    88047534.8734   21502102.602 6  21502101.93944  21502106.91544
     -1055.471        -822.432  
 117334929.904    91429816.4204   22328090.323 5  22328089.79942  22328093.62342
     -2146.742       -1672.775  
 118338092.744    92211491.3534   22518984.356 6  22518984.55043  22518987.23743
      2813.312        2192.208  
 08 11 15  4 44 30.0000000  0  4G11G 8G19G28                        
 104667116.525    81558802.7814   19917489.793 5  19917489.14143  19917492.02043
        14.132          11.015  
 113026240.389    88072403.5674   21508176.129 5  21508175.25143  21508180.61843
     -1072.968        -836.085  
 117399321.218    91479991.4264   22340344.638 5  22340343.40442  22340345.56642
     -2146.821       -1672.872  
 118253715.388    92145742.7544   22502927.270 6  22502927.34842  22502930.03543
      2811.033        2190.404  
 08 11 15  4 45  0.0000000  0  4G11G 8G19G28                        
 104666889.864    81558626.1734   19917446.869 5  19917446.35344  19917449.01244
         1.165           0.904  
 113058686.764    88097686.4544   21514351.123 6  21514350.13844  21514354.44544
     -1089.932        -849.296  
 117463723.646    91530175.1164   22352599.153 5  22352599.61542  22352601.88342
     -2146.500       -1672.578  
 118169415.249    92080054.3624   22486885.961 5  22486886.31543  22486888.35243
      2809.175        2188.969  
 08 11 15  4 45 30.0000000  0  4G11G 8G19G28                        
 104667083.048    81558776.7084   19917482.981 5  19917483.07044  19917485.82344
       -14.022         -10.929  
 113091670.740    88123388.2474   21520627.340 6  21520626.47844  21520631.09344
     -1108.994        -864.144  
 117528144.394    91580373.0854   22364857.990 5  22364857.87543  22364860.88542
     -2148.256       -1673.961  
 118085202.721    92014434.2024   22470860.443 5  22470859.93543  22470863.23843
      2805.006        2185.714  
 08 11 15  4 46  0.0000000  0  4G11G 8G19G28                        
 104667729.069    81559280.1054   19917605.113 5  19917605.48344  19917608.36143
       -28.050         -21.868  
 113125224.168    88149533.7674   21527012.679 5  21527011.45443  21527016.43243
     -1126.867        -878.081  
 117592616.964    91630611.4334   22377127.513 5  22377125.47442  22377128.54442
     -2148.913       -1674.488  
 118001113.567    91948910.2154   22454859.591 5  22454858.76842  22454860.38842
      2801.921        2183.322  
 08 11 15  4 46 30.0000000  0  4G11G 8G19G28                        
 104668794.119    81560109.9834   19917808.513 5  19917808.30943  19917811.37744
       -42.814         -33.348  
 113159312.776    88176096.2924   21533499.292 6  21533498.79943  21533502.62843
     -1145.509        -892.607  
 117657107.953    91680864.1364   22389399.353 5  22389398.44443  22389402.14243
     -2150.285       -1675.549  
 117917117.175    91883458.4644   22438874.201 5  22438873.65542  22438877.35142
      2797.967        2180.229  
 08 11 15  4 47  0.0000000  0  5G11G 8G19G28G32                     
 104670302.999    81561285.7404   19918095.586 5  19918095.82143  19918098.19943
       -57.996         -45.189  
 113193960.360    88203094.3994   21540091.798 6  21540091.08943  21540095.69643
     -1164.505        -907.410  
 117721642.775    91731150.9574   22401680.347 5  22401679.13443  22401681.67543
     -2152.183       -1677.047  
 117833241.361    91818100.7224   22422913.804 5  22422914.54742  22422914.66742
      2793.517        2176.760  
 120243819.196                    22881633.686 4                                
      2416.862                  
 08 11 15  4 47 30.0000000  0  5G11G 8G19G28G32                     
 104672288.493    81562832.8844   19918475.056 5  19918473.06143  19918476.35443
       -73.777         -57.505  
 113229198.912    88230552.9884   21546797.282 6  21546796.93543  21546801.28443
     -1184.174        -922.721  
 117786254.715    91781497.9164   22413974.495 5  22413974.64542  22413976.81742
     -2154.730       -1679.030  
 117749522.132    91752864.9384   22406982.975 5  22406980.99342  22406983.99742
      2788.235        2172.662  
 120171452.339    93640083.4844   22867862.330 4  22867864.2474   22867869.01141
      2408.134        1876.458  
 08 11 15  4 48  0.0000000  0  5G11G 8G19G28G32                     
 104674706.138    81564716.7484   19918934.205 5  19918933.43643  19918936.38543
       -88.003         -68.562  
 113264982.863    88258436.5694   21553606.577 6  21553606.29043  21553611.52243
     -1202.129        -936.689  
 117850899.806    91831870.6824   22426276.855 5  22426276.39842  22426278.77742
     -2155.635       -1679.695  
 117665917.838    91687718.7474   22391072.558 5  22391072.18942  22391076.56442
      2784.612        2169.844  
 120099308.740    93583867.7524   22854133.141 4  22854132.87541  22854140.13641
      2400.854        1870.786  
 08 11 15  4 48 30.0000000  0  5G11G 8G19G28G32                     
 104677581.600    81566957.3564   19919480.442 5  19919480.24443  19919483.63543
      -102.863         -80.162  
 113301337.418    88286764.7424   21560524.138 5  21560523.96843  21560529.31343
     -1220.686        -951.186  
 117915604.502    91882289.8774   22438589.682 5  22438588.24643  22438590.57842
     -2157.218       -1680.948  
 117582457.669    91622684.8914   22375192.093 5  22375189.85742  22375193.74243
      2780.127        2166.332  
 120027418.490    93527849.4214   22840454.300 4  22840454.04541  22840460.92941
      2392.668        1864.395  
 08 11 15  4 49  0.0000000  0  5G11G 8G19G28G32                     
 104680924.209    81569561.9894   19920117.034 6  19920116.80444  19920119.86144
      -118.450         -92.308  
 113338270.745    88315543.9554   21567553.292 5  21567552.57744  21567557.28244
     -1239.949        -966.200  
 117980378.362    91932763.0164   22450915.610 6  22450914.68743  22450916.95243
     -2159.510       -1682.743  
 117499154.034    91557772.9944   22359338.179 5  22359337.87243  22359342.22343
      2774.932        2162.290  
 119955794.415    93472038.4904   22826824.960 5  22826822.35542  22826831.49442
      2383.784        1857.483  
 08 11 15  4 49 30.0000000  0  5G11G 8G19G28G32                     
 104684751.324    81572544.1694   19920846.368 5  19920844.65143  19920848.09943
      -135.251        -105.395  
 113375799.236    88344786.9164   21574694.886 6  21574694.52243  21574699.03343
     -1260.473        -982.178  
 118045239.499    91983304.1184   22463258.686 5  22463257.91743  22463259.71143
     -2163.082       -1685.523  
 117416027.471    91492999.0474   22343520.925 5  22343520.26443  22343523.97243
      2768.310        2157.120  
 119884457.926    93416451.6294   22813249.005 4  22813247.25142  22813254.33541
      2373.456        1849.452  
 08 11 15  4 50  0.0000000  0  5G11G 8G19G28G32                     
 104689045.919    81575890.5984   19921661.520 5  19921662.57143  19921665.52444
      -151.541        -118.099  
 113413904.685    88374479.4524   21581946.233 5  21581945.54343  21581949.10943
     -1280.400        -997.722  
 118110171.561    92033900.5034   22475613.957 5  22475614.34742  22475615.36842
     -2166.225       -1687.963  
 117333063.827    91428352.0774   22327733.450 5  22327733.05942  22327736.76042
      2762.069        2152.276  
 119813395.692    93361078.5104   22799725.964 5  22799726.08841  22799731.15341
      2363.497        1841.706  
 08 11 15  4 50 30.0000000  0  5G11G 8G19G28G32                     
 104693818.668    81579609.6064   19922571.122 5  19922570.76143  19922573.81043
      -166.895        -130.052  
 113452597.174    88404629.4244   21589308.721 6  21589308.38343  21589313.06943
     -1299.359       -1012.492  
 118175185.487    92084560.6704   22487985.918 5  22487985.39743  22487988.35942
     -2168.335       -1689.630  
 117250277.444    91363843.2044   22311978.844 5  22311978.83843  22311983.55643
      2756.705        2148.080  
 119742622.535    93305930.6484   22786259.710 5  22786258.17942  22786264.74041
      2354.400        1834.583  
 08 11 15  4 51  0.0000000  0  5G11G 8G19G28G32                     
 104699080.067    81583709.3994   19923571.017 5  19923572.01444  19923575.29843
      -182.266        -142.030  
 113491885.839    88435243.9614   21596785.942 6  21596785.05243  21596789.59343
     -1318.327       -1027.255  
 118240292.925    92135293.7004   22500375.681 5  22500375.16642  22500376.58643
     -2170.581       -1691.361  
 117167682.105    91299483.1734   22296261.654 6  22296261.96143  22296265.58142
      2751.197        2143.819  
 119672153.016    93251019.3694   22772848.974 5  22772848.37942  22772853.43342
      2345.138        1827.394  
 08 11 15  4 51 30.0000000  0  5G11G 8G19G28G32                     
 104704789.589    81588158.3714   19924658.136 5  19924658.38243  19924661.15443
      -198.002        -154.271  
 113531729.194    88466290.7274   21604368.270 6  21604367.33943  21604371.19743
     -1337.559       -1042.270  
 118305453.545    92186068.1934   22512776.007 5  22512773.68143  22512776.37643
     -2173.121       -1693.344  
 117085240.347    91235242.8474   22280574.045 5  22280573.12443  22280576.94943
      2745.246        2139.158  
 119601950.288    93196316.0364   22759490.797 5  22759490.73942  22759494.94142
      2335.375        1819.784  
 08 11 15  4 52  0.0000000  0  5G11G 8G19G28G32                     
 104710976.400    81592979.2504   19925836.032 5  19925835.42643  19925838.47843
      -213.971        -166.735  
 113572155.908    88497792.0314   21612060.030 5  21612059.95743  21612064.65443
     -1357.033       -1057.438  
 118370697.165    92236907.3354   22525191.061 5  22525189.33143  22525193.37142
     -2175.938       -1695.534  
 117002984.601    91171147.4344   22264920.732 5  22264920.66843  22264925.34742
      2738.933        2134.230  
 119532047.390    93141846.2674   22746187.978 5  22746188.13042  22746193.15842
      2325.267        1811.897  
 08 11 15  4 52 30.0000000  0  5G11G 8G19G28G32                     
 104717635.209    81598167.9324   19927103.038 5  19927102.40043  19927105.37243
      -229.823        -179.078  
 113613159.121    88529742.5594   21619864.249 5  21619863.39643  21619867.01443
     -1376.355       -1072.478  
 118436019.456    92287807.7874   22537621.519 4  22537618.97542  22537622.85442
     -2178.595       -1697.585  
 116920912.774    91107195.3914   22249303.872 5  22249303.04842  22249304.93942
      2732.634        2129.330  
 119462443.151    93087609.2634   22732943.583 5  22732942.20442  22732947.42242
      2315.134        1803.997  
 08 11 15  4 53  0.0000000  0  5G11G 8G19G28G32                     
 104724758.185    81603718.2924   19928458.997 5  19928458.14744  19928460.58044
      -245.567        -191.342  
 113654730.250    88562135.6174   21627773.972 5  21627773.65143  21627777.71443
     -1395.521       -1087.417  
 118501413.258    92338763.9784   22550065.289 5  22550063.99242  22550068.11842
     -2181.401       -1699.804  
 116839020.838    91043383.4954   22233718.779 5  22233719.27842  22233723.65742
      2726.306        2124.396  
 119393133.826    93033602.0254   22719753.418 5  22719753.12242  22719757.62342
      2305.030        1796.100  
 08 11 15  4 53 30.0000000  0  5G11G 8G19G28G32                     
 104732362.638    81609643.8524   19929905.668 7  19929905.25945  19929907.97645
      -262.109        -204.239  
 113696885.497    88594983.8484   21635795.867 7  21635794.90944  21635801.10045
     -1415.503       -1102.992  
 118566896.803    92389790.0964   22562525.509 6  22562524.04444  22562528.76344
     -2184.884       -1702.508  
 116757329.130    90979727.6234   22218174.686 7  22218173.89844  22218177.51644
      2719.077        2118.758  
 119324140.586    92979841.0904   22706623.918 7  22706623.60743  22706630.06443
      2293.860        1787.434  
 08 11 15  4 54  0.0000000  0  5G11G 8G19G28G32                     
 104740449.449    81615945.2484   19931444.208 5  19931444.25144  19931446.76744
      -276.110        -215.158  
 113739624.562    88628286.9664   21643928.932 5  21643927.84944  21643933.62144
     -1432.891       -1116.531  
 118632471.455    92440887.1894   22575005.409 5  22575003.76944  22575007.85243
     -2185.870       -1703.281  
 116675841.653    90916230.9314   22202667.387 6  22202667.82244  22202669.58444
      2714.304        2115.024  
 119255468.261    92926330.2184   22693555.714 5  22693555.60944  22693562.17343
      2285.196        1780.675  
 08 11 15  4 54 30.0000000  0  5G11G 8G19G28G32                     
 104749010.580    81622616.2504   19933074.243 6  19933072.94544  19933075.58843
      -293.023        -228.349  
 113782938.865    88662038.3454   21652171.721 6  21652170.53643  21652176.29143
     -1453.182       -1132.360  
 118698130.111    92492049.7564   22587499.951 5  22587498.05042  22587501.64842
     -2189.835       -1706.352  
 116594553.936    90852889.8274   22187200.414 5  22187198.75143  22187202.93643
      2706.451        2108.910  
 119187112.799    92873066.2544   22680547.727 5  22680547.97242  22680554.82142
      2273.435        1771.493  
 08 11 15  4 55  0.0000000  0  5G11G 8G19G28G32                     
 104758043.178    81629654.6284   19934792.746 5  19934791.96144  19934794.27044
      -309.380        -241.077  
 113826824.347    88696234.7904   21660522.378 5  21660521.18943  21660527.09643
     -1472.808       -1147.640  
 118763870.921    92543276.3034   22600011.064 4  22600008.16843  22600012.19743
     -2193.222       -1708.982  
 116513467.024    90789705.2574   22171768.250 6  22171770.21743  22171770.70243
      2699.044        2103.165  
 119119075.753    92820050.4064   22667602.136 5  22667601.73842  22667607.09342
      2262.065        1762.656  
 08 11 15  4 55 30.0000000  0  5G11G 8G19G28G32                     
 104767540.681    81637055.2754   19936599.804 7  19936598.84045  19936601.95445
      -323.758        -252.276  
 113871273.053    88730870.1264   21668980.259 7  21668979.52344  21668985.21144
     -1490.434       -1161.383  
 118829687.292    92594561.7844   22612534.866 7  22612533.24643  22612537.14343
     -2194.592       -1710.071  
 116432577.280    90726674.3014   22156375.738 7  22156374.73643  22156380.45844
      2693.579        2098.879  
 119051353.776    92767280.0484   22654715.281 7  22654714.55442  22654720.26143
      2252.678        1755.329  
 08 11 15  4 56  0.0000000  0  5G11G 8G19G28G32                     
 104777500.793    81644816.4104   19938494.996 5  19938494.50545  19938497.36544
      -339.484        -264.543  
 113916281.942    88765941.9524   21677544.845 5  21677544.45644  21677550.54544
     -1509.410       -1176.183  
 118895578.809    92645905.8084   22625071.893 6  22625071.41043  22625074.86243
     -2197.448       -1712.306  
 116351886.159    90663798.1194   22141020.950 6  22141020.41643  22141023.63944
      2686.575        2093.421  
 118983949.172    92714756.9974   22641887.866 6  22641887.85943  22641893.54743
      2241.705        1746.763  
 08 11 15  4 56 30.0000000  0  5G11G 8G19G28G32                     
 104787931.934    81652944.5534   19940479.944 6  19940479.36345  19940482.10145
      -355.537        -277.044  
 113961857.781    88801455.5584   21686218.605 6  21686217.92844  21686222.36644
     -1528.655       -1191.145  
 118961554.163    92697315.1374   22637626.497 6  22637626.50443  22637630.41443
     -2200.592       -1714.752  
 116271405.087    90601085.6144   22125704.670 5  22125705.28744  22125709.30143
      2679.149        2087.663  
 118916874.061    92662490.6874   22629123.551 6  22629123.66842  22629128.59343
      2230.320        1737.907  
 08 11 15  4 57  0.0000000  0  5G11G 8G19G28G32                     
 104798823.458    81661431.4434   19942552.706 6  19942552.72344  19942554.72744
      -370.502        -288.708  
 114007989.361    88837402.2244   21694996.855 6  21694996.64244  21695000.50243
     -1546.779       -1205.281  
 119027603.641    92748782.2494   22650195.911 4  22650196.33743  22650199.80043
     -2202.699       -1716.385  
 116191127.197    90538531.4004   22110428.693 4  22110428.17943  22110433.18542
      2672.772        2082.663  
 118850121.956    92610476.0734   22616421.488 4  22616420.73943  22616426.98843
      2219.821        1729.729  
 08 11 15  4 57 30.0000000  0  5G11G 8G19G28G32                     
 104810146.259    81670254.4104   19944707.582 7  19944706.87545  19944709.62245
      -385.577        -300.446  
 114054646.605    88873758.4814   21703876.157 7  21703876.10944  21703880.22344
     -1564.951       -1219.435  
 119093699.260    92800285.3184   22662774.355 7  22662773.42644  22662776.40144
     -2204.916       -1718.128  
 116111026.727    90476115.4964   22095185.918 7  22095185.13944  22095189.90744
      2666.057        2077.442  
 118783667.877    92558693.6864   22603775.036 6  22603773.38142  22603781.10542
      2209.182        1721.440  
 08 11 15  4 58  0.0000000  0  5G11G 8G19G28G32                     
 104821924.067    81679431.9054   19946949.166 5  19946948.41444  19946950.85944
      -400.359        -311.980  
 114101851.724    88910541.6554   21712858.878 5  21712858.54643  21712862.84643
     -1582.805       -1233.370  
 119159865.243    92851843.1844   22675364.786 5  22675364.42243  22675366.60844
     -2206.877       -1719.647  
 116031131.073    90413859.1394   22079982.790 4  22079981.88743  22079986.53043
      2659.553        2072.376  
 118717539.293    92507164.9264   22591190.047 4  22591189.35443  22591197.36643
      2198.601        1713.190  
 08 11 15  4 58 30.0000000  0  5G11G 8G19G28G32                     
 104834183.705    81688984.8754   19949281.463 6  19949281.54444  19949284.02044
      -416.001        -324.156  
 114149630.275    88947771.6584   21721950.646 5  21721950.93443  21721954.63743
     -1601.470       -1247.901  
 119226129.370    92903477.5574   22687973.697 5  22687973.21842  22687976.81742
     -2209.775       -1721.884  
 115951470.698    90351786.1344   22064823.751 5  22064823.16342  22064827.82943
      2652.099        2066.557  
 118651767.107    92455913.8614   22578676.262 5  22578674.91342  22578681.27141
      2187.112        1704.259  
 08 11 15  4 59  0.0000000  0  5G11G 8G19G28G32                     
 104846895.453    81698890.1274   19951701.047 5  19951700.08944  19951702.90844
      -431.469        -336.203  
 114197951.834    88985424.7904   21731144.941 5  21731145.77843  21731148.92543
     -1619.969       -1262.294  
 119292463.226    92955166.2514   22700597.649 4  22700597.45742  22700599.79342
     -2212.496       -1724.028  
 115872019.149    90289875.8484   22049705.860 5  22049704.70143  22049708.72243
      2644.687        2060.795  
 118586325.802    92404920.6074   22566221.532 5  22566222.84642  22566228.43142
      2175.627        1695.317  
 08 11 15  4 59 30.0000000  0  5G11G 8G19G28G32                     
 104860063.629    81709151.0504   19954206.486 5  19954205.81944  19954209.10544
      -445.948        -347.488  
 114246819.006    89023503.0784   21740444.843 5  21740444.31843  21740449.34642
     -1637.422       -1275.914  
 119358871.998    93006913.3254   22713234.385 4  22713232.60842  22713235.29042
     -2214.401       -1725.516  
 115792783.897    90228134.1024   22034628.634 5  22034626.98043  22034630.01343
      2638.077        2055.651  
 118521223.563    92354191.6244   22553833.024 5  22553832.72242  22553840.37143
      2164.954        1686.992  
 08 11 15  5  0  0.0000000  0  5G11G 8G19G28G32                     
 104873697.902    81719775.1564   19956800.991 6  19956800.78144  19956803.58044
      -462.101        -360.071  
 114296240.631    89062013.3844   21749849.647 5  21749848.25042  21749853.83643
     -1656.448       -1290.725  
 119425366.278    93058727.0434   22725887.287 4  22725886.24441  22725888.89341
     -2217.763       -1728.146  
 115713779.059    90166571.8884   22019594.088 5  22019592.49143  22019595.20343
      2629.730        2049.163  
 118456474.263    92303737.6284   22541513.234 4  22541511.28542  22541519.02742
      2152.534        1677.320  
 08 11 15  5  0 30.0000000  0  5G11G 8G19G28G32                     
 104887794.892    81730759.8344   19959483.758 6  19959483.96444  19959486.37144
      -477.153        -371.815  
 114346212.573    89100952.5324   21759359.214 6  21759358.89243  21759362.85043
     -1674.442       -1304.769  
 119491943.505    93110605.3844   22738557.294 4  22738556.74841  22738559.68741
     -2220.230       -1730.062  
 115635004.747    90105189.3404   22004601.990 5  22004602.41443  22004605.39543
      2622.357        2043.394  
 118392078.518    92253559.1384   22529258.078 5  22529257.37542  22529264.40742
      2141.041        1668.318  
 08 11 15  5  1  0.0000000  0  5G11G 8G19G28G32                     
 104902359.380    81742108.7874   19962255.265 6  19962255.01445  19962257.77244
      -493.113        -384.242  
 114396737.929    89140322.9164   21768974.104 6  21768973.22543  21768977.09644
     -1693.215       -1319.369  
 119558609.670    93162553.0204   22751242.197 5  22751241.79042  22751244.14442
     -2223.480       -1732.585  
 115556469.066    90043992.7044   21989658.344 6  21989657.01544  21989660.83544
      2614.018        2036.910  
 118328044.994    92203662.9074   22517071.578 5  22517071.99743  22517078.74643
      2128.521        1658.589  
 08 11 15  5  1 30.0000000  0  5G11G 8G19G28G32                     
 104917378.422    81753811.9334   19965112.029 5  19965112.98244  19965115.67544
      -508.641        -396.344  
 114447802.488    89180113.4764   21778691.082 5  21778690.37843  21778693.71543
     -1711.565       -1333.700  
 119625352.587    93214560.4764   22763941.755 4  22763943.59341  22763945.53542
     -2226.460       -1734.905  
 115478162.582    89982974.6944   21974756.931 6  21974757.00143  21974759.78543
      2605.880        2030.548  
 118264364.670    92154041.9274   22504956.403 5  22504954.74643  22504960.85942
      2116.299        1649.051  
 08 11 15  5  2  0.0000000  0  5G11G 8G19G28G32                     
 104932862.112    81765877.1344   19968059.659 5  19968059.20844  19968062.40944
      -523.287        -407.742  
 114499415.402    89220331.2674   21788513.773 5  21788512.12843  21788515.84043
     -1728.934       -1347.212  
 119692183.874    93266636.7804   22776662.786 4  22776660.43141  22776662.59041
     -2228.644       -1736.582  
 115400099.488    89922146.2984   21959903.004 6  21959902.43043  21959904.94343
      2598.593        2024.894  
 118201051.979    92104707.3904   22492907.166 5  22492907.44543  22492912.90343
      2104.823        1640.148  
 08 11 15  5  2 30.0000000  0  5G11G 8G19G28G32                     
 104948806.017    81778300.9614   19971093.288 6  19971092.80944  19971095.94144
      -538.573        -419.660  
 114551570.719    89260971.7264   21798437.429 6  21798437.33344  21798441.26343
     -1746.996       -1361.293  
 119759099.529    93318778.8574   22789395.694 5  22789395.90942  22789396.51041
     -2231.384       -1738.740  
 115322278.322    89861506.4244   21945093.782 6  21945093.11844  21945096.76044
      2590.533        2018.599  
 118138106.265    92055658.8134   22480929.855 5  22480928.98043  22480934.04343
      2092.592        1630.602  
 08 11 15  5  3  0.0000000  0  5G11G 8G19G28G32                     
 104965191.035    81791068.5144   19974211.976 6  19974211.34144  19974214.62244
      -553.391        -431.213  
 114604248.336    89302019.1874   21808462.021 5  21808461.42943  21808465.77843
     -1764.502       -1374.930  
 119826081.923    93370972.8854   22802140.679 4  22802139.88341  22802142.70941
     -2233.747       -1740.621  
 115244683.939    89801043.2934   21930328.535 6  21930327.40043  21930330.46543
      2582.786        2012.560  
 118075512.495    92006884.4794   22469017.932 6  22469017.51242  22469024.03643
      2080.679        1621.298  
 08 11 15  5  3 30.0000000  0  5G11G 8G19G28G32                     
 104982008.791    81804173.2514   19977411.545 6  19977411.95544  19977414.56544
      -568.414        -442.909  
 114657438.936    89343466.3594   21818584.138 5  21818583.59143  21818587.29143
     -1782.136       -1388.663  
 119893123.726    93423213.2114   22814898.762 4  22814897.63841  22814900.22441
     -2236.238       -1742.454  
 115167312.076    89740753.5354   21915604.285 6  21915603.87843  21915607.88343
      2574.743        2006.300  
 118013266.474    91958381.1224   22457173.020 5  22457173.34343  22457178.65043
      2068.420        1611.766  
 08 11 15  5  4  0.0000000  0  5G11G 8G19G28G32                     
 104999298.010    81817645.3754   19980701.829 6  19980701.90044  19980704.55544
      -583.569        -454.725  
 114711179.351    89385342.0014   21828809.834 5  21828809.58343  21828814.23043
     -1799.903       -1402.510  
 119960264.708    93475530.8324   22827675.431 3  22827675.90241  22827678.78241
     -2239.158       -1744.760  
 115090204.725    89680669.8914   21900932.187 5  21900931.48443  21900934.19943
      2566.402        1999.810  
 117951410.861    91910182.0114   22445402.784 5  22445401.98442  22445407.56242
      2055.896        1601.997  
 08 11 15  5  4 30.0000000  0  5G11G 8G19G28G32                     
 105017018.089    81831453.2124   19984073.123 6  19984073.19444  19984076.33144
      -597.692        -465.735  
 114765427.773    89427613.4844   21839132.454 5  21839131.62843  21839138.38243
     -1816.591       -1415.524  
 120027465.182    93527894.8264   22840464.201 4  22840462.09341  22840465.82741
     -2240.815       -1746.089  
 115013324.764    89620763.4354   21886301.911 6  21886300.68744  21886305.81144
      2558.981        1994.007  
 117889908.914    91862258.4554   22433700.081 5  22433698.46742  22433703.90642
      2044.271        1592.940  
 08 11 15  5  5  0.0000000  0  5G11G 8G19G28G32                     
 105035193.621    81845615.9734   19987533.206 6  19987532.24244  19987535.17144
      -614.592        -478.911  
 114820208.126    89470299.4204   21849557.064 5  21849555.70443  21849562.39043
     -1836.006       -1430.658  
 120094751.149    93580325.4814   22853270.334 4  22853267.99741  22853269.79641
     -2245.496       -1749.750  
 114936701.276    89561056.8224   21871721.188 6  21871721.39544  21871724.55444
      2548.659        1985.972  
 117828789.528    91814632.9904   22422067.414 5  22422067.57842  22422072.73342
      2029.730        1581.592  
 08 11 15  5  5 30.0000000  0  5G11G 8G19G28G32                     
 105053840.501    81860145.9964   19991081.147 5  19991080.56944  19991083.64144
      -628.328        -489.597  
 114875535.051    89513411.2494   21860086.457 5  21860084.66743  21860091.32343
     -1852.222       -1443.293  
 120162139.474    93632835.7924   22866091.526 4  22866089.87941  22866095.66241
     -2246.863       -1750.786  
 114860353.646    89501565.1594   21857191.950 6  21857192.21144  21857196.65444
      2541.384        1980.302  
 117768072.651    91767321.1834   22410513.130 5  22410513.11243  22410519.74143
      2018.243        1572.644  
 08 11 15  5  6  0.0000000  0  5G11G 8G19G28G32                     
 105072921.960    81875014.6684   19994711.984 6  19994711.76644  19994714.92344
      -643.978        -501.797  
 114931369.972    89556918.9364   21870711.136 5  21870710.13144  21870716.27544
     -1870.325       -1457.392  
 120229594.932    93685398.5204   22878927.832 4  22878928.00041  22878930.80442
     -2250.399       -1753.549  
 114784248.667    89442262.5954   21842710.053 6  21842709.23344  21842713.12244
      2532.055        1973.030  
 117707725.457    91720297.4244   22399028.716 5  22399029.30243  22399035.39843
      2004.644        1562.054  
 08 11 15  5  6 30.0000000  0  5G11G 8G19G28G32                     
 105092441.892    81890225.0144   19998427.224 5  19998426.55144  19998429.59044
      -659.182        -513.644  
 114987715.488    89600824.4734   21881432.652 5  21881432.21243  21881438.19043
     -1887.864       -1471.073  
 120297122.610    93738017.4644   22891778.697 4  22891776.24941  22891781.20841
     -2253.471       -1755.953  
 114708393.890    89383154.9904   21828275.834 6  21828275.42244  21828279.42744
      2523.072        1966.045  
 117647755.878    91673567.9154   22387617.664 6  22387618.58743  22387624.06043
      1991.459        1551.775  
 08 11 15  5  7  0.0000000  0  5G11G 8G19G28G32                     
 105112421.641    81905793.6484   20002228.274 6  20002228.36244  20002231.32344
      -674.368        -525.488  
 115044591.684    89645143.5514   21892255.682 6  21892255.79443  21892261.48143
     -1905.415       -1484.724  
 120364744.556    93790709.8364   22904646.265 4  22904645.74641  22904649.69141
     -2256.416       -1758.229  
 114632814.618    89324262.0684   21813893.753 6  21813892.54043  21813896.02643
      2513.965        1958.938  
 117588189.101    91627152.2544   22376283.304 5  22376282.97243  22376289.59643
      1978.092        1541.366  
 08 11 15  5  7 30.0000000  0  5G11G 8G19G28G32                     
 105132850.478    81921712.2234   20006116.125 7  20006115.65945  20006118.84845
      -688.282        -536.319  
 115101986.680    89689866.8904   21903178.722 7  21903178.07745  21903183.18445
     -1921.614       -1497.356  
 120432451.266    93843468.3074   22917529.231 5  22917529.12141  22917534.39341
     -2258.116       -1759.560  
 114557503.959    89265578.4594   21799561.834 7  21799560.64745  21799564.39645
      2506.007        1952.738  
 117529018.595    91581045.4054   22365022.973 6  22365022.34444  22365029.38544
      1965.891        1531.865  
 08 11 15  5  8  0.0000000  0  4G11G 8G28G32                        
 105153715.413    81937970.6064   20010086.328 6  20010086.01944  20010089.40844
      -704.161        -548.699  
 115159886.108    89734983.2934   21914196.428 6  21914195.11343  21914201.22843
     -1939.793       -1511.524  
 114482452.584    89207096.8764   21785279.732 6  21785279.34343  21785283.65343
      2495.972        1944.914  
 117470235.233    91535240.2264   22353837.588 5  22353836.70643  22353843.10943
      1951.564        1520.700  
 08 11 15  5  8 30.0000000  0  4G11G 8G28G32                        
 105175018.502    81954570.4004   20014139.784 6  20014140.45845  20014143.28144
      -717.742        -559.279  
 115218290.962    89780493.5174   21925310.487 6  21925309.56844  21925315.24744
     -1955.595       -1523.826  
 114407666.519    89148822.0424   21771048.086 6  21771047.71544  21771050.61144
      2488.060        1938.738  
 117411845.386    91489741.6624   22342726.660 6  22342727.13643  22342731.45343
      1939.401        1511.206  
 08 11 15  5  9  0.0000000  0  5G11G 8G19G28G32                     
 105196753.941    81971507.0944   20018276.414 5  20018276.21843  20018279.30344
      -731.718        -570.169  
 115277193.677    89826391.7044   21936519.263 5  21936518.56043  21936524.26344
     -1971.712       -1536.387  
 120636036.811                    22956271.317 3                                
     -2265.458                  
 114333143.585    89090752.2254   21756867.402 6  21756866.40045  21756870.79444
      2479.674        1932.217  
 117353846.911    91444548.0704   22331689.538 5  22331688.70143  22331694.53043
      1926.715        1501.337  
 08 11 15  5  9 30.0000000  0  5G11G 8G19G28G32                     
 105218957.139    81988808.2924   20022501.445 5  20022501.36744  20022504.20144
      -747.716        -582.650  
 115336628.452    89872704.4864   21947830.145 5  21947828.56843  21947833.89643
     -1989.828       -1550.506  
 120704062.672                    22969215.066 4                                
     -2269.504                  
 114258923.236    89032918.1984   21742743.406 5  21742743.40243  21742745.52043
      2469.134        1923.987  
 117296279.304    91399690.2264   22320735.337 6  22320735.21743  22320739.51243
      1911.884        1489.766  
 08 11 15  5 10  0.0000000  0  4G11G 8G28G32                        
 105241582.025    82006438.0704   20026807.509 6  20026806.73644  20026809.61144
      -761.276        -593.203  
 115396548.374    89919395.3084   21959231.900 5  21959230.52043  21959236.04943
     -2005.495       -1562.730  
 114184963.408    88975287.1624   21728668.397 6  21728668.73643  21728672.67543
      2460.849        1917.549  
 117239100.837    91355135.5944   22309855.003 6  22309854.10843  22309858.35543
      1899.331        1480.006  
 08 11 15  5 10 30.0000000  0  4G11G 8G28G32                        
 105264639.726    82024405.0994   20031194.743 6  20031194.96444  20031197.45744
      -776.157        -604.789  
 115456962.629    89966471.3144   21970728.148 6  21970728.61042  21970732.20342
     -2022.372       -1575.856  
 114111278.590    88917870.4254   21714648.291 6  21714647.64544  21714650.42044
      2451.200        1910.041  
 117182326.238    91310895.6814   22299049.635 5  22299049.57243  22299054.46143
      1885.392        1469.150  
 08 11 15  5 11  0.0000000  0  4G11G 8G28G32                        
 105288128.480    82042708.0194   20035664.866 6  20035664.60444  20035666.99344
      -789.625        -615.306  
 115517868.093    90013930.1114   21982319.037 5  21982317.74142  21982322.63342
     -2037.833       -1587.952  
 114037870.974    88860669.7074   21700678.990 6  21700678.76944  21700681.59144
      2442.775        1903.439  
 117125957.772    91266972.2434   22288323.306 5  22288322.23143  22288328.73643
      1872.647        1459.196  
 08 11 15  5 11 30.0000000  0  4G11G 8G28G32                        
 105312046.086    82061345.1134   20040215.943 6  20040215.41244  20040217.93244
      -804.892        -627.197  
 115579261.267    90061768.9204   21994001.337 5  21994000.22542  21994004.99242
     -2055.018       -1601.356  
 113964742.774    88803686.6924   21686762.826 6  21686762.79543  21686766.64843
      2432.407        1895.376  
 117069997.489    91223366.8454   22277674.618 5  22277674.35743  22277679.96843
      1858.003        1447.794  
 08 11 15  5 12  0.0000000  0  4G11G 8G28G32                        
 105336399.672    82080321.9274   20044849.902 6  20044849.52644  20044852.47244
      -819.155        -638.303  
 115641148.074    90109992.3504   22005778.156 5  22005776.72442  22005782.74042
     -2071.202       -1613.927  
 113891904.649    88746929.7104   21672902.692 6  21672902.51344  21672904.66244
      2422.953        1888.013  
 117014456.187    91180087.9394   22267104.536 5  22267104.82843  22267110.31743
      1844.231        1437.058  
 08 11 15  5 12 30.0000000  0  4G11G 8G28G32                        
 105361189.048    82099638.3194   20049568.146 6  20049567.10244  20049570.14944
      -834.024        -649.896  
 115703526.616    90158598.9524   22017647.409 5  22017645.10241  22017652.61441
     -2087.939       -1626.952  
 113819360.184    88690401.5614   21659097.944 6  21659097.59944  21659100.89344
      2412.748        1880.061  
 116959337.639    91137138.4454   22256617.353 5  22256616.38742  22256620.96742
      1829.748        1425.786  
 08 11 15  5 13  0.0000000  0  4G11G 8G28G32                        
 105386400.814    82119283.8474   20054365.731 6  20054365.02144  20054367.55944
      -847.573        -660.450  
 115766382.452    90207577.4684   22029610.152 5  22029608.48041  22029612.89541
     -2103.292       -1638.918  
 113747100.009    88634094.9374   21645346.821 5  21645346.32044  21645349.01044
      2403.742        1873.053  
 116904632.802    91094511.3304   22246206.999 5  22246205.77542  22246211.54743
      1816.390        1415.385  
 08 11 15  5 13 30.0000000  0  4G11G 8G28G32                        
 105412042.214    82139264.1514   20059245.464 6  20059244.53744  20059247.27644
      -862.172        -671.813  
 115829721.413    90256932.5044   22041662.394 4  22041661.69142  22041666.35342
     -2119.673       -1651.685  
 113675135.707    88578018.8514   21631651.390 6  21631651.40444  21631655.83544
      2393.546        1865.105  
 116850352.829    91052215.2684   22235877.391 4  22235876.37242  22235882.28342
      1801.936        1404.107  
 08 11 15  5 14  0.0000000  0  4G11G 8G28G32                        
 105438129.888    82159592.2084   20064209.036 6  20064209.00044  20064211.40244
      -876.761        -683.169  
 115893558.437    90306675.6194   22053810.393 5  22053812.25941  22053815.61641
     -2135.861       -1664.338  
 113603487.301    88522188.9514   21618018.827 6  21618017.49543  21618021.06843
      2383.256        1857.087  
 116796517.957    91010266.0294   22225633.502 5  22225632.77042  22225637.32442
      1787.304        1392.709  
 08 11 15  5 14 30.0000000  0  4G11G 8G28G32                        
 105464628.311    82180240.3134   20069251.821 6  20069251.46244  20069254.24444
      -890.555        -693.935  
 115957856.697    90356778.1694   22066045.589 4  22066045.11841  22066050.96341
     -2151.419       -1676.433  
 113532123.248    88466580.6014   21604438.459 6  21604438.10443  21604440.89243
      2373.581        1849.555  
 116743096.601    90968639.0124   22215467.992 5  22215466.90242  22215471.74742
      1773.287        1381.803  
 08 11 15  5 15  0.0000000  0  4G11G 8G28G32                        
 105491544.697    82201214.1294   20074373.861 6  20074373.27644  20074375.73044
      -905.252        -705.394  
 116022622.057    90407244.5944   22078370.820 4  22078370.35141  22078372.47841
     -2167.648       -1689.080  
 113461055.100    88411202.8394   21590913.790 6  21590914.20343  21590917.04143
      2362.883        1841.195  
 116690100.160    90927343.1464   22205381.871 5  22205382.13842  22205387.11342
      1758.351        1370.133  
 08 11 15  5 15 30.0000000  0  3G11G28G32                           
 105518899.628    82222529.6584   20079578.459 5  20079578.20044  20079581.24743
      -918.138        -715.432  
 113390307.134    88356074.5554   21577452.015 5  21577450.41643  21577453.56043
      2353.889        1834.207  
 116637553.293    90886397.5624   22195384.293 5  22195383.62842  22195386.49942
      1744.915        1359.649  
 08 11 15  5 16  0.0000000  0  3G11G28G32                           
 105546677.240    82244174.5554   20084865.621 6  20084864.20444  20084867.28844
      -933.102        -727.093  
 113319867.614    88301186.6424   21564047.019 5  21564047.13543  21564048.75543
      2342.704        1825.488  
 116585443.844    90845792.8034   22185466.049 5  22185466.92342  22185471.09242
      1729.671        1347.791  
 08 11 15  5 16 30.0000000  0  4G11G 8G28G32                        
 105574882.737    82266152.8624   20090232.290 6  20090232.22545  20090234.67944
      -947.077        -737.976  
 116219824.823                    22115891.518 5                                
     -2214.060                  
 113249745.512    88246546.0674   21550703.230 6  21550703.26744  21550706.00044
      2332.295        1817.383  
 116533781.196    90805536.2154   22175635.884 6  22175635.23043  22175640.75643
      1714.815        1336.235  
 08 11 15  5 17  0.0000000  0  3G11G28G32                           
 105603489.973    82288444.2264   20095676.309 6  20095676.37944  20095678.28044
      -960.757        -748.640  
 113179918.845    88192135.6724   21537415.427 6  21537414.67043  21537417.82043
      2322.150        1809.457  
 116482542.878    90765610.2984   22165884.494 5  22165883.86943  22165890.29942
      1700.391        1324.959  
 08 11 15  5 17 30.0000000  0  3G11G28G32                           
 105632512.278    82311059.0094   20101199.396 6  20101198.72345  20101200.88144
      -973.099        -758.251  
 113110404.654    88137968.7724   21524186.897 6  21524187.03543  21524190.74943
      2313.046        1802.373  
 116431746.025    90726028.3564   22156219.911 5  22156218.98142  22156224.21742
      1687.049        1314.599  
 08 11 15  5 18  0.0000000  0  3G11G28G32                           
 105661953.141    82333999.9424   20106801.359 6  20106801.50244  20106803.58844
      -989.162        -770.774  
 113041210.889    88084051.5474   21511020.939 6  21511019.95143  21511022.97943
      2300.295        1792.435  
 116381398.362    90686796.4094   22146637.982 5  22146637.67642  22146644.21942
      1669.923        1301.237  
 08 11 15  5 18 30.0000000  0  3G11G28G32                           
 105691824.790    82357276.5594   20112485.477 7  20112484.97944  20112487.64844
     -1002.587        -781.244  
 112972353.534    88030396.4634   21497917.541 7  21497916.57543  21497920.13943
      2289.917        1784.345  
 116331515.672    90647926.8234   22137145.438 6  22137144.60642  22137151.55942
      1655.303        1289.836  
 08 11 15  5 19  0.0000000  0  3G11G28G32                           
 105722111.127    82380876.3134   20118248.713 6  20118248.21144  20118251.07444
     -1016.137        -791.805  
 112903819.997    87976993.7204   21484876.387 6  21484875.55444  21484879.06844
      2279.321        1776.088  
 116282085.305    90609409.7194   22127740.828 5  22127739.31842  22127745.34942
      1640.428        1278.237  
 08 11 15  5 19 30.0000000  0  4G11G28G32G17                        
 105752813.432    82404800.1864   20124090.833 7  20124089.99944  20124093.15344
     -1029.739        -802.399  
 112835616.207    87923847.9244   21471897.849 7  21471896.78444  21471899.41744
      2268.491        1767.650  
 116233113.429    90571249.8224   22118419.918 6  22118419.07142  22118425.88942
      1625.342        1266.500  
 122715142.691                    23351915.009 4                                
      2446.389                  
 08 11 15  5 20  0.0000000  0  4G11G28G32G17                        
 105783924.260    82429042.4214   20130010.838 7  20130010.62144  20130013.30044
     -1044.892        -814.209  
 112767738.992    87870956.6024   21458981.168 7  21458980.16544  21458983.89644
      2256.062        1757.978  
 116184596.212    90533444.2354   22109188.428 6  22109187.24242  22109193.45542
      1608.604        1253.445  
 122641798.034                    23337958.253 5                                
      2442.717                  
 08 11 15  5 20 30.0000000  0  4G11G28G32G17                        
 105815459.117    82453615.0444   20136012.326 6  20136012.03944  20136014.39644
     -1057.961        -824.388  
 112700207.646    87818334.7854   21446129.312 6  21446128.90044  21446132.28644
      2245.504        1749.728  
 116136552.841    90496007.8784   22100045.723 5  22100045.35342  22100050.40342
      1593.775        1241.881  
 122568531.406                    23324016.340 4                                
      2441.146                  
 08 11 15  5 21  0.0000000  0  3G11G28G32                           
 105847408.853    82478510.9524   20142091.842 7  20142091.77044  20142094.09244
     -1071.429        -834.879  
 112633016.822    87765978.3044   21433343.609 7  21433343.64644  21433346.81044
      2234.436        1741.127  
 116088977.877    90458936.5154   22090992.351 5  22090992.52642  22090996.79642
      1578.504        1230.023  
 08 11 15  5 21 30.0000000  0  3G11G28G32                           
 105879758.851    82503718.7494   20148248.227 7  20148247.78846  20148250.08145
     -1084.929        -845.403  
 112566156.097    87713879.0424   21420620.681 7  21420620.19844  21420623.52745
      2223.245        1732.394  
 116041860.600    90422221.7864   22082024.586 6  22082025.07643  22082031.41643
      1562.979        1217.894  
 08 11 15  5 22  0.0000000  0  3G11G28G32                           
 105912502.247    82529233.1014   20154478.983 7  20154479.03844  20154481.67844
     -1098.917        -856.302  
 112499622.390    87662034.6084   21407959.658 7  21407959.11044  21407961.98644
      2211.400        1723.165  
 115995197.694    90385861.0884   22073146.749 4  22073145.22642  22073150.00042
      1546.976        1205.434  
 08 11 15  5 22 30.0000000  0  3G11G28G32                           
 105945657.015    82555067.9934   20160788.371 7  20160788.14544  20160790.76444
     -1111.045        -865.758  
 112433437.858    87610462.2634   21395365.650 7  21395364.70144  21395368.04044
      2201.265        1715.255  
 115949011.237    90349871.6524   22064357.112 5  22064356.22441  22064361.67341
      1532.557        1194.186  
 08 11 15  5 23  0.0000000  0  3G11G28G32                           
 105979217.610    82581219.0984   20167175.026 6  20167174.46045  20167177.04245
     -1126.194        -877.552  
 112367600.978    87559160.8034   21382837.144 6  21382836.83944  21382839.34244
      2187.958        1704.897  
 115903299.296    90314251.9394   22055657.466 5  22055657.85241  22055663.31541
      1515.021        1180.531  
 08 11 15  5 23 30.0000000  0  2G11G28                              
 106013184.187    82607686.5614   20173638.597 7  20173638.61744  20173640.38844
     -1138.861        -887.407  
 112302116.139    87508133.6624   21370375.192 7  21370375.80444  21370377.90244
      2177.021        1696.393  
 08 11 15  5 24  0.0000000  0  2G11G28                              
 106047546.649    82634462.5054   20180177.689 7  20180177.02044  20180179.64744
     -1151.758        -897.468  
 112236977.028    87457375.9374   21357980.329 7  21357979.94044  21357982.62644
      2165.733        1687.583  
 08 11 15  5 24 30.0000000  0  2G11G28                              
 106082300.679    82661543.5794   20186791.260 7  20186790.34744  20186793.26044
     -1165.012        -907.799  
 112172184.174    87406888.0114   21345650.553 7  21345650.25044  21345653.44244
      2153.904        1678.368  
 08 11 15  5 25  0.0000000  0  2G11G28                              
 106117439.061    82688924.1224   20193478.077 6  20193477.60045  20193479.93645
     -1177.870        -917.815  
 112107733.760    87356666.9174   21333385.925 6  21333384.97744  21333388.80544
      2142.346        1669.366  
 08 11 15  5 25 30.0000000  0  3G11G28G17                           
 106152986.993    82716623.8104   20200242.188 7  20200242.07545  20200244.38145
     -1191.601        -928.512  
 112043654.773    87306735.2614   21321191.785 7  21321191.22444  21321195.18744
      2129.872        1659.640  
 121839400.677                    23185265.226 5                                
      2419.188                  
 08 11 15  5 26  0.0000000  0  3G11G28G17                           
 106188927.947    82744629.7474   20207081.606 7  20207081.09745  20207083.71845
     -1203.891        -938.093  
 111979935.704    87257084.0504   21309066.684 7  21309066.20345  21309069.45345
      2118.597        1650.858  
 121766856.398    94883265.6734   23171461.328 5  23171462.53342  23171464.74842
      2417.670        1883.908  
 08 11 15  5 26 30.0000000  0  3G11G28G17                           
 106225268.337    82772946.9254   20213996.737 7  20213996.98545  20213999.19845
     -1218.060        -949.137  
 111916586.229    87207720.8344   21297010.964 6  21297009.99744  21297014.43944
      2105.373        1640.551  
 121694387.804    94826796.7224   23157667.653 5  23157669.91342  23157673.98542
      2414.244        1881.247  
 08 11 15  5 27  0.0000000  0  3G11G28G17                           
 106261995.030    82801565.1234   20220985.621 6  20220985.47744  20220987.96444
     -1231.004        -959.238  
 111853597.299    87158638.5654   21285024.760 6  21285023.85944  21285026.99244
      2093.234        1631.083  
 121621984.023    94770378.2354   23143891.307 5  23143890.46842  23143896.07842
      2412.056        1879.488  
 08 11 15  5 27 30.0000000  0  3G11G28G17                           
 106299112.362    82830487.7184   20228049.216 7  20228048.58545  20228051.23645
     -1243.796        -969.190  
 111790977.708    87109844.0744   21273109.255 7  21273108.53644  21273111.45744
      2081.093        1621.617  
 121549651.980    94714015.6644   23130127.643 6  23130127.67342  23130131.99242
      2409.816        1877.773  
 08 11 15  5 28  0.0000000  0  3G11G28G17                           
 106336622.246    82859716.1974   20235187.069 7  20235186.48444  20235189.12144
     -1255.744        -978.502  
 111728733.350    87061341.9784   21261264.018 7  21261263.64644  21261266.45244
      2069.636        1612.714  
 121477394.871    94657711.4554   23116377.079 6  23116377.17643  23116382.37643
      2408.487        1876.745  
 08 11 15  5 28 30.0000000  0  3G11G28G17                           
 106374491.863    82889224.9904   20242393.034 7  20242392.50645  20242394.80345
     -1268.884        -988.738  
 111666835.506    87013109.8954   21249484.974 7  21249484.96745  21249487.50845
      2056.863        1602.760  
 121405181.964    94601441.6954   23102635.570 6  23102635.31043  23102640.14243
      2405.798        1874.653  
 08 11 15  5 29  0.0000000  0  3G11G28G17                           
 106412744.859    82919032.5414   20249671.942 7  20249671.75144  20249673.87144
     -1281.168        -998.309  
 111605311.937    86965169.4614   21237778.274 7  21237777.61444  21237780.76644
      2044.855        1593.388  
 121333038.914    94545226.3894   23088908.524 6  23088907.38243  23088911.88043
      2403.909        1873.178  
 08 11 15  5 29 30.0000000  0  3G11G28G17                           
 106451372.777    82949132.2254   20257022.447 7  20257022.01044  20257024.09944
     -1294.053       -1008.351  
 111544157.996    86917517.0494   21226140.842 7  21226139.50844  21226142.49044
      2032.052        1583.432  
 121260959.285    94489060.4844   23075190.435 6  23075190.00243  23075195.32043
      2401.352        1871.185  
 08 11 15  5 30  0.0000000  0  3G11G28G17                           
 106490387.313    82979533.1854   20264446.178 7  20264446.08844  20264448.09044
     -1307.045       -1018.472  
 111483389.586    86870165.0644   21214576.810 7  21214575.94144  21214579.12644
      2019.028        1573.258  
 121188956.767    94432954.6784   23061489.003 6  23061489.04343  23061493.24943
      2398.604        1869.049  
 08 11 15  5 30 30.0000000  0  3G11G28G17                           
 106529780.586    83010229.2634   20271943.266 7  20271942.16544  20271944.76344
     -1319.434       -1028.131  
 111423003.213    86823110.7574   21203085.917 7  21203085.45844  21203088.23544
      2006.428        1563.441  
 121117026.205    94376904.9324   23047800.755 6  23047801.41444  23047804.59644
      2396.415        1867.313  
 08 11 15  5 31  0.0000000  0  3G11G28G17                           
 106569545.956    83041215.2824   20279510.109 7  20279509.99844  20279511.82044
     -1331.543       -1037.576  
 111362995.859    86776351.7904   21191666.907 7  21191666.21044  21191669.66344
      1994.048        1553.807  
 121045161.970    94320906.8694   23034126.619 6  23034126.46144  23034129.66044
      2394.476        1865.832  
 08 11 15  5 31 30.0000000  0  3G11G28G17                           
 106609685.605    83072492.9404   20287148.184 7  20287147.99544  20287150.16344
     -1343.740       -1047.074  
 111303373.998    86729893.2134   21180321.577 7  21180320.44144  21180324.36945
      1981.393        1543.936  
 120973368.715    94264964.1174   23020464.160 6  23020464.04844  23020467.78144
      2392.377        1864.193  
 08 11 15  5 32  0.0000000  0  5G11G28G32G20G17                     
 106650196.159    83104059.6254   20294857.334 7  20294856.86844  20294860.31244
     -1356.757       -1057.214  
 111244138.771    86683735.9024   21169049.392 7  21169048.51645  21169052.45045
      1967.810        1533.356  
 115163378.497    89737701.3594   21914859.099 6  21914859.2654   21914863.3584 
      1220.989         951.414  
 115739465.485    90186599.1844   22024485.556 6  22024484.37642  22024490.26241
      2682.343        2090.134  
 120901645.129    94209075.6404   23006816.265 7  23006816.33644  23006820.61044
      2389.416        1861.872  
 08 11 15  5 32 30.0000000  0  5G11G28G32G20G17                     
 106691092.733    83135927.0884   20302639.347 7  20302638.80644  20302641.95844
     -1368.994       -1066.759  
 111185308.431    86637894.1024   21157854.215 7  21157853.57545  21157856.95545
      1954.845        1523.251  
 115127012.876    89709364.5444   21907938.803 6  21907938.84542  21907942.75842
      1204.040         938.208  
 115659183.671    90124041.9644   22009207.218 6  22009206.71242  22009211.98042
      2670.422        2080.833  
 120830008.262    94153254.7604   22993184.696 7  22993184.90844  22993187.29644
      2387.068        1860.040  
 08 11 15  5 33  0.0000000  0  5G11G28G32G20G17                     
 106732344.679    83168071.4674   20310489.540 7  20310489.11645  20310492.61245
     -1381.314       -1076.353  
