     2.11           OBSERVATION DATA    G (GPS)             RINEX VERSION / TYPE
teqc  2008Feb15                         20081116 00:10:16UTCPGM / RUN BY / DATE
MSXP|IAx86-PII|bcc32 5.0|MSWin95->XP|486/DX+                COMMENT
convertToRinex 1.24 convertToRINEX OPR  16-11-08 00:10 UTC  COMMENT
----------------------------------------------------------- COMMENT
SUWN                                                        MARKER NAME
23903M001                                                   MARKER NUMBER
NGII                NGII                                    OBSERVER / AGENCY
4450241593          TRIMBLE NETRS       Version 1.15        REC # / TYPE / VERS
0220170420          TRM29659.00     DOME                    ANT # / TYPE
 -3062023.5446  4055449.0441  3841819.2109                  APPROX POSITION XYZ
        1.5700        0.0000        0.0000                  ANTENNA: DELTA H/E/N
     1     1                                                WAVELENGTH FACT L1/2
     5    C1    L1    L2    P2    S1                        # / TYPES OF OBSERV
    30.0000                                                 INTERVAL
Forced Modulo Decimation to 30 seconds                      COMMENT
  2008    11    15     0     0    0.0000000     GPS         TIME OF FIRST OBS
     0                                                      RCV CLOCK OFFS APPL
    14                                                      LEAP SECONDS
                                                            END OF HEADER
 08 11 15  0  0  0.0000000  0  9G 3G 6G13G16G19G21G23G25G31
  20936548.876 7 -21757355.95717 -16942771.45259  20936542.85249        51.000
  20636120.954 7 -23077390.20317 -17969555.97959  20636115.04049        52.000
  22839029.678 6  -4205180.48516  -6147746.67957  22839022.73847        43.000
  20623993.948 8 -23123904.89718 -17996338.31759  20623986.48249        53.000
  23619491.918 6  -7434271.37216  -5776082.56057  23619482.86947        44.000
  24078961.964 5  -7514585.06715  -5851081.90457  24078956.16547        42.000
  21499429.313 7 -12071955.42817 -10074258.98958  21499421.24948        48.000
  24428049.498 1     98911.06811                                        31.000
  22006467.000 7 -16212565.21817 -12621107.72258  22006460.59048        51.000
 08 11 15  0  0 30.0000000  0  9G 3G 6G13G16G19G21G23G25G31
  20921979.383 7 -21833918.815 7 -17002430.82349  20921973.61149        50.000
  20627724.624 7 -23121511.577 7 -18003936.26449  20627718.61149        51.000
  22826683.169 6  -4270061.351 6  -6198303.20247  22826676.25847        44.000
  20628389.460 8 -23100804.265 8 -17978337.83049  20628382.35249        53.000
  23598544.681 6  -7544347.694 6  -5861856.33247  23598536.30547        44.000
  24073565.419 5  -7542943.901 5  -5873179.69246  24073559.53546        42.000
  21496407.590 7 -12087834.124 7 -10086632.00948  21496399.26748        48.000
  24410569.888 1      7053.799 1                                        31.000
  22018627.002 7 -16148665.857 7 -12571316.04548  22018620.24248        51.000
 08 11 15  0  1  0.0000000  0  9G 3G 6G13G16G19G21G23G25G31
  20907494.028 7 -21910038.952 7 -17061745.20749  20907487.73449        50.000
  20619422.421 7 -23165140.240 7 -18037932.62449  20619416.27849        51.000
  22814432.313 6  -4334437.559 6  -6248466.46547  22814426.42947        45.000
  20632829.104 8 -23077474.400 8 -17960158.71949  20632822.09049        53.000
  23577630.239 6  -7654254.149 6  -5947497.70947  23577621.94947        44.000
  24068244.778 5  -7570904.036 5  -5894966.80947  24068238.50547        42.000
  21493505.387 7 -12103085.955 7 -10098516.56648  21493496.94548        48.000
  24393093.101 1    -84785.703 1                                        30.000
  22030846.757 7 -16084450.058 7 -12521277.76848  22030840.45748        51.000
 08 11 15  0  1 30.0000000  0  9G 3G 6G13G16G19G21G23G25G31
  20893093.331 7 -21985715.099 7 -17120713.63049  20893086.92849        50.000
  20611213.889 7 -23208275.943 7 -18071544.85649  20611208.14149        52.000
  22802279.007 6  -4398306.798 6  -6298234.71547  22802271.87347        45.000
  20637312.017 8 -23053917.010 8 -17941802.32349  20637304.70349        53.000
  23556748.707 6  -7763988.809 6  -6033005.22047  23556740.43447        44.000
  24063000.618 6  -7598464.031 6  -5916442.08446  24062993.49446        43.000
  21490722.484 7 -12117711.103 7 -10109912.79248  21490713.27148        48.000
  24375620.992 1                                                        29.000
  22043126.767 7 -16019918.302 7 -12470993.30348  22043119.69048        50.000
 08 11 15  0  2  0.0000000  0  9G 3G 6G13G16G19G21G23G25G31
  20878776.535 7 -22060950.709 7 -17179338.75949  20878770.59549        50.000
  20603098.395 7 -23250923.096 7 -18104776.39549  20603092.80549        52.000
  22790220.289 6  -4461671.660 6  -6347609.91947  22790214.18747        46.000
  20641836.952 8 -23030138.104 8 -17923273.30349  20641829.86849        53.000
  23535898.119 6  -7873554.837 6  -6118381.31747  23535890.12147        44.000
  24057831.715 5  -7625627.488 5  -5937608.40346  24057824.74746        42.000
  21488057.658 7 -12131714.489 7 -10120824.52648  21488049.50648        48.000
  24358150.679 1                                                        27.000
  22055465.742 7 -15955076.380 7 -12420467.14648  22055459.49648        50.000
 08 11 15  0  2 30.0000000  0  8G 3G 6G13G16G19G21G23G31
  20864544.344 7 -22135741.185 7 -17237617.04949  20864538.48749        50.000
  20595076.765 7 -23293078.236 7 -18137624.55749  20595070.57249        52.000
  22778259.783 6  -4524527.102 6  -6396588.18047  22778253.10947        45.000
  20646404.604 8 -23006135.542 8 -17904570.03149  20646397.53649        53.000
  23515082.023 6  -7982946.855 6  -6203621.85547  23515074.32647        44.000
  24052738.359 6  -7652389.952 6  -5958462.25946  24052731.65146        43.000
  21485511.559 7 -12145092.824 7 -10131249.21348  21485502.87548        48.000
  22067864.294 7 -15889921.887 7 -12369697.43948  22067857.64048        50.000
 08 11 15  0  3  0.0000000  0  8G 3G 6G13G16G19G21G23G31
  20850397.094 7 -22210084.996 7 -17295547.28249  20850391.42749        50.000
  20587148.493 8 -23334740.709 8 -18170088.81449  20587142.61049        53.000
  22766396.468 6  -4586870.935 6  -6445167.78347  22766389.50147        45.000
  20651014.176 8 -22981910.505 8 -17885693.38249  20651007.13049        53.000
  23494298.850 6  -8092162.786 6  -6288725.17447  23494291.30847        45.000
  24047722.764 6  -7678750.336 6  -5979002.76947  24047715.83947        43.000
  21483084.656 7 -12157845.689 7 -10141186.51248  21483076.62148        49.000
  22080322.469 7 -15824455.155 7 -12318684.41248  22080315.93648        50.000
 08 11 15  0  3 30.0000000  0  8G 3G 6G13G16G19G21G23G31
  20836334.962 7 -22283981.730 7 -17353129.15149  20836329.16749        52.000
  20579313.615 7 -23375910.868 7 -18202169.45949  20579308.24049        52.000
  22754630.165 6  -4648701.799 6  -6493347.70347  22754623.79747        44.000
  20655666.352 8 -22957464.742 8 -17866644.74949  20655659.08349        53.000
  23473549.311 6  -8201201.183 6  -6373690.11647  23473542.06847        44.000
  24042783.597 5  -7704707.251 5  -5999228.90447  24042776.32647        42.000
  21480777.188 7 -12169973.767 7 -10150636.97948  21480768.48148        49.000
  22092839.332 7 -15758677.740 7 -12267429.31848  22092832.81948        50.000
 08 11 15  0  4  0.0000000  0  8G 3G 6G13G16G19G21G23G31
  20822358.705 7 -22357428.032 7 -17410360.03249  20822352.50149        51.000
  20571573.776 7 -23416586.858 7 -18233865.03449  20571567.81649        52.000
  22742962.024 6  -4710016.900 6  -6541125.66747  22742955.82247        44.000
  20660360.203 7 -22932798.100 7 -17847423.99449  20660353.14649        51.000
  23452834.031 6  -8310058.543 6  -6458513.99947  23452826.89347        43.000
  24037920.189 5  -7730258.080 5  -6019138.61646  24037914.28046        41.000
  21478588.405 7 -12181475.512 7 -10159599.38248  21478580.10748        48.000
  22105415.600 7 -15692588.810 7 -12215931.46448  22105409.10548        50.000
 08 11 15  0  4 30.0000000  0  8G 3G 6G13G16G19G21G23G31
  20808468.265 7 -22430422.124 7 -17467238.54649  20808462.37549        52.000
  20563927.359 7 -23456768.057 7 -18265175.05949  20563921.63249        52.000
  22731392.684 6  -4770814.073 6  -6588500.07847  22731385.81647        45.000
  20665095.799 8 -22907911.335 8 -17828031.72649  20665088.65749        53.000
  23432154.047 6  -8418732.460 6  -6543194.93547  23432146.11047        43.000
  24033136.385 6  -7755401.499 6  -6038730.86846  24033129.36746        43.000
  21476518.952 7 -12192350.666 7 -10168073.53748  21476510.86248        48.000
  22118051.207 7 -15626188.503 7 -12164190.99348  22118044.70948        50.000
 08 11 15  0  5  0.0000000  0  8G 3G 6G13G16G19G21G23G31
  20794664.376 7 -22502963.827 7 -17523764.54349  20794657.96349        50.000
  20556375.227 7 -23496454.652 7 -18296099.67049  20556369.62049        51.000
  22719922.894 6  -4831091.622 6  -6635469.61747  22719916.12947        46.000
  20669873.300 7 -22882806.463 7 -17808469.49449  20669866.13449        51.000
  23411509.911 6  -8527221.529 6  -6627731.85247  23411501.41647        45.000
  24028429.452 5  -7780136.644 5  -6058004.98746  24028421.85346        42.000
  21474568.496 7 -12202600.000 7 -10176060.02948  21474560.06248        49.000
  22130745.575 7 -15559478.589 7 -12112209.27048  22130739.25348        48.000
 08 11 15  0  5 30.0000000  0  8G 3G 6G13G16G19G21G23G31
  20780946.583 7 -22575050.495 7 -17579935.97849  20780940.49349        52.000
  20548917.408 7 -23535645.045 7 -18326637.64649  20548911.60449        52.000
  22708551.738 6  -4890846.780 6  -6682032.07847  22708545.27847        46.000
  20674691.989 7 -22857483.029 7 -17788736.95249  20674685.00049        52.000
  23390900.219 6  -8635522.436 6  -6712122.15647  23390892.63647        44.000
  24023800.772 5  -7804460.872 5  -6076958.86546  24023793.38946        42.000
  21472737.476 7 -12212222.224 7 -10183557.88848  21472728.61248        50.000
  22143499.239 7 -15492458.528 7 -12059985.86548  22143492.93048        50.000
 08 11 15  0  6  0.0000000  0  8G 3G 6G13G16G19G21G23G31
  20767315.677 7 -22646681.041 7 -17635751.98049  20767310.04249        52.000
  20541554.553 8 -23574339.520 8 -18356789.18349  20541548.60049        53.000
  22697280.477 6  -4950078.039 6  -6728186.30447  22697272.97947        46.000
  20679552.297 7 -22831942.801 7 -17768835.48749  20679545.12449        52.000
  23370327.895 6  -8743633.672 6  -6796364.66247  23370320.27647        44.000
  24019249.921 5  -7828373.497 5  -6095592.05946  24019243.12946        41.000
  21471025.688 7 -12221218.091 7 -10190567.66148  21471017.20648        50.000
  22156311.685 7 -15425129.327 7 -12007521.57648  22156305.00848        49.000
 08 11 15  0  6 30.0000000  0  8G 3G 6G13G16G19G21G23G31
  20753772.122 8 -22717853.117 8 -17691210.73549  20753766.16049        53.000
  20534285.770 8 -23612536.866 8 -18386553.35349  20534280.16149        53.000
  22686108.489 6  -5008782.771 6  -6773930.26147  22686102.64347        45.000
  20684454.032 8 -22806185.919 8 -17748765.20249  20684446.65649        53.000
  23349791.052 6  -8851552.297 6  -6880457.06047  23349784.07547        45.000
  24014778.331 5  -7851872.107 5  -6113902.64446  24014771.36246        42.000
  21469432.930 7 -12229586.686 7 -10197088.65648  21469424.60348        49.000
  22169182.648 7 -15357491.080 7 -11954816.46548  22169176.14048        50.000
 08 11 15  0  7  0.0000000  0  8G 3G 6G13G16G19G21G23G31
  20740315.764 7 -22788566.011 7 -17746311.69049  20740309.67049        51.000
  20527111.394 7 -23650237.018 7 -18415930.09249  20527105.25149        51.000
  22675038.377 6  -5066959.315 6  -6819262.63147  22675031.23147        46.000
  20689396.102 7 -22780213.816 7 -17728527.21149  20689389.03649        51.000
  23329292.159 6  -8959276.561 6  -6964398.01447  23329284.00447        44.000
  24010385.723 5  -7874955.866 5  -6131889.96246  24010378.52346        42.000
  21467960.218 7 -12237328.296 7 -10203121.07948  21467951.97448        49.000
  22182112.773 7 -15289544.551 7 -11901871.14448  22182106.04848        49.000
 08 11 15  0  7 30.0000000  0  8G 3G 6G13G16G19G21G23G31
  20726947.623 8 -22858817.600 8 -17801053.18849  20726941.39749        53.000
  20520032.115 8 -23687439.008 8 -18444918.66049  20520026.16149        54.000
  22664068.534 6  -5124605.350 6  -6864181.63447  22664061.79547        46.000
  20694379.390 8 -22754026.789 8 -17708121.75549  20694371.95149        53.000
  23308830.094 6  -9066803.771 6  -7048185.41847  23308822.43247        44.000
  24006072.082 6  -7897622.710 6  -6149552.41346  24006065.66646        43.000
  21466606.132 7 -12244442.292 7 -10208664.46448  21466597.69248        50.000
  22195100.856 7 -15221289.834 7 -11848685.67348  22195094.32848        50.000
 08 11 15  0  8  0.0000000  0  8G 3G 6G13G16G19G21G23G31
  20713666.919 7 -22928606.654 7 -17855434.25849  20713660.99449        52.000
  20513047.661 7 -23724142.385 7 -18473518.69449  20513041.66549        51.000
  22653200.171 6  -5181719.098 6  -6908685.85647  22653194.08847        45.000
  20699403.294 7 -22727625.991 7 -17687549.71649  20699396.12849        52.000
  23288406.089 6  -9174131.506 6  -7131817.36347  23288398.69347        43.000
  24001838.541 5  -7919871.342 5  -6166888.99546  24001830.87546        42.000
  21465372.024 7 -12250928.853 7 -10213718.93348  21465363.52448        49.000
  22208147.658 7 -15152727.668 7 -11795260.62048  22208141.77348        49.000
 08 11 15  0  8 30.0000000  0  8G 3G 6G13G16G19G21G23G31
  20700474.612 8 -22997931.778 8 -17909453.82449  20700469.04149        53.000
  20506158.490 8 -23760347.051 8 -18501730.11949  20506152.50749        53.000
  22642433.303 6  -5238298.404 6  -6952773.60847  22642426.72347        46.000
  20704467.542 7 -22701012.482 7 -17666811.92849  20704460.53149        51.000
  23268020.967 6  -9281257.773 6  -7215292.34047  23268013.25947        44.000
  23997684.644 5  -7941700.924 5  -6183899.05446  23997677.10946        42.000
  21464256.981 7 -12256788.164 7 -10218284.63948  21464248.99648        50.000
  22221253.080 7 -15083858.917 7 -11741596.70348  22221247.09948        49.000
 08 11 15  0  9  0.0000000  0  8G 3G 6G13G16G19G21G23G31
  20687371.359 8 -23066791.633 8 -17963110.84349  20687365.16149        54.000
  20499363.730 7 -23796052.558 7 -18529552.58849  20499357.68449        51.000
  22631768.157 6  -5294341.676 6  -6996443.69647  22631762.25547        45.000
  20709572.230 7 -22674187.089 7 -17645909.03149  20709565.32649        51.000
  23247674.290 6  -9388180.573 6  -7298608.75447  23247666.67147        45.000
  23993610.298 5  -7963109.794 5  -6200581.25346  23993603.41546        42.000
  21463261.721 7 -12262020.386 7 -10222361.70048  21463252.68548        49.000
  22234416.908 7 -15014684.006 7 -11687694.18848  22234410.29048        50.000
 08 11 15  0  9 30.0000000  0  8G 3G 6G13G16G19G21G23G31
  20674356.522 8 -23135184.343 8 -18016403.85749  20674350.84949        53.000
  20492664.492 7 -23831258.243 7 -18556985.59049  20492658.39449        52.000
  22621206.660 6  -5349846.409 6  -7039694.14447  22621200.49347        45.000
  20714717.343 7 -22647150.308 7 -17624841.42649  20714710.45849        51.000
  23227367.001 6  -9494897.173 6  -7381764.51247  23227359.14647        46.000
  23989617.088 6  -7984096.010 6  -6216934.16246  23989609.70246        43.000
  21462384.882 7 -12266625.177 7 -10225949.84848  21462376.12148        49.000
  22247638.482 7 -14945203.330 7 -11633553.43048  22247632.41748        50.000
 08 11 15  0 10  0.0000000  0  8G 3G 6G13G16G19G21G23G31
  20661431.123 7 -23203107.879 7 -18069331.27849  20661425.20349        52.000
  20486060.424 7 -23865963.069 7 -18584028.30749  20486054.38249        52.000
  22610747.432 7  -5404810.795 7  -7082523.50847  22610740.80347        48.000
  20719902.136 7 -22619902.834 7 -17603609.63149  20719895.20749        51.000
  23207099.148 6  -9601404.750 6  -7464757.37747  23207091.53047        46.000
  23985704.272 6  -8004657.813 6  -6232956.30646  23985696.99146        43.000
  21461628.532 7 -12270602.111 7 -10229048.76048  21461620.28748        48.000
  22260918.320 7 -14875416.632 7 -11579174.20148  22260912.32848        51.000
 08 11 15  0 10 30.0000000  0  8G 3G 6G13G16G19G21G23G31
  20648595.025 8 -23270561.832 8 -18121892.78849  20648588.84849        53.000
  20479551.122 7 -23900167.743 7 -18610681.29649  20479545.08749        51.000
  22600391.141 6  -5459233.364 6  -7124930.72447  22600384.50547        47.000
  20725127.256 7 -22592446.286 7 -17582214.92849  20725120.40849        50.000
  23186871.556 6  -9707702.134 6  -7547586.47247  23186863.60847        46.000
  23981872.404 5  -8024794.847 5  -6248647.50646  23981864.91246        42.000
  21460990.876 7 -12273952.179 7 -10231659.20548  21460981.67148        48.000
  22274256.363 7 -14805325.771 7 -11524557.97048  22274249.69448        50.000
 08 11 15  0 11  0.0000000  0  8G 3G 6G13G16G19G21G23G31
  20635848.685 7 -23337543.440 7 -18174086.22949  20635843.04649        52.000
  20473138.081 7 -23933870.508 7 -18636943.18449  20473131.78949        51.000
  22590138.802 6  -5513110.766 6  -7166913.12447  22590131.85247        47.000
  20730392.123 7 -22564780.066 7 -17560656.83649  20730384.75649        50.000
  23166684.423 6  -9813785.747 6  -7630248.96947  23166676.58247        45.000
  23978121.182 6  -8044504.401 6  -6264005.58846  23978113.78246        43.000
  21460473.041 7 -12276674.091 7 -10233780.17448  21460464.65848        49.000
  22287652.075 7 -14734929.984 7 -11469704.11748  22287645.77948        49.000
 08 11 15  0 11 30.0000000  0  8G 3G 6G13G16G19G21G23G31
  20623192.554 8 -23404052.813 8 -18225911.71349  20623186.59149        53.000
  20466819.784 7 -23967072.297 7 -18662814.70349  20466814.08749        51.000
  22579990.257 6  -5566442.147 6  -7208470.03947  22579983.01947        47.000
  20735696.217 7 -22536906.131 7 -17538936.90149  20735689.20249        51.000
  23146538.122 6  -9919654.531 6  -7712744.08547  23146530.55547        45.000
  23974452.787 6  -8063786.424 6  -6279030.54646  23974446.22746        43.000
  21460074.197 7 -12278769.457 7 -10235412.94648  21460065.87048        49.000
  22301106.253 7 -14664231.097 7 -11414614.11848  22301099.59448        50.000
 08 11 15  0 12  0.0000000  0  8G 3G 6G13G16G19G21G23G31
  20610626.493 8 -23470087.900 8 -18277367.61649  20610620.62049        53.000
  20460597.116 7 -23999772.437 7 -18688295.33049  20460591.19749        51.000
  22569945.663 6  -5619226.349 6  -7249600.60247  22569938.80447        47.000
  20741039.602 7 -22508825.205 7 -17517055.66449  20741032.75749        51.000
  23126432.924 6 -10025305.984 6  -7795069.85247  23126424.95147        45.000
  23970865.153 6  -8082639.064 6  -6293720.90647  23970857.72847        45.000
  21459794.215 7 -12280238.045 7 -10236557.28448  21459786.31548        49.000
  22314617.018 7 -14593229.401 7 -11359288.13948  22314610.47048        49.000
 08 11 15  0 12 30.0000000  0  8G 3G 6G13G16G19G21G23G31
  20598150.830 8 -23535646.862 8 -18328452.51449  20598145.22449        53.000
  20454469.823 7 -24031970.152 7 -18713384.45949  20454464.84949        51.000
  22560005.896 6  -5671460.176 6  -7290302.28947  22559998.89847        47.000
  20746422.543 7 -22480537.780 7 -17495013.52849  20746415.34949        51.000
  23106370.475 6 -10130737.242 6  -7877224.05147  23106362.82747        46.000
  23967359.314 6  -8101060.548 6  -6308075.31747  23967352.34947        43.000
  21459634.476 7 -12281079.467 7 -10237212.94948  21459625.69948        48.000
  22328185.572 7 -14521924.827 7 -11303726.16348  22328179.46648        49.000
 08 11 15  0 13  0.0000000  0  8G 3G 6G13G16G19G21G23G31
  20585766.322 8 -23600728.323 8 -18379165.33049  20585760.21849        53.000
  20448438.722 7 -24063665.219 7 -18738081.90149  20448432.83249        51.000
  22550171.009 6  -5723142.228 6  -7330574.00447  22550164.19247        46.000
  20751844.627 7 -22452044.514 7 -17472810.98749  20751837.74649        51.000
  23086349.513 6 -10235946.275 6  -7959205.09247  23086341.94547        46.000
  23963936.111 6  -8119049.766 6  -6322092.88646  23963929.45546        43.000
  21459594.287 7 -12281294.297 7 -10237380.34348  21459586.29848        49.000
  22341812.296 7 -14450318.651 7 -11247929.16648  22341805.93948        49.000
 08 11 15  0 13 30.0000000  0  9G 3G 6G13G16G19G21G23G25G31
  20573473.030 8 -23665330.675 8 -18429504.82349  20573466.54549        54.000
  20442503.169 7 -24094856.725 7 -18762386.97149  20442497.80649        51.000
  22540441.034 6  -5774270.630 6  -7370414.33547  22540434.31947        46.000
  20757305.713 7 -22423345.683 7 -17450448.27149  20757298.71049        50.000
  23066372.122 6 -10340930.385 6  -8041010.86947  23066363.55147        46.000
  23960595.018 6  -8136604.633 6  -6335772.00746  23960587.86746        43.000
  21459672.204 7 -12280881.904 7 -10237059.00748  21459663.65648        49.000
  23957935.868 1                                                        31.000
  22355495.058 7 -14378410.582 7 -11191896.93148  22355489.46348        48.000
 08 11 15  0 14  0.0000000  0  9G 3G 6G13G16G19G21G23G25G31
  20561270.458 8 -23729454.105 8 -18479471.12849  20561264.56349        53.000
  20436663.249 7 -24125546.045 7 -18786300.72749  20436657.14449        51.000
  22530817.505 6  -5824843.974 6  -7409822.13847  22530810.31747        47.000
  20762805.820 7 -22394443.874 7 -17427927.38949  20762798.82449        51.000
  23046437.279 6 -10445688.777 6  -8122640.76747  23046430.05647        46.000
  23957337.606 5  -8153725.746 5  -6349113.12246  23957330.54146        42.000
  21459869.556 7 -12279844.399 7 -10236250.57148  21459861.34148        49.000
  23940635.877 1   -141658.037 1                                        32.000
  22369236.687 7 -14306202.782 7 -11135631.14048  22369230.52448        50.000
 08 11 15  0 14 30.0000000  0  9G 3G 6G13G16G19G21G23G25G31
  20549160.169 8 -23793096.434 8 -18529062.55149  20549154.18549        53.000
  20430919.163 7 -24155732.078 7 -18809822.30949  20430913.18949        51.000
  22521299.405 6  -5874860.486 6  -7448796.03747  22521293.37247        46.000
  20768343.881 7 -22365338.942 7 -17405248.23049  20768337.46849        51.000
  23026545.636 6 -10550218.379 6  -8204092.37247  23026537.69147        46.000
  23954162.179 5  -8170410.927 5  -6362114.53446  23954155.56846        42.000
  21460185.801 7 -12278181.123 7 -10234954.51048  21460177.50748        49.000
  23923346.819 1                                                        32.000
  22383034.178 7 -14233695.204 7 -11079131.76448  22383028.15748        49.000
 08 11 15  0 15  0.0000000  0  9G 3G 6G13G16G19G21G23G25G31
  20537140.958 7 -23856255.728 7 -18578277.58349  20537135.59749        51.000
  20425270.781 7 -24185413.788 7 -18832950.90949  20425264.88049        51.000
  22511888.434 6  -5924317.951 6  -7487334.33347  22511881.20847        47.000
  20773921.273 7 -22336030.825 7 -17382410.74649  20773914.62449        50.000
  23006698.110 6 -10654516.292 6  -8285363.46047  23006690.80147        46.000
  23951070.566 5  -8186658.102 5  -6374774.66546  23951063.32346        42.000
  21460621.555 7 -12275891.734 7 -10233170.57648  21460613.32348        49.000
  23906068.577 1   -323312.310 1                                        33.000
  22396888.645 7 -14160887.751 7 -11022398.71748  22396882.76348        49.000
 08 11 15  0 15 30.0000000  0  9G 3G 6G13G16G19G21G23G25G31
  20525214.576 7 -23918931.335 7 -18627115.71949  20525208.37349        52.000
  20419718.242 7 -24214591.868 7 -18855687.07349  20419712.87349        51.000
  22502583.730 6  -5973214.753 6  -7525435.69447  22502577.05947        46.000
  20779536.671 7 -22306520.885 7 -17359415.99949  20779530.29549        51.000
  22986895.824 6 -10758580.893 6  -8366452.74447  22986887.74747        45.000
  23948062.361 6  -8202466.692 6  -6387093.04247  23948055.62547        43.000
  21461176.266 7 -12272977.187 7 -10230899.51448  21461168.19148        50.000
  23888802.665 2   -414048.515 2                                        34.000
  22410800.388 7 -14087781.823 7 -10965433.08548  22410794.15048        49.000
 08 11 15  0 16  0.0000000  0  9G 3G 6G13G16G19G21G23G25G31
  20513379.885 7 -23981122.296 7 -18675576.20049  20513373.67649        52.000
  20414261.941 7 -24243266.216 7 -18878030.72149  20414255.62149        51.000
  22493385.681 6  -6021549.356 6  -7563099.03447  22493379.19347        46.000
  20785190.282 7 -22276810.453 7 -17336265.01949  20785183.27849        50.000
  22967136.785 6 -10862410.174 6  -8447358.66347  22967129.87847        45.000
  23945137.426 5  -8217835.709 5  -6399068.91746  23945130.47646        42.000
  21461849.759 7 -12269438.151 7 -10228141.81948  21461841.53948        50.000
  23871547.076 2   -504722.316 2                                        35.000
  22424768.888 7 -14014378.203 7 -10908235.47948  22424762.36948        48.000
 08 11 15  0 16 30.0000000  0  9G 3G 6G13G16G19G21G23G25G31
  20501637.751 7 -24042826.471 7 -18723657.38149  20501631.88749        51.000
  20408901.300 7 -24271436.185 7 -18899981.34749  20408895.35049        52.000
  22484295.697 6  -6069319.699 6  -7600322.67747  22484288.85947        46.000
  20790882.898 7 -22246899.427 7 -17312957.74049  20790875.38849        51.000
  22947424.679 6 -10966001.326 6  -8528079.02747  22947416.96547        45.000
  23942297.447 6  -8232763.408 6  -6410700.85847  23942290.34847        44.000
  21462641.984 7 -12265274.505 7 -10224897.44348  21462633.76148        49.000
  23854304.722 2   -595331.435 2                                        34.000
  22438793.424 7 -13940677.150 7 -10850806.11948  22438787.61348        49.000
 08 11 15  0 17  0.0000000  0  9G 3G 6G13G16G19G21G23G25G31
  20489988.800 7 -24104043.495 7 -18771358.95249  20489983.01249        51.000
  20403636.693 8 -24299101.895 8 -18921539.04549  20403630.83949        53.000
  22475313.016 6  -6116524.779 6  -7637105.86847  22475305.59247        45.000
  20796612.474 7 -22216789.047 7 -17289495.11749  20796605.19849        50.000
  22927757.843 6 -11069352.447 6  -8608612.36348  22927750.50848        46.000
  23939540.992 6  -8247249.264 6  -6421988.54747  23939533.02847        43.000
  21463553.340 7 -12260487.231 7 -10221167.11648  21463544.94248        50.000
  23837072.491 3   -685874.423 3                                        36.000
  22452874.641 7 -13866679.700 7 -10793145.80248  22452869.28448        48.000
 08 11 15  0 17 30.0000000  0  9G 3G 6G13G16G19G21G23G25G31
  20478432.301 7 -24164771.952 7 -18818679.82649  20478426.77849        52.000
  20398467.776 8 -24326263.529 8 -18942703.95449  20398462.32949        53.000
  22466437.699 6  -6163162.631 6  -7673447.04747  22466431.78847        45.000
  20802379.902 7 -22186480.361 7 -17265877.97349  20802372.87349        50.000
  22908136.312 6 -11172461.914 6  -8688957.39647  22908128.50147        46.000
  23936867.998 6  -8261292.106 6  -6432931.00847  23936861.68447        43.000
  21464582.526 7 -12255076.910 7 -10216951.29548  21464574.10848        51.000
  23819858.135 3   -776349.658 3                                        37.000
  22467012.354 7 -13792386.819 7 -10735255.27448  22467005.74448        48.000
 08 11 15  0 18  0.0000000  0  9G 3G 6G13G16G19G21G23G25G31
  20466969.173 7 -24225010.328 7 -18865618.81649  20466962.88449        51.000
  20393395.608 8 -24352920.287 8 -18963475.45649  20393388.99349        53.000
  22457671.018 6  -6209231.497 6  -7709344.86147  22457665.31847        46.000
  20808185.238 7 -22155973.705 7 -17242106.56349  20808177.91349        50.000
  22888562.185 6 -11275326.796 6  -8769111.84748  22888553.92948        46.000
  23934280.887 5  -8274890.086 5  -6443526.82746  23934273.92046        42.000
  21465730.432 7 -12249043.265 7 -10212249.76048  21465722.49648        50.000
  23802654.757 2   -866754.893 2                                        35.000
  22481206.391 7 -13717798.313 7 -10677134.38148  22481200.49748        49.000
 08 11 15  0 18 30.0000000  0  9G 3G 6G13G16G19G21G23G25G31
  20455600.063 7 -24284756.618 7 -18912174.36049  20455593.71649        52.000
  20388419.161 8 -24379071.483 8 -18983853.01049  20388413.25949        54.000
  22449013.319 6  -6254729.719 6  -7744798.02547  22449006.68347        47.000
  20814028.035 7 -22125268.945 7 -17218180.78249  20814021.06649        50.000
  22869034.804 6 -11377944.207 6  -8849073.44247  22869026.90747        46.000
  23931777.934 6  -8288041.618 6  -6453774.73847  23931771.18347        43.000
  21466997.632 7 -12242386.135 7 -10207062.40548  21466989.33948        51.000
  23785462.941 1   -957087.918 1                                        33.000
  22495456.101 7 -13642914.602 7 -10618783.47548  22495450.00948        49.000
 08 11 15  0 19  0.0000000  0  9G 3G 6G13G16G19G21G23G25G31
  20444324.635 8 -24344010.409 8 -18958346.13949  20444318.71249        53.000
  20383538.649 8 -24404717.532 8 -19003836.94649  20383533.14549        54.000
  22440463.983 6  -6299655.174 6  -7779804.87647  22440457.82847        46.000
  20819908.290 7 -22094367.545 7 -17194101.77749  20819901.26149        51.000
  22849554.874 6 -11480312.480 6  -8928840.93547  22849546.83747        45.000
  23929360.677 6  -8300746.209 6  -6463674.41746  23929353.03846        43.000
  21468382.799 7 -12235106.959 7 -10201390.33548  21468374.65248        50.000
  23768289.213 2  -1047347.427 2  -1584692.50155  23768280.59245        34.000
  22509761.773 7 -13567737.181 7 -10560203.69448  22509755.73748        49.000
 08 11 15  0 19 30.0000000  0  9G 3G 6G13G16G19G21G23G25G31
  20433142.975 7 -24402770.935 7 -19004133.55549  20433136.91049        51.000
  20378754.410 8 -24429859.441 8 -19023428.04649  20378748.53949        54.000
  22432023.905 6  -6344007.149 6  -7814364.86347  22432017.72147        46.000
  20825826.004 7 -22063270.880 7 -17169870.61349  20825818.88149        51.000
  22830122.266 6 -11582430.305 6  -9008413.26747  22830113.54947        46.000
  23927028.370 6  -8313003.419 6  -6473225.47846  23927020.78446        43.000
  21469886.290 7 -12227206.995 7 -10195234.52948  21469877.89948        50.000
  23751126.956 3  -1137532.382 3  -1654966.48145  23751118.85445        36.000
  22524123.065 7 -13492267.306 7 -10501396.03548  22524116.94948        48.000
 08 11 15  0 20  0.0000000  0  9G 3G 6G13G16G19G21G23G25G31
  20422055.151 7 -24461036.769 7 -19049535.49949  20422048.92449        51.000
  20374066.235 8 -24454496.157 8 -19042625.48549  20374059.85249        53.000
  22423694.248 6  -6387784.030 6  -7848476.71447  22423687.43947        46.000
  20831780.729 7 -22031979.365 7 -17145487.62449  20831773.76049        50.000
  22810737.936 6 -11684294.450 6  -9087787.91448  22810729.90648        46.000
  23924780.766 6  -8324811.740 6  -6482426.74547  23924773.44547        43.000
  21471507.374 7 -12218686.208 7 -10188594.98348  21471499.43248        50.000
  23733981.075 4  -1227640.309 4  -1725180.43346  23733971.92546        38.000
  22538540.467 7 -13416505.032 7 -10442360.50448  22538534.26248        48.000
 08 11 15  0 20 30.0000000  0  9G 3G 6G13G16G19G21G23G25G31
  20411061.690 7 -24518807.358 7 -19094551.53049  20411055.56049        52.000
  20369474.074 8 -24478628.218 8 -19061429.68549  20369467.94549        53.000
  22415472.261 6  -6430984.438 6  -7882139.36547  22415466.48147        45.000
  20837772.045 7 -22000493.898 7 -17120953.50149  20837764.93849        50.000
  22791402.727 6 -11785903.754 6  -9166963.98448  22791394.72748        46.000
  23922619.622 6  -8336170.085 6  -6491277.42747  23922612.68047        44.000
  21473247.003 7 -12209545.635 7 -10181472.47148  21473238.48148        51.000
  23716848.110 4  -1317669.909 4  -1795333.37846  23716841.05146        39.000
  22553013.170 7 -13340451.645 7 -10383098.16448  22553007.00648        48.000
 08 11 15  0 21  0.0000000  0  9G 3G 6G13G16G19G21G23G25G31
  20400162.690 7 -24576080.854 7 -19139180.22349  20400157.07749        51.000
  20364977.928 7 -24502255.188 7 -19079840.31749  20364972.22549        52.000
  22407361.687 6  -6473606.430 6  -7915351.31147  22407355.46747        44.000
  20843800.543 7 -21968814.463 7 -17096268.23549  20843793.61749        50.000
  22772115.874 6 -11887255.302 6  -9245939.20548  22772107.61748        46.000
  23920544.314 6  -8347077.184 6  -6499776.41647  23920537.20847        44.000
  21475104.375 7 -12199785.460 7 -10173867.15748  21475095.76548        50.000
  23699731.305 5  -1407618.827 5  -1865423.41446  23699725.13146        40.000
  22567541.061 7 -13264107.487 7 -10323609.23148  22567534.40348        48.000
 08 11 15  0 21 30.0000000  0  9G 3G 6G13G16G19G21G23G25G31
  20389358.989 7 -24632856.474 7 -19183420.95849  20389352.99849        52.000
  20360577.929 7 -24525377.060 7 -19097857.35649  20360572.06149        52.000
  22399362.275 6  -6515648.885 6  -7948111.66547  22399355.50747        45.000
  20849865.653 7 -21936942.228 7 -17071432.73049  20849858.05849        51.000
  22752878.810 6 -11988346.921 6  -9324711.89348  22752870.77948        47.000
  23918554.837 6  -8357531.978 6  -6507922.99747  23918547.86447        44.000
  21477079.656 7 -12189406.464 7 -10165779.64948  21477071.69448        51.000
  23682631.768 5  -1497485.459 5  -1935449.35046  23682623.95746        40.000
  22582123.622 7 -13187473.262 7 -10263894.28048  22582118.19448        48.000
 08 11 15  0 22  0.0000000  0  9G 3G 6G13G16G19G21G23G25G31
  20378649.799 7 -24689133.029 7 -19227272.81249  20378643.84949        52.000
  20356274.051 8 -24547993.941 8 -19115480.89749  20356268.59249        53.000
  22391471.950 6  -6557110.290 6  -7980419.25747  22391465.41647        45.000
  20855967.148 7 -21904877.969 7 -17046447.58949  20855960.36049        51.000
  22733691.584 6 -12089176.720 6  -9403280.54348  22733683.10248        45.000
  23916650.266 5  -8367533.686 5  -6515716.54446  23916643.82346        42.000
  21479172.500 7 -12178409.416 7 -10157210.53048  21479163.95848        51.000
  23665546.126 5  -1587267.947 5  -2005409.72546  23665539.21646        41.000
  22596761.724 7 -13110550.145 7 -10203954.22548  22596755.74648        48.000
 08 11 15  0 22 30.0000000  0  9G 3G 6G13G16G19G21G23G25G31
  20368035.650 7 -24744909.220 7 -19270734.76949  20368030.05949        51.000
  20352066.414 8 -24570105.510 8 -19132710.68449  20352060.78949        55.000
  22383692.981 6  -6597988.636 6  -8012272.51047  22383686.56747        47.000
  20862105.528 7 -21872621.466 7 -17021312.65849  20862098.62849        51.000
  22714554.139 6 -12189742.126 6  -9481643.16148  22714546.70148        46.000
  23914834.506 6  -8377080.826 6  -6523155.86146  23914827.54346        44.000
  21481382.165 7 -12166794.667 7 -10148160.09148  21481373.94948        52.000
  23648477.049 5  -1676964.111 5  -2075302.83146  23648471.26546        41.000
  22611454.976 7 -13033338.494 7 -10143789.33148  22611448.71648        49.000
 08 11 15  0 23  0.0000000  0  9G 3G 6G13G16G19G21G23G25G31
  20357517.263 7 -24800184.120 7 -19313806.11449  20357511.48049        52.000
  20347955.036 8 -24591711.965 8 -19149546.88449  20347949.36049        53.000
  22376025.390 6  -6638282.879 6  -8043670.62747  22376019.03247        47.000
  20868279.833 7 -21840174.010 7 -16996028.92849  20868272.72349        52.000
  22695468.147 6 -12290041.083 6  -9559798.16348  22695460.71548        46.000
  23913104.107 6  -8386172.683 6  -6530240.41147  23913098.02647        44.000
  21483710.152 7 -12154563.108 7 -10138629.01548  21483701.50648        50.000
  23631426.042 5  -1766572.301 5  -2145127.38347  23631419.20747        42.000
  22626202.481 7 -12955838.826 7 -10083400.01548  22626195.99248        49.000
 08 11 15  0 23 30.0000000  0  9G 3G 6G13G16G19G21G23G25G31
  20347094.669 8 -24854957.150 8 -19356486.39749  20347088.46149        54.000
  20343939.045 8 -24612813.784 8 -19165989.85349  20343933.44849        53.000
  22368469.242 6  -6677991.356 6  -8074612.29047  22368462.68647        47.000
  20874490.633 8 -21807536.584 8 -16970597.17249  20874483.77249        53.000
  22676433.214 6 -12390071.715 6  -9637744.11348  22676425.43348        45.000
  23911461.045 6  -8394808.466 6  -6536969.58546  23911453.22746        43.000
  21486154.696 7 -12141716.138 7 -10128618.39648  21486145.53148        51.000
  23614390.720 6  -1856090.914 6  -2214882.13147  23614384.85247        43.000
  22641004.420 7 -12878052.650 7 -10022787.44248  22640998.78048        48.000
 08 11 15  0 24  0.0000000  0  9G 3G 6G13G16G19G21G23G25G31
  20336767.118 8 -24909226.841 8 -19398774.46749  20336761.44449        53.000
  20340019.730 8 -24633411.034 8 -19182039.66049  20340013.97749        53.000
  22361024.204 6  -6717113.458 6  -8105097.05547  22361017.90647        46.000
  20880737.215 7 -21774710.007 7 -16945018.02449  20880729.81449        52.000
  22657449.163 6 -12489832.048 6  -9715479.41748  22657441.71648        46.000
  23909904.878 6  -8402987.445 6  -6543342.81046  23909897.81846        43.000
  21488716.463 7 -12128254.088 7 -10118128.51448  21488708.35048        51.000
  23597372.956 6  -1945518.253 6  -2284565.74947  23597366.75947        44.000
  22655861.114 7 -12799980.743 7  -9961952.21348  22655854.76948        48.000
 08 11 15  0 24 30.0000000  0  9G 3G 6G13G16G19G21G23G25G31
  20326536.278 8 -24962992.140 8 -19440669.49549  20326530.15449        53.000
  20336196.230 8 -24653503.546 8 -19197696.15849  20336190.55349        53.000
  22353691.821 6  -6755647.356 6  -8135123.46647  22353685.21747        46.000
  20887019.924 7 -21741694.454 7 -16919291.62049  20887013.06549        52.000
  22638517.247 6 -12589319.449 6  -9793002.04048  22638509.48048        45.000
  23908434.821 6  -8410708.102 6  -6549358.89846  23908428.02846        43.000
  21491395.042 7 -12114177.923 7 -10107160.08648  21491386.95248        51.000
  23580373.533 6  -2034852.028 6  -2354176.47047  23580367.30747        45.000
  22670772.537 7 -12721623.614 7  -9900894.74848  22670765.95948        48.000
 08 11 15  0 25  0.0000000  0  9G 3G 6G13G16G19G21G23G25G31
  20316401.073 8 -25016252.478 8 -19482171.06249  20316395.00449        54.000
  20332468.881 8 -24673091.469 8 -19212959.47449  20332462.81449        54.000
  22346471.006 6  -6793591.836 6  -8164690.59047  22346464.73547        46.000
  20893338.306 7 -21708490.845 7 -16893418.68649  20893331.35849        52.000
  22619637.652 6 -12688531.949 6  -9870310.45548  22619630.06848        46.000
  23907053.440 6  -8417969.942 6  -6555017.48847  23907046.67647        44.000
  21494190.256 7 -12099488.574 7 -10095713.86548  21494182.00348        50.000
  23563391.768 6  -2124090.565 6  -2423712.97747  23563385.87047        45.000
  22685737.232 7 -12642982.210 7  -9839615.74348  22685730.98448        48.000
 08 11 15  0 25 30.0000000  0  9G 3G 6G13G16G19G21G23G25G31
  20306362.146 8 -25069006.321 8 -19523277.95249  20306356.01149        54.000
  20328837.274 8 -24692174.904 8 -19227829.67849  20328831.34049        53.000
  22339363.298 6  -6830945.252 6  -8193797.14947  22339356.71447        46.000
  20899692.669 7 -21675099.450 7 -16867399.41049  20899685.19949        52.000
  22600810.870 6 -12787467.318 6  -9947402.92848  22600803.05848        46.000
  23905759.005 6  -8424771.817 6  -6560317.65446  23905751.37546        44.000
  21497102.198 7 -12084187.053 7 -10083790.59948  21497093.76548        51.000
  23546428.292 6  -2213231.654 6  -2493173.55247  23546422.50147        44.000
  22700756.360 7 -12564057.091 7  -9778115.68648  22700750.37848        49.000
 08 11 15  0 26  0.0000000  0  9G 3G 6G13G16G19G21G23G25G31
  20296419.981 8 -25121253.138 8 -19563989.75649  20296413.89949        53.000
  20325301.894 8 -24710754.018 8 -19242306.91049  20325295.92649        53.000
  22332367.380 6  -6867707.327 6  -8222442.92247  22332360.87147        47.000
  20906082.173 7 -21641521.027 7 -16841234.41749  20906074.84149        52.000
  22582037.570 6 -12886123.456 6 -10024277.82048  22582030.08548        46.000
  23904550.813 6  -8431112.604 6  -6565258.52346  23904543.88546        44.000
  21500130.705 7 -12068273.499 7 -10071390.44848  21500122.63148        51.000
  23529484.358 6  -2302273.541 6  -2562556.82347  23529478.15947        44.000
  22715829.189 7 -12484849.336 7  -9716395.39948  22715822.78648        48.000
 08 11 15  0 26 30.0000000  0  9G 3G 6G13G16G19G21G23G25G31
  20286574.285 8 -25172992.525 8 -19604306.15049  20286568.21049        54.000
  20321862.061 8 -24728829.599 8 -19256391.77149  20321856.18249        53.000
  22325484.929 6  -6903875.989 6  -8250626.28647  22325478.56347        47.000
  20912507.524 7 -21607756.911 7 -16814924.71549  20912500.24349        52.000
  22563317.681 7 -12984498.909 7 -10100933.99148  22563309.42148        48.000
  23903433.274 6  -8436992.569 6  -6569840.30346  23903426.62746        44.000
  21503274.606 7 -12051749.791 7 -10058514.83348  21503266.22748        50.000
  23512559.383 6  -2391215.024 6  -2631861.85147  23512552.67147        45.000
  22730954.985 6 -12405360.521 6  -9654456.07448  22730948.82548        47.000
 08 11 15  0 27  0.0000000  0  9G 3G 6G13G16G19G21G23G25G31
  20276825.384 8 -25224223.050 8 -19644226.04149  20276819.86349        53.000
  20318518.645 8 -24746401.297 8 -19270084.00649  20318512.44349        54.000
  22318715.696 6  -6939449.811 6  -8278346.15447  22318708.61647        47.000
  20918968.111 7 -21573806.986 7 -16788470.23649  20918961.02149        52.000
  22544650.910 6 -13082590.943 6 -10177369.34748  22544642.81248        47.000
  23902403.851 6  -8442409.852 6  -6574061.61246  23902395.05846        44.000
  21506534.960 7 -12034617.035 7 -10045164.64948  21506526.88748        50.000
  23495653.634 6  -2480053.503 6  -2701086.63147  23495647.55747        45.000
  22746135.083 7 -12325590.721 7  -9592297.82748  22746128.52048        48.000
 08 11 15  0 27 30.0000000  0  9G 3G 6G13G16G19G21G23G25G31
  20267173.829 8 -25274943.792 8 -19683748.68349  20267167.83149        53.000
  20315270.183 7 -24763469.380 7 -19283383.80049  20315264.29149        52.000
  22312059.285 7  -6974428.053 7  -8305601.94047  22312052.84947        48.000
  20925463.818 7 -21539672.137 7 -16761871.64549  20925456.47549        52.000
  22526038.494 6 -13180397.749 6 -10253582.40848  22526031.31048        47.000
  23901459.489 6  -8447364.208 6  -6577922.13646  23901453.34546        43.000
  21509910.769 7 -12016875.842 7 -10031340.35248  21509902.85948        50.000
  23478768.506 6  -2568787.191 6  -2770229.75747  23478762.09547        45.000
  22761367.912 6 -12245541.131 6  -9529921.54848  22761361.49448        46.000
 08 11 15  0 28  0.0000000  0  9G 3G 6G13G16G19G21G23G25G31
  20257618.955 8 -25325154.368 8 -19722873.81049  20257612.97749        54.000
  20312118.403 8 -24780034.364 8 -19296291.58449  20312112.60549        54.000
  22305516.134 6  -7008809.898 6  -8332392.97947  22305509.76147        47.000
  20931994.158 7 -21505353.361 7 -16735129.75449  20931986.89749        52.000
  22507481.731 7 -13277917.323 7 -10329571.68548  22507473.82948        48.000
  23900604.966 6  -8451854.410 6  -6581421.01547  23900598.40047        44.000
  21513402.881 7 -11998527.264 7 -10017042.77348  21513393.80548        51.000
  23461903.596 6  -2657414.439 6  -2839289.94547  23461897.12947        46.000
  22776653.984 6 -12165212.792 6  -9467328.06948  22776647.18548        47.000
 08 11 15  0 28 30.0000000  0  9G 3G 6G13G16G19G21G23G25G31
  20248161.387 7 -25374853.359 7 -19761600.28749  20248155.52049        52.000
  20309061.691 7 -24796096.222 7 -19308807.31049  20309055.62849        52.000
  22299088.156 6  -7042593.790 6  -8358718.10848  22299081.30348        47.000
  20938559.721 7 -21470850.865 7 -16708244.69449  20938552.72749        51.000
  22488979.244 6 -13375147.175 6 -10405335.17148  22488971.40648        47.000
  23899839.318 5  -8455879.682 5  -6584557.60547  23899831.69947        42.000
  21517009.639 7 -11979572.492 7 -10002272.82448  21517001.46148        49.000
  23445058.941 6  -2745932.977 6  -2908265.41947  23445052.97047        46.000
  22791992.708 6 -12084606.266 6  -9404517.82348  22791986.70448        46.000
 08 11 15  0 29  0.0000000  0  9G 3G 6G13G16G19G21G23G25G31
  20238801.640 8 -25424040.377 8 -19799927.82649  20238795.44049        54.000
  20306100.877 8 -24811655.250 8 -19320931.22649  20306094.96249        53.000
  22292772.738 7  -7075778.569 7  -8384576.39248  22292766.49248        48.000
  20945160.217 7 -21436165.323 7 -16681217.01249  20945153.01949        52.000
  22470532.440 7 -13472085.544 7 -10480871.55348  22470524.14748        48.000
  23899161.198 6  -8459439.827 6  -6587331.75447  23899155.05247        43.000
  21520731.704 7 -11960012.360 7  -9987031.18748  21520723.17448        50.000
  23428235.412 6  -2834340.977 6  -2977154.76247  23428229.15247        45.000
  22807384.304 6 -12003722.697 6  -9341491.70448  22807378.24148        45.000
 08 11 15  0 29 30.0000000  0  9G 3G 6G13G16G19G21G23G25G31
  20229538.880 7 -25472714.714 7 -19837855.86549  20229532.69949        52.000
  20303235.930 7 -24826712.151 7 -19332663.86949  20303229.98849        52.000
  22286572.134 6  -7108363.342 6  -8409967.12147  22286565.44247        46.000
  20951795.402 7 -21401297.923 7 -16654047.62349  20951788.27849        51.000
  22452141.071 6 -13568730.575 6 -10556179.35148  22452133.03148        46.000
  23898573.404 6  -8462533.770 6  -6589742.62446  23898565.69046        44.000
  21524569.016 7 -11939848.712 7  -9971319.24648  21524560.56548        49.000
  23411433.256 6  -2922636.886 6  -3045956.76347  23411426.54247        44.000
  22822828.759 6 -11922562.964 6  -9278250.38148  22822822.32448        46.000
 08 11 15  0 30  0.0000000  0  9G 3G 6G13G16G19G21G23G25G31
  20220374.422 8 -25520875.316 8 -19875383.60549  20220368.71449        55.000
  20300466.325 8 -24841266.664 8 -19344005.04249  20300459.83949        54.000
  22280485.709 6  -7140347.064 6  -8434889.49547  22280478.92347        46.000
  20958464.724 7 -21366248.418 7 -16626736.34049  20958457.86549        52.000
  22433806.608 6 -13665079.622 6 -10631256.50448  22433798.71148        47.000
  23898073.026 6  -8465160.606 6  -6591789.53046  23898065.83346        43.000
  21528520.628 7 -11919082.021 7  -9955137.42648  21528512.20548        51.000
  23394653.453 6  -3010818.213 6  -3114669.49847  23394646.59747        44.000
  22838325.371 6 -11841128.005 6  -9214794.60448  22838319.24848        47.000
 08 11 15  0 30 30.0000000  0  9G 3G 6G13G16G19G21G23G25G31
  20211307.543 8 -25568521.267 8 -19912510.30849  20211301.66049        54.000
  20297792.065 8 -24855319.245 8 -19354955.10349  20297785.74549        53.000
  22274514.197 6  -7171728.102 6  -8459342.24048  22274507.13948        45.000
  20965169.335 8 -21331017.600 8 -16599283.76849  20965162.30849        53.000
  22415528.861 6 -13761131.050 6 -10706101.74948  22415520.78448        47.000
  23897662.422 6  -8467319.776 6  -6593472.00146  23897655.11646        44.000
  21532587.047 7 -11897713.773 7  -9938486.84448  21532578.93448        51.000
  23377894.071 6  -3098883.159 6  -3183291.50447  23377888.46747        44.000
  22853874.669 7 -11759418.753 7  -9151125.07248  22853867.87448        48.000
 08 11 15  0 31  0.0000000  0  9G 3G 6G13G16G19G21G23G25G31
  20202338.991 8 -25615651.619 8 -19949235.24249  20202333.23449        54.000
  20295213.429 8 -24868870.087 8 -19365514.19049  20295207.31549        54.000
  22268657.592 6  -7202505.897 6  -8483324.93348  22268650.69148        47.000
  20971907.873 8 -21295605.884 8 -16571690.23349  20971900.71149        53.000
  22397307.666 6 -13856882.444 6 -10780713.21548  22397300.49748        47.000
  23897340.390 5  -8469010.423 5  -6594789.40847  23897333.62747        42.000
  21536767.664 7 -11875744.363 7  -9921367.83748  21536759.28948        50.000
  23361158.649 6  -3186829.420 6  -3251821.01547  23361153.12747        44.000
  22869474.719 6 -11677435.802 6  -9087242.27748  22869468.90048        46.000
 08 11 15  0 31 30.0000000  0  9G 3G 6G13G16G19G21G23G25G31
  20193468.554 7 -25662266.379 7 -19985558.42549  20193462.66849        52.000
  20292729.886 7 -24881920.156 7 -19375683.07349  20292724.19049        52.000
  22262915.604 6  -7232679.473 6  -8506836.82347  22262909.39447        46.000
  20978680.670 7 -21260014.287 7 -16543956.53149  20978673.81749        51.000
  22379143.896 6 -13952332.355 6 -10855089.73648  22379136.51148        45.000
  23897108.772 6  -8470232.251 6  -6595741.50347  23897101.70147        43.000
  21541062.112 7 -11853176.138 7  -9903782.21648  21541054.19348        50.000
  23344446.508 6  -3274655.784 6  -3320257.09847  23344440.58947        44.000
  22885127.351 6 -11595180.696 6  -9023147.42348  22885121.91348        46.000
 08 11 15  0 32  0.0000000  0  9G 3G 6G13G16G19G21G23G25G31
  20184696.384 8 -25708364.803 8 -20021479.26649  20184690.84249        54.000
  20290341.939 8 -24894469.876 8 -19385462.07749  20290335.97449        53.000
  22257288.787 6  -7262248.388 6  -8529877.55048  22257280.96048        47.000
  20985487.656 8 -21224243.969 8 -16516083.57249  20985480.44249        53.000
  22361038.139 6 -14047478.651 6 -10929229.68148  22361030.93548        45.000
  23896965.020 6  -8470984.449 6  -6596327.63546  23896957.62646        44.000
  21545470.542 7 -11830010.131 7  -9885730.77648  21545462.60448        49.000
  23327756.957 6  -3362360.131 6  -3388598.12647  23327751.22747        43.000
  22900831.889 6 -11512654.415 6  -8958841.27348  22900825.94548        46.000
 08 11 15  0 32 30.0000000  0  9G 3G 6G13G16G19G21G23G25G31
  20176022.580 8 -25753945.966 8 -20056997.04749  20176016.70349        53.000
  20288049.194 8 -24906519.130 8 -19394851.10249  20288043.42849        53.000
  22251777.632 6  -7291210.748 6  -8552445.61448  22251771.03748        46.000
  20992328.480 8 -21188294.432 8 -16488070.95149  20992321.67949        53.000
  22342991.004 6 -14142319.048 6 -11003131.25748  22342983.09248        46.000
  23896910.576 5  -8471266.086 5  -6596547.07946  23896904.13246        42.000
  21549992.370 7 -11806247.084 7  -9867214.12348  21549984.07548        49.000
  23311090.231 6  -3449940.022 6  -3456842.18347  23311084.94547        43.000
  22916587.695 6 -11429857.865 6  -8894324.49448  22916581.29248        45.000
 08 11 15  0 33  0.0000000  0  9G 3G 6G13G16G19G21G23G25G31
  20167447.088 8 -25799009.230 8 -20092111.27249  20167441.17349        54.000
  20285851.176 8 -24918068.395 8 -19403850.52649  20285845.06549        53.000
  22246381.909 6  -7319566.214 6  -8574540.79248  22246375.07448        47.000
  20999203.451 7 -21152166.669 7 -16459919.46149  20999196.32749        52.000
  22325002.161 6 -14236851.643 6 -11076792.99348  22324993.68048        46.000
  23896948.021 6  -8471076.944 6  -6596399.72246  23896940.56146        44.000
  21554627.582 7 -11781888.984 7  -9848233.80148  21554619.40248        50.000
  23294448.953 6  -3537393.737 6  -3524987.91647  23294442.44647        44.000
  22932394.026 6 -11346791.533 6  -8829597.52348  22932388.08148        46.000
 08 11 15  0 33 30.0000000  0  9G 3G 6G13G16G19G21G23G25G31
  20158970.626 8 -25843554.151 8 -20126821.59249  20158964.98649        55.000
  20283748.369 8 -24929118.462 8 -19412460.96049  20283742.55449        53.000
  22241101.452 6  -7347313.819 6  -8596162.30747  22241095.20447        46.000
  21006112.448 8 -21115861.335 8 -16431629.59549  21006105.03649        53.000
  22307071.932 6 -14331074.592 6 -11150213.44148  22307064.50548        46.000
  23897073.341 5  -8470416.426 5  -6595885.03346  23897065.25846        42.000
  21559375.717 7 -11756936.809 7  -9828790.55948  21559367.38948        49.000
  23277831.281 6  -3624719.250 6  -3593033.76747  23277824.40547        45.000
  22948252.440 6 -11263457.014 6  -8764661.55148  22948246.26148        45.000
 08 11 15  0 34  0.0000000  0  9G 3G 6G13G16G19G21G23G25G31
  20150592.702 8 -25887579.323 8 -20161126.92349  20150586.80949        54.000
  20281740.446 8 -24939669.376 8 -19420682.45149  20281734.62249        53.000
  22235937.248 6  -7374452.249 6  -8617309.12948  22235930.83448        47.000
  21013054.561 7 -21079378.780 7 -16403201.63849  21013047.79049        52.000
  22289201.509 7 -14424985.645 7 -11223390.85648  22289193.20948        48.000
  23897288.300 5  -8469284.181 5  -6595002.78146  23897281.41346        42.000
  21564237.361 7 -11731391.888 7  -9808885.42748  21564228.72448        51.000
  23261238.447 6  -3711914.475 6  -3660978.11847  23261231.36347        45.000
  22964161.413 6 -11179855.038 6  -8699517.20148  22964155.42948        46.000
 08 11 15  0 34 30.0000000  0  9G 3G 6G13G16G19G21G23G25G31
  20142314.187 8 -25931083.951 8 -20195026.62049  20142308.17149        54.000
  20279827.943 8 -24949721.420 8 -19428515.21049  20279822.04149        53.000
  22230888.871 6  -7400980.561 6  -8637980.55747  22230882.06447        46.000
  21020030.653 7 -21042719.221 7 -16374635.75649  21020023.63749        52.000
  22271390.798 6 -14518582.481 6 -11296323.43848  22271382.35048        47.000
  23897594.893 6  -8467679.096 6  -6593752.09846  23897587.30946        43.000
  21569210.755 7 -11705255.113 7  -9788519.11848  21569202.51148        51.000
  23244670.683 6  -3798977.107 6  -3728819.13147  23244663.83247        45.000
  22980121.536 6 -11095986.312 6  -8634164.96648  22980114.90348        46.000
 08 11 15  0 35  0.0000000  0  9G 3G 6G13G16G19G21G23G25G31
  20134134.169 8 -25974069.236 8 -20228521.65249  20134128.58949        53.000
  20278009.690 8 -24959276.297 8 -19435960.56749  20278004.02249        55.000
  22225956.458 6  -7426899.383 6  -8658177.05948  22225949.86548        47.000
  21027040.242 7 -21005884.738 7 -16345933.56849  21027032.83749        52.000
  22253639.305 7 -14611864.550 7 -11369010.73048  22253630.85848        48.000
  23897989.704 5  -8465601.362 5  -6592133.08746  23897982.30946        42.000
  21574296.121 7 -11678529.332 7  -9767693.84848  21574288.15148        51.000
  23228129.018 6  -3885906.325 6  -3796556.18647  23228122.28547        43.000
  22996131.133 6 -11011853.150 6  -8568606.68148  22996125.31348        47.000
 08 11 15  0 35 30.0000000  0  9G 3G 6G13G16G19G21G23G25G31
  20126053.762 8 -26016533.622 8 -20261610.78049  20126047.65349        55.000
  20276286.090 8 -24968333.374 8 -19443018.02349  20276280.48149        53.000
  22221140.325 6  -7452206.728 6  -8677897.08347  22221133.97347        44.000
  21034082.935 7 -20968874.398 7 -16317094.34549  21034075.72949        51.000
  22235949.045 6 -14704828.743 6 -11441450.33148  22235940.07748        47.000
  23898475.467 6  -8463049.611 6  -6590144.69246  23898467.74546        43.000
  21579494.182 7 -11651214.843 7  -9746409.85448  21579484.98748        49.000
  23211612.566 6  -3972698.947 6  -3864186.77847  23211605.86247        44.000
  23012191.720 6 -10927455.240 6  -8502842.10548  23012185.33948        46.000
 08 11 15  0 36  0.0000000  0  9G 3G 6G13G16G19G21G23G25G31
  20118072.376 8 -26058476.210 8 -20294293.32749  20118066.28749        54.000
  20274657.158 8 -24976893.616 8 -19449688.33649  20274651.24849        53.000
  22216441.309 6  -7476902.177 6  -8697140.30048  22216435.26948        47.000
  21041158.979 7 -20931689.236 7 -16288118.89649  21041151.78649        52.000
  22218318.994 6 -14797473.440 6 -11513641.00148  22218311.16048        46.000
  23899050.971 6  -8460024.039 6  -6587787.10947  23899044.05747        44.000
  21584803.599 7 -11623313.283 7  -9724668.37948  21584795.50048        50.000
  23195123.312 6  -4059353.428 6  -3931709.75247  23195116.02547        45.000
  23028301.737 6 -10842794.175 6  -8436872.46048  23028295.69048        46.000
 08 11 15  0 36 30.0000000  0  9G 3G 6G13G16G19G21G23G25G31
  20110190.293 8 -26099896.093 8 -20326568.55849  20110184.31449        54.000
  20273122.525 8 -24984956.987 8 -19455971.47749  20273117.03049        53.000
  22211858.701 6  -7500984.460 6  -8715905.71448  22211851.84248        45.000
  21048268.319 7 -20894329.173 7 -16259007.15749  21048261.06349        52.000
  22200750.567 6 -14889796.142 6 -11585580.75448  22200742.84748        45.000
  23899717.605 6  -8456523.568 6  -6585059.48946  23899710.35446        43.000
  21590224.643 7 -11594826.267 7  -9702470.71148  21590216.05248        49.000
  23178659.773 6  -4145867.161 6  -3999123.04447  23178653.74947        45.000
  23044462.385 6 -10757870.636 6  -8370698.31548  23044456.73748        46.000
 08 11 15  0 37  0.0000000  0  9G 3G 6G13G16G19G21G23G25G31
  20102407.584 8 -26140794.643 8 -20358437.56649  20102401.87749        55.000
  20271682.414 8 -24992525.363 8 -19461868.91049  20271676.43149        54.000
  22207392.583 6  -7524454.028 6  -8734193.70948  22207386.29648        47.000
  21055410.701 7 -20856796.042 7 -16229760.58049  21055403.28649        52.000
  22183243.607 6 -14981796.187 6 -11657269.08548  22183235.95348        46.000
  23900473.168 6  -8452548.811 6  -6581962.25246  23900466.09146        43.000
  21595756.681 7 -11565756.163 7  -9679818.69348  21595748.15648        49.000
  23162223.700 6  -4232239.427 6  -4066426.09247  23162217.51047        45.000
  23060671.944 6 -10672686.928 6  -8304321.42948  23060666.07248        46.000
 08 11 15  0 37 30.0000000  0  9G 3G 6G13G16G19G21G23G25G31
  20094724.340 8 -26181170.103 8 -20389898.96649  20094718.71449        53.000
  20270336.637 7 -24999598.366 7 -19467380.33649  20270330.52249        52.000
  22203042.918 6  -7547309.371 6  -8752003.06447  22203036.86547        46.000
  21062585.967 7 -20819089.394 7 -16200378.77549  21062578.22049        51.000
  22165798.793 6 -15073470.596 6 -11728703.68348  22165790.69848        47.000
  23901320.147 6  -8448098.511 6  -6578494.51746  23901313.74946        43.000
  21601399.797 7 -11536103.429 7  -9656712.68448  21601391.01748        49.000
  23145814.957 6  -4318467.050 6  -4133616.44247  23145808.89147        44.000
  23076932.160 6 -10587242.982 6  -8237741.77247  23076926.08447        46.000
 08 11 15  0 38  0.0000000  0  9G 3G 6G13G16G19G21G23G25G31
  20087140.688 8 -26221022.080 8 -20420952.45549  20087134.96349        54.000
  20269084.721 8 -25006176.779 8 -19472506.37949  20269078.49449        54.000
  22198811.093 6  -7569550.080 6  -8769333.48947  22198804.61547        47.000
  21069793.992 7 -20781210.115 7 -16170862.46649  21069787.19649        52.000
  22148416.210 6 -15164817.733 6 -11799883.25448  22148407.91248        47.000
  23902256.867 6  -8443172.453 6  -6574656.01246  23902249.07646        44.000
  21607152.401 7 -11505869.883 7  -9633154.09248  21607144.35448        48.000
  23129434.183 6  -4404548.322 6  -4200692.72847  23129428.66747        45.000
  23093240.722 6 -10501540.084 6  -8170960.30748  23093234.39948        46.000
 08 11 15  0 38 30.0000000  0  9G 3G 6G13G16G19G21G23G25G31
  20079656.846 8 -26260350.672 8 -20451598.10949  20079650.89349        54.000
  20267926.706 7 -25012261.808 7 -19477247.95449  20267920.69749        52.000
  22194696.509 6  -7591176.153 6  -8786184.95548  22194689.79948        47.000
  21077035.064 7 -20743159.203 7 -16141212.42549  21077027.79449        51.000
  22131095.265 6 -15255836.322 6 -11870806.82648  22131087.41548        46.000
  23903286.122 6  -8437770.623 6  -6570446.76746  23903278.44846        44.000
  21613016.010 7 -11475057.611 7  -9609144.53748  21613007.64148        49.000
  23113082.510 6  -4490481.733 6  -4267653.79847  23113076.29547        44.000
  23109598.825 6 -10415580.012 6  -8103978.46448  23109592.25148        45.000
 08 11 15  0 39  0.0000000  0  9G 3G 6G13G16G19G21G23G25G31
  20072272.727 8 -26299154.359 8 -20481834.75349  20072266.59049        54.000
