     2              OBSERVATION DATA                        RINEX VERSION / TYPE
DAT2RINW 3.10 001   .                   04NOV08 23:02:25    PGM / RUN BY / DATE 
.                   .                                       OBSERVER / AGENCY   
0220412236          TRIMBLE 5700        Nav 2.32 Sig 2.32   REC # / TYPE / VERS 
0                   TRM39105.00                             ANT # / TYPE        
----------------------------------------------------------- COMMENT             
Offset from BOTTOM OF ANTENNA to PHASE CENTER is  46.0 mm   COMMENT             
----------------------------------------------------------- COMMENT             
0170                                                        MARKER NAME         
0170                                                        MARKER NUMBER       
 -3100621.3185  3989491.1694  3879598.5143                  APPROX POSITION XYZ 
        1.2178        0.0000        0.0000                  ANTENNA: DELTA H/E/N
*** Above antenna height is from mark to BOTTOM OF ANTENNA. COMMENT             
----------------------------------------------------------- COMMENT             
Note: The above offsets are CORRECTED.                      COMMENT             
Raw Offsets: H=      1.2600 E=      0.0000 N=      0.0000   COMMENT             
----------------------------------------------------------- COMMENT             
     1     1     0                                          WAVELENGTH FACT L1/2
     5    L1    C1    L2    P2    D1                        # / TYPES OF OBSERV 
    30                                                      INTERVAL            
  2008    11     3     0    30    0.000000                  TIME OF FIRST OBS   
  2008    11     4     8    40    0.000000                  TIME OF LAST OBS    
    20                                                      # OF SATELLITES     
     3   690   690   690   690   690                        PRN / # OF OBS      
     4   187   187   175   175   187                        PRN / # OF OBS      
     6   617   617   617   617   617                        PRN / # OF OBS      
     7   535   535   535   535   535                        PRN / # OF OBS      
     8   424   426   399   399   424                        PRN / # OF OBS      
    11   695   695   695   695   695                        PRN / # OF OBS      
    13   351   351   342   342   351                        PRN / # OF OBS      
    14    28    28    28    28    28                        PRN / # OF OBS      
    16   512   512   512   512   512                        PRN / # OF OBS      
    17   376   376   376   376   376                        PRN / # OF OBS      
    19   733   733   733   733   733                        PRN / # OF OBS      
    20   411   411   411   411   411                        PRN / # OF OBS      
    21   252   252   252   252   252                        PRN / # OF OBS      
    23   423   425   407   407   423                        PRN / # OF OBS      
    25   569   569   569   569   569                        PRN / # OF OBS      
    27   509   509   509   509   509                        PRN / # OF OBS      
    28   508   508   508   508   508                        PRN / # OF OBS      
    29    70    70    70    70    70                        PRN / # OF OBS      
    31   291   291   291   291   291                        PRN / # OF OBS      
    32   448   448   448   448   448                        PRN / # OF OBS      
                                                            END OF HEADER       
 08 11  4  0 30  0.0000000  0  7  3  6 13 16 21 23 31
 -13402786.21907  21336790.71907 -10410605.99248  21336788.53948      3131.05800
 -10509560.02307  20836319.76607  -8164052.84448  20836317.82448      2123.40200
  -3835067.85206  23189302.14806  -2978641.07847  23189298.64847      2769.51200
   -979776.27307  20380483.49207   -756639.26249  20380480.46549      -335.26400
  -1968112.02306  24086844.78906  -1528070.87146  24086843.18046      1480.14900
  -8378751.59006  21556810.75006  -6507949.62148  21556806.47748      1251.45300
   3662428.34807  21485510.41407   2851111.50448  21485508.23448     -1663.60800
 08 11  4  0 30 30.0000000  0  7  3  6 13 16 21 23 31
 -13496341.39807  21318987.41407 -10483506.11348  21318985.54748      3118.50600
 -10572806.94107  20824284.30507  -8213336.16848  20824281.57848      2108.23100
  -3917722.99206  23173573.75806  -3043047.66447  23173571.32447      2755.17100
   -969457.87507  20382446.78107   -748598.96149  20382443.57849      -343.94700
  -2012175.10906  24078459.78906  -1562405.71146  24078457.62546      1468.77000
  -8415693.41407  21549781.38307  -6536735.43848  21549776.65248      1231.39400
   3712665.99607  21495070.85907   2890257.71949  21495067.55549     -1674.58800
 08 11  4  0 31  0.0000000  0  7  3  6 13 16 21 23 31
 -13589516.70707  21301256.89807 -10556110.24648  21301255.02748      3105.84400
 -10635596.60207  20812335.85207  -8262263.16048  20812333.89148      2092.98900
  -3999944.21506  23157926.50806  -3107116.14147  23157925.71547      2740.70700
   -958879.10907  20384460.49207   -740355.78149  20384456.84849      -352.62600
  -2055893.85906  24070140.53106  -1596472.27747  24070138.76647      1457.29200
  -8452031.25407  21542866.83607  -6565050.65648  21542862.91048      1211.26100
   3763233.95707  21504693.18807   2929661.31348  21504690.74248     -1685.59900
 08 11  4  0 31 30.0000000  0  7  3  6 13 16 21 23 31
 -13682309.69107  21283598.69507 -10628416.47748  21283596.87948      3093.09900
 -10697927.14507  20800474.41407  -8310832.41448  20800473.49248      2077.68500
  -4081728.91806  23142363.38306  -3170844.48047  23142361.79347      2726.15700
   -948040.54307  20386523.04707   -731910.13749  20386519.25049      -361.28600
  -2099265.24606  24061887.32806  -1630268.17246  24061884.71146      1445.71300
  -8487763.68807  21536066.98407  -6592894.13348  21536062.70748      1191.08100
   3814132.46907  21514379.07007   2969322.48048  21514376.26648     -1696.61700
 08 11  4  0 32  0.0000000  0  7  3  6 13 16 21 23 31
 -13774717.80107  21266014.05507 -10700422.78948  21266011.95348      3080.27000
 -10759796.72707  20788701.18807  -8359042.46548  20788700.02748      2062.31900
  -4163073.55906  23126884.94506  -3234229.91047  23126882.56647      2711.48800
   -936942.35907  20388634.61707   -723262.19949  20388631.61749      -369.93900
  -2142286.77706  24053700.52306  -1663791.41046  24053697.71146      1434.05100
  -8522888.85907  21529382.69507  -6620264.38348  21529378.68448      1170.83900
   3865362.37507  21524127.50007   3009241.86348  21524125.10948     -1707.66400
 08 11  4  0 32 30.0000000  0  7  3  6 13 16 21 23 31
 -13866738.12107  21248503.26607 -10772126.92648  21248501.80948      3067.34400
 -10821203.51207  20777015.50807  -8406891.90648  20777014.10548      2046.89300
  -4243975.01606  23111488.92206  -3297269.98047  23111488.31647      2696.71500
   -925585.03107  20390795.86707   -714412.33249  20390792.60949      -378.57800
  -2184955.98406  24045580.44506  -1697040.14546  24045577.12546      1422.30700
  -8557404.70707  21522814.80507  -6647159.85548  21522810.53948      1150.52800
   3916923.60907  21533939.18007   3049419.43848  21533936.98848     -1718.70800
 08 11  4  0 33  0.0000000  0  7  3  6 13 16 21 23 31
 -13958368.67207  21231066.35907 -10843527.35548  21231064.98848      3054.35200
 -10882146.29307  20765418.77307  -8454379.77348  20765417.39848      2031.42600
  -4324431.62106  23096178.76606  -3359963.47747  23096177.18447      2681.88700
   -913969.39107  20393006.24207   -705361.21149  20393003.16449      -387.18800
  -2227270.61706  24037528.46106  -1730012.59846  24037525.27046      1410.48800
  -8591310.92607  21516362.95307  -6673580.29748  21516358.49648      1130.20700
   3968816.14107  21543814.27307   3089855.13748  21543812.10948     -1729.75100
 08 11  4  0 33 30.0000000  0  7  3  6 13 16 21 23 31
 -14049610.37107  21213703.69507 -10914624.78148  21213702.55548      3041.39000
 -10942626.79707  20753909.84407  -8501507.44948  20753908.46148      2016.01700
  -4404443.15206  23080953.29706  -3422310.11346  23080950.73846      2667.05100
   -902099.55107  20395265.04707   -696111.98849  20395261.85249      -395.66100
  -2269231.40606  24029543.68006  -1762709.31646  24029540.31646      1398.69300
  -8624609.00407  21510026.07807  -6699526.86348  21510021.06348      1109.93600
   4021037.29307  21553751.96107   3130546.92649  21553749.51249     -1740.70500
 08 11  4  0 34  0.0000000  0  7  3  6 13 16 21 23 31
 -14140458.87907  21196415.98407 -10985415.81648  21196413.86748      3028.28400
 -11002640.84807  20742489.50007  -8548271.65248  20742487.34448      2000.46800
  -4484003.85206  23065813.42206  -3484305.41447  23065811.78147      2652.02300
   -889973.35507  20397572.60207   -686663.02049  20397569.13349      -404.20700
  -2310833.08206  24021626.60206  -1795126.17646  24021622.70746      1386.72300
  -8657294.80906  21503806.31306  -6724996.32048  21503802.25848      1089.52700
   4073589.64807  21563752.08607   3171496.80148  21563749.78948     -1751.74500
 08 11  4  0 34 30.0000000  0  7  3  6 13 16 21 23 31
 -14230911.28907  21179203.52307 -11055898.20748  21179201.01648      3015.08000
 -11062187.11307  20731158.07807  -8594671.32848  20731156.50448      1984.87600
  -4563110.89106  23050759.38306  -3545947.24247  23050758.46147      2636.90100
   -877591.31307  20399928.70307   -677014.67649  20399925.54749      -412.73500
  -2352074.40606  24013779.50006  -1827262.22746  24013775.94146      1374.71100
  -8689367.15607  21497703.19507  -6749987.75848  21497699.02048      1069.07800
   4126473.28107  21573815.47707   3212704.79348  21573812.52348     -1762.78800
 08 11  4  0 35  0.0000000  0  7  3  6 13 16 21 23 31
 -14320962.80107  21162067.18007 -11126068.20348  21162065.26648      3001.71700
 -11121261.41407  20719916.51607  -8640703.24648  20719915.44548      1969.14300
  -4641758.97306  23035793.88306  -3607231.47747  23035791.73047      2621.60300
   -864951.77007  20402333.64807   -667165.69549  20402331.05949      -421.31800
  -2392949.82806  24006000.32806  -1859113.15646  24005999.68446      1362.51400
  -8720822.01607  21491717.20307  -6774498.03548  21491713.66048      1048.49500
   4179690.51607  21583942.80507   3254172.75448  21583939.51248     -1773.90800
 08 11  4  0 35 30.0000000  0  7  3  6 13 16 21 23 31
 -14410611.59007  21145007.32007 -11195924.38748  21145006.40248      2988.29300
 -11179863.24607  20708765.29707  -8686367.00048  20708763.07448      1953.39400
  -4719946.19506  23020914.95306  -3668156.54747  23020912.60247      2606.24100
   -852055.92608  20404788.07008   -657116.99249  20404785.47749      -429.86100
  -2433457.85506  23998292.01606  -1890677.86746  23998290.22346      1350.26800
  -8751659.24207  21485848.89107  -6798527.04348  21485844.97348      1027.90800
   4233241.12907  21594132.70307   3295900.49648  21594129.85548     -1785.02000
 08 11  4  0 36  0.0000000  0  7  3  6 13 16 21 23 31
 -14499856.34407  21128024.98407 -11265465.75848  21128023.10548      2974.82500
 -11237991.66407  20697703.77307  -8731661.86748  20697701.86348      1937.61400
  -4797670.10906  23006124.71106  -3728720.62146  23006122.85246      2590.79700
   -838905.13708  20407290.84408   -646869.63749  20407287.55949      -438.36000
  -2473596.91006  23990654.68006  -1921955.04346  23990651.18446      1337.96800
  -8781877.93007  21480098.74207  -6822074.07848  21480094.75048      1007.29000
   4287124.13307  21604385.82007   3337887.21148  21604383.62148     -1796.10000
 08 11  4  0 36 30.0000000  0  7  3  6 13 16 21 23 31
 -14588696.23807  21111119.10207 -11334691.65248  21111117.83248      2961.33000
 -11295646.65607  20686732.41407  -8776587.82448  20686730.59848      1921.83300
  -4874929.60506  22991422.82006  -3788922.82447  22991421.48847      2575.31700
   -825501.34407  20409841.02307   -636425.12549  20409837.97349      -446.79300
  -2513366.16405  23983085.30505  -1952944.07446  23983083.29746      1325.64200
  -8811478.32407  21474465.87507  -6845139.32848  21474461.15648       986.68000
   4341338.61707  21614703.26607   3380132.23848  21614700.70348     -1807.14900
 08 11  4  0 37  0.0000000  0  8  3  6 13 16 19 21 23 31
 -14677130.69507  21094290.21907 -11403601.60948  21094289.04348      2947.81500
 -11352828.61307  20675851.11707  -8821145.19548  20675848.78948      1906.06500
  -4951723.28506  22976809.73406  -3848762.09447  22976807.60947      2559.78900
   -811846.87908  20412439.60908   -625785.29349  20412436.07849      -455.14900
   -126334.80115  23865401.59405    -69589.47757  23865397.94947         0.00000
  -2552764.87906  23975589.36706  -1983644.41846  23975585.66046      1313.29000
  -8840461.07007  21468950.94507  -6867723.29748  21468946.04748       966.09200
   4395883.00007  21625082.40607   3422634.35248  21625079.99648     -1818.14600
 08 11  4  0 37 30.0000000  0  8  3  6 13 16 19 21 23 31
 -14765156.12507  21077539.93807 -11472192.85948  21077538.46948      2934.18100
 -11409534.97707  20665060.02307  -8865331.96548  20665058.21148      1890.21200
  -5028047.49606  22962285.18806  -3908235.48447  22962283.39847      2544.14000
   -797941.47707  20415085.45307   -614949.92649  20415082.89849      -463.51300
   -242712.15205  23843255.12505   -160273.07047  23843252.30947      3879.24500
  -2591789.87906  23968162.85206  -2014053.46146  23968159.77046      1300.83300
  -8868823.66007  21463553.86707  -6889824.02748  21463549.16448       945.42000
   4450758.19107  21635524.63307   3465394.21948  21635522.92248     -1829.17300
 08 11  4  0 38  0.0000000  0  8  3  6 13 16 19 21 23 31
 -14852779.64507  21060865.35907 -11540470.91048  21060864.16448      2920.78400
 -11465773.67207  20654358.11707  -8909154.32048  20654356.68048      1874.62300
  -5103909.04706  22947849.11706  -3967348.32047  22947847.64147      2528.71800
   -783794.87507  20417777.71907   -603926.59049  20417774.52749      -471.55300
   -358964.68005  23821132.84405   -250859.40247  23821130.47747      3875.08400
  -2630448.01606  23960805.80506  -2044176.66446  23960803.00846      1288.60500
  -8896574.49607  21458272.94507  -6911448.05948  21458268.78148       925.02800
   4505955.11707  21646028.48407   3508404.77748  21646026.28548     -1839.89800
 08 11  4  0 38 30.0000000  0  8  3  6 13 16 19 21 23 31
 -14940003.04307  21044267.85907 -11608437.19148  21044265.84448      2907.44700
 -11521547.15207  20643744.77307  -8952614.17248  20643743.41448      1859.11600
  -5179308.25806  22933501.77306  -4026100.95347  22933499.98447      2513.30700
   -769411.48407  20420514.85907   -592718.76649  20420511.97349      -479.44600
   -475093.71106  23799035.10906   -341349.55547  23799032.03547      3870.96800
  -2668740.96106  23953519.57806  -2074015.34047  23953516.82447      1276.43200
  -8923716.11307  21453107.81307  -6932597.35948  21453103.48048       904.72100
   4561470.01207  21656592.25007   3551663.11348  21656590.78948     -1850.49600
 08 11  4  0 39  0.0000000  0  8  3  6 13 16 19 21 23 31
 -15026816.71107  21027747.65607 -11676084.19948  21027745.72348      2893.78900
 -11576847.03107  20633221.60907  -8995704.98448  20633219.98048      1843.32900
  -5254235.52706  22919243.57006  -4084485.86347  22919241.62947      2497.57600
   -754784.56607  20423297.95307   -581321.16849  20423295.10549      -487.56400
   -591089.26206  23776961.55506   -431735.70747  23776958.19547      3866.51800
  -2706659.52006  23946303.78906  -2103562.24246  23946300.25846      1263.95200
  -8950240.37507  21448060.53107  -6953265.63348  21448056.44548       884.14200
   4617310.13307  21667218.93007   3595174.86748  21667216.53548     -1861.33700
 08 11  4  0 39 30.0000000  0  8  3  6 13 16 19 21 23 31
 -15113217.05907  21011305.89807 -11743409.12548  21011304.70748      2880.01200
 -11631670.37507  20622789.29707  -9038424.48848  20622787.52048      1827.44500
  -5328687.09006  22905075.76606  -4142500.07847  22905072.91447      2481.71900
   -739913.71107  20426127.50807   -569733.48449  20426124.89549      -495.69500
   -706947.51206  23754914.60206   -522014.84447  23754911.35547      3861.94200
  -2744200.05506  23939159.44506  -2132814.58246  23939156.07046      1251.35100
  -8976144.55107  21443131.76607  -6973450.72348  21443127.02048       863.47300
   4673476.73807  21677907.15607   3638941.01648  21677904.81348     -1872.22000
 08 11  4  0 40  0.0000000  0  8  3  6 13 16 19 21 23 31
 -15199209.49207  20994941.89807 -11810416.20748  20994940.86748      2866.41400
 -11686023.64807  20612445.79707  -9080777.66848  20612443.98848      1811.77600
  -5402667.08606  22890997.36706  -4200146.82847  22890995.43447      2466.00000
   -724806.86307  20429002.75007   -557961.91049  20428999.26649      -503.56200
   -822673.26206  23732892.88306   -612190.74647  23732889.19947      3857.52500
  -2781367.71506  23932086.97706  -2161776.38746  23932084.10546      1238.92200
  -9001435.38307  21438319.07807  -6993157.87548  21438314.55548       843.02800
   4729962.31307  21688655.88307   3682955.73448  21688653.39548     -1882.85200
 08 11  4  0 40 30.0000000  0  8  3  6 13 16 19 21 23 31
 -15284785.91007  20978657.48407 -11877099.12548  20978656.10548      2852.54700
 -11739899.45707  20602193.84407  -9122758.79348  20602192.31648      1795.86000
  -5476167.30106  22877011.43006  -4257419.68447  22877009.32847      2450.00700
   -709458.58607  20431923.34407   -546002.22749  20431919.96149      -511.60900
   -938257.84405  23710897.61705   -702256.65247  23710893.87547      3852.81900
  -2818154.60906  23925087.35206  -2190441.49246  23925084.04746      1226.23000
  -9026105.76207  21433623.76607  -7012381.55548  21433619.64848       822.34600
   4786772.94107  21699466.56307   3727223.73048  21699464.66048     -1893.68800
 08 11  4  0 41  0.0000000  0  8  3  6 13 16 19 21 23 31
 -15369949.38307  20962451.53107 -11943460.26648  20962449.68848      2838.78200
 -11793302.09407  20592031.66407  -9164371.23849  20592029.80549      1780.08800
  -5549190.30506  22863114.75006  -4314320.72347  22863113.53547      2434.10000
   -693875.14807  20434888.75007   -533859.28149  20434885.46549      -519.44800
  -1053704.12105  23688928.76605   -792214.78147  23688926.17247      3848.20900
  -2854563.93406  23918157.82806  -2218812.41047  23918155.84447      1213.64400
  -9050160.37907  21429046.53107  -7031125.39848  21429042.44948       801.82100
   4843903.14507  21710338.03107   3771740.75848  21710335.70348     -1904.34000
 08 11  4  0 41 30.0000000  0  8  3  6 13 16 19 21 23 31
 -15454695.25807  20946325.10207 -12009496.02748  20946323.28548      2824.86300
 -11846227.56307  20581960.24207  -9205611.85948  20581958.16048      1764.18200
  -5621730.70306  22849311.36706  -4370845.71146  22849308.17246      2418.01300
   -678054.14807  20437899.39807   -521531.21149  20437896.39149      -527.36700
  -1169006.79704  23666986.58604   -882060.98847  23666985.24647      3843.42300
  -2890590.75006  23911302.41406  -2246885.26646  23911299.59046      1200.89400
  -9073595.38307  21424586.99207  -7049386.44548  21424582.30948       781.16700
   4901355.84407  21721270.96907   3816509.06348  21721268.65248     -1915.09000
 08 11  4  0 42  0.0000000  0  8  3  6 13 16 19 21 23 31
 -15539016.75407  20930278.74207 -12075201.09048  20930277.49248      2810.71700
 -11898669.96907  20571980.73407  -9246476.05548  20571978.45348      1748.08000
  -5693781.64106  22835600.14106  -4426989.30147  22835597.55547      2401.69800
   -661991.37507  20440955.60207   -509014.78149  20440952.95349      -535.42600
  -1284158.35905  23645073.87505   -971789.46147  23645072.39847      3838.38500
  -2926228.29706  23904521.58606  -2274654.75447  23904517.83647      1187.91800
  -9096404.95707  21420246.57807  -7067160.15248  21420242.12148       760.31900
   4959135.32407  21732266.05507   3861532.00848  21732264.19148     -1925.98300
 08 11  4  0 42 30.0000000  0  8  3  6 13 16 19 21 23 31
 -15622911.38707  20914314.49207 -12140573.51648  20914312.88348      2796.48800
 -11950627.80107  20562093.32807  -9286962.68049  20562091.91449      1731.92800
  -5765339.66806  22821983.16406  -4482748.78947  22821980.36347      2385.26800
   -645687.66007  20444058.50807   -496310.59449  20444055.19549      -543.45700
  -1399155.97704  23623191.07004  -1061397.97747  23623188.84447      3833.25400
  -2961474.50406  23897813.37506  -2302119.30546  23897810.95346      1174.87400
  -9118588.26207  21416025.46107  -7084445.85248  21416021.12548       739.44300
   5017242.03507  21743323.25007   3906809.95748  21743321.17648     -1936.89000
 08 11  4  0 43  0.0000000  0  8  3  6 13 16 19 21 23 31
 -15706381.82407  20898430.67207 -12205615.41448  20898429.43448      2782.34800
 -12002104.98807  20552297.63307  -9327074.77749  20552295.68849      1715.90600
  -5836407.99206  22808459.53906  -4538126.66847  22808457.37947      2368.94400
   -629148.34407  20447206.03907   -483422.80949  20447202.92649      -551.31100
  -1514002.17205  23601336.68005  -1150888.49647  23601334.49647      3828.20700
  -2996331.54306  23891180.00806  -2329280.61346  23891177.80146      1161.90100
  -9140149.48807  21411922.21107  -7101246.80948  21411918.37148       718.70800
   5075670.64807  21754441.54707   3952338.73448  21754439.73848     -1947.62000
 08 11  4  0 43 30.0000000  0  8  3  6 13 16 19 21 23 31
 -15789420.48807  20882628.68807 -12270320.83248  20882627.06348      2767.95500
 -12053094.34407  20542594.63307  -9366806.72749  20542593.15249      1699.64500
  -5906976.29706  22795031.11706  -4593114.95347  22795028.19947      2352.27700
   -612367.86307  20450399.07807   -470347.10249  20450395.73049      -559.34900
  -1628687.99205  23579512.61705  -1240254.12147  23579509.97747      3822.86100
  -3030791.62906  23884623.53906  -2356132.64546  23884619.93846      1148.67000
  -9161081.53907  21407939.21107  -7117557.50048  21407934.76648       697.73500
   5134427.50407  21765623.18007   3998123.26248  21765620.41848     -1958.56200
 08 11  4  0 44  0.0000000  0  8  3  6 13 16 19 21 23 31
 -15872028.76607  20866908.95307 -12334690.92248  20866906.91448      2753.60900
 -12103598.61307  20532984.26607  -9406160.68049  20532982.91849      1683.47600
  -5977047.00006  22781696.62506  -4647715.52747  22781694.47747      2335.69000
   -595350.89107  20453637.34407   -457087.11749  20453634.14849      -567.23200
  -1743214.90606  23557719.02306  -1329495.88347  23557716.28947      3817.56400
  -3064857.09406  23878140.84406  -2382677.14146  23878137.29746      1135.51500
  -9181387.63307  21404075.07007  -7133380.44148  21404070.73848       676.87000
   5193508.39807  21776865.87507   4044160.28548  21776863.71948     -1969.36300
 08 11  4  0 44 30.0000000  0  8  3  6 13 16 19 21 23 31
 -15954203.00807  20851271.64807 -12398722.79748  20851270.36348      2739.14100
 -12153615.35907  20523465.96107  -9445134.78148  20523464.58248      1667.22500
  -6046616.33606  22768458.11706  -4701925.43047  22768455.59047      2318.97800
   -578096.75007  20456920.89807   -443642.34049  20456917.44149      -575.13800
  -1857579.18006  23535956.46106  -1418610.89848  23535953.31648      3812.14200
  -3098524.49606  23871733.89106  -2408911.44946  23871730.41846      1122.24700
  -9201065.96507  21400329.95307  -7148714.21148  21400326.31648       655.94400
   5252914.46107  21788170.52307   4090450.70348  21788167.08248     -1980.20200
 08 11  4  0 45  0.0000000  0  8  3  6 13 16 19 21 23 31
 -16035943.15207  20835716.89107 -12462416.38748  20835715.79348      2724.67100
 -12203144.93407  20514040.92207  -9483729.25048  20514038.92648      1650.98600
  -6115683.03106  22755315.39106  -4755743.62947  22755313.14847      2302.22300
   -560607.17207  20460248.69507   -430014.10549  20460246.08249      -582.98600
  -1971779.46106  23514225.10206  -1507598.14848  23514222.13348      3806.67600
  -3131792.85206  23865402.87506  -2434834.85946  23865399.81646      1108.94500
  -9220116.63707  21396704.39107  -7163558.88748  21396700.58648       635.02200
   5312644.30507  21799537.19507   4136993.42248  21799533.37548     -1990.99500
 08 11  4  0 45 30.0000000  0  8  3  6 13 16 19 21 23 31
 -16117250.72707  20820244.85207 -12525772.92648  20820242.79348      2710.25200
 -12252190.12107  20504707.94507  -9521946.25849  20504706.32049      1634.84000
  -6184247.93006  22742267.98406  -4809170.82047  22742265.65647      2285.49700
   -542887.01207  20463620.57807   -416206.20349  20463617.87149      -590.67200
  -2085816.74206  23492524.59406  -1596458.36747  23492521.39147      3801.24300
  -3164664.03906  23859148.92206  -2460448.74246  23859144.46546      1095.70600
  -9238543.12107  21393198.92207  -7177917.20348  21393194.43048       614.21600
   5372693.86707  21810963.46107   4183785.26248  21810961.33648     -2001.65200
 08 11  4  0 46  0.0000000  0  9  3  6 13 16 19 21 23 25 31
 -16198117.56307  20804856.25007 -12588786.05148  20804854.48048      2695.56100
 -12300743.40207  20495468.94507  -9559779.99248  20495467.01648      1618.44300
  -6252303.14806  22729317.57806  -4862200.83247  22729315.45747      2268.50700
   -524930.16807  20467038.13307   -402213.86349  20467035.14149      -598.56100
  -2199682.65206  23470856.78106  -1685185.03547  23470852.84447      3795.53000
  -3197129.69105  23852969.59405  -2485746.66846  23852967.61746      1082.18800
  -9256338.21107  21389812.35907  -7191783.50048  21389808.28148       593.17000
   -104611.57815  24269379.86705    -59006.96556  24269378.15646         0.00000
   5433069.49207  21822453.18807   4230831.14848  21822450.98448     -2012.52100
 08 11  4  0 46 30.0000000  0  9  3  6 13 16 19 21 23 25 31
 -16278547.32007  20789550.94507 -12651458.58648  20789549.31348      2680.99200
 -12348809.51607  20486321.98407  -9597234.11348  20486320.25448      1602.20400
  -6319851.05106  22716463.05506  -4914835.56347  22716460.51647      2251.59700
   -506743.08207  20470498.69507   -388042.11349  20470495.81649      -606.23600
  -2313379.87105  23449220.47705  -1773780.26247  23449217.14547      3789.90700
  -3229193.71905  23846868.10905  -2510731.64146  23846865.78146      1068.80100
  -9273507.43407  21386544.97707  -7205162.11348  21386540.84048       572.30700
   -200853.67606  24251065.65606   -134000.78546  24251063.43846      3208.07000
   5493765.32807  21834003.23407   4278126.57048  21834000.39848     -2023.19500
 08 11  4  0 47  0.0000000  0  9  3  6 13 16 19 21 23 25 31
 -16358543.07407  20774328.28907 -12713792.93448  20774326.14148      2666.52500
 -12396392.61707  20477267.18007  -9634311.83649  20477265.02349      1586.10300
  -6386894.18006  22703704.70306  -4967076.95747  22703702.83247      2234.77100
   -488331.45707  20474002.51607   -373695.39549  20473999.14849      -613.72100
  -2426911.09804  23427614.78104  -1862246.07847  23427612.62947      3784.37400
  -3260859.21506  23840843.18806  -2535406.04747  23840840.46947      1055.51700
  -9290055.29707  21383395.91407  -7218056.56648  21383391.97748       551.59500
   -297077.72306  24232754.75806   -208980.58646  24232751.09446      3207.46800
   5554775.97707  21845613.22707   4325667.32048  21845610.72348     -2033.68800
 08 11  4  0 47 30.0000000  0  9  3  6 13 16 19 21 23 25 31
 -16438103.04707  20759188.53907 -12775787.69148  20759187.25848      2651.99900
 -12443491.18007  20468304.85907  -9671012.02049  20468303.11349      1569.95200
  -6453429.96506  22691043.96106  -5018923.00447  22691042.19547      2217.86000
   -469695.24607  20477548.72707   -359173.68049  20477545.82449      -621.20700
  -2540273.21502  23406043.36702  -1950580.18446  23406040.99646      3778.73700
  -3292123.84406  23834892.82006  -2559768.09446  23834891.34046      1042.15400
  -9305980.12107  21380365.46907  -7230465.53148  21380361.20748       530.82700
   -393281.60505  24214447.94505   -283944.66046  24214443.77746      3206.79600
   5616102.05107  21857282.78107   4373453.84048  21857280.28148     -2044.20200
 08 11  4  0 48  0.0000000  0  9  3  6 13 16 19 21 23 25 31
 -16517223.01207  20744132.43807 -12837439.60248  20744131.10948      2637.33200
 -12490103.13307  20459435.02307  -9707333.02349  20459433.82449      1553.73200
  -6519454.71106  22678479.44506  -5070370.84047  22678478.11747      2200.82500
   -450834.06307  20481137.90607   -344476.65649  20481134.72749      -628.70600
  -2653462.43004  23384504.71904  -2038779.52046  23384501.05146      3772.97400
  -3322984.48405  23829019.84405  -2583815.34846  23829018.04746      1028.68800
  -9321280.19106  21377454.34406  -7242387.66848  21377450.67648       510.00200
   -489462.18406  24196145.32806   -358890.57046  24196142.00846      3206.01900
   5677744.22307  21869012.73407   4421486.66448  21869010.07848     -2054.73900
 08 11  4  0 48 30.0000000  0  9  3  6 13 16 19 21 23 25 31
 -16595900.49207  20729160.68807 -12898746.73848  20729159.28148      2622.58300
 -12536226.28907  20450657.55507  -9743273.14548  20450656.05548      1537.43900
  -6584964.91006  22666013.65606  -5121417.74647  22666011.61747      2183.67300
   -431747.18407  20484770.17207   -329603.78549  20484766.82449      -636.22900
  -2766475.22306  23362999.59406  -2126841.39547  23362995.10547      3767.09300
  -3353438.07406  23823225.57006  -2607545.39547  23823223.64547      1015.12000
  -9335954.12107  21374662.10907  -7253821.91048  21374657.85948       489.13100
   -585616.57405  24177847.57805   -433816.05946  24177844.86346      3205.14600
   5739703.37107  21880803.66407   4469766.49648  21880800.50848     -2065.30500
 08 11  4  0 49  0.0000000  0  9  3  6 13 16 19 21 23 25 31
 -16674131.85907  20714273.56307 -12959706.23448  20714271.90648      2607.71200
 -12581858.32007  20441974.00807  -9778830.56349  20441972.35249      1521.06800
  -6649956.82406  22653646.15606  -5172060.78547  22653643.57447      2166.39700
   -412433.74207  20488445.15607   -314554.35549  20488442.02349      -643.78100
  -2879307.27706  23341527.96106  -2214762.46547  23341523.04347      3761.06800
  -3383481.18406  23817508.37506  -2630955.60246  23817505.81646      1001.43700
  -9349999.91807  21371988.71907  -7264766.68848  21371984.44148       468.19300
   -681741.58204  24159555.68004   -508718.60946  24159553.43446      3204.16700
   5801981.07407  21892654.64807   4518294.56348  21892651.84848     -2075.92300
 08 11  4  0 49 30.0000000  0  9  3  6 13 16 19 21 23 25 31
 -16751917.71907  20699471.72707 -13020318.57848  20699469.32448      2592.86200
 -12627000.46907  20433384.28107  -9814006.24648  20433382.23448      1504.73800
  -6714430.12506  22641377.38306  -5222299.69547  22641375.55147      2149.11000
   -392896.77307  20492162.81307   -299330.74249  20492160.14549      -651.23200
  -2991958.27706  23320091.57006  -2302542.46947  23320085.60247      3755.03300
  -3413114.10506  23811869.07806  -2654046.16846  23811867.32846       987.76400
  -9363419.42207  21369435.46907  -7275223.44948  21369431.12548       447.31700
   -777837.37505  24141268.18805   -583598.44946  24141268.30946      3203.19300
   5864574.89507  21904566.12507   4567068.93448  21904563.19948     -2086.46100
 08 11  4  0 50  0.0000000  0  9  3  6 13 16 19 21 23 25 31
 -16829255.48407  20684754.89807 -13080581.78148  20684752.94548      2577.92600
 -12671651.32407  20424887.29707  -9848799.11348  20424885.54748      1488.36200
  -6778381.41806  22629207.48406  -5272131.87147  22629205.97747      2131.71000
   -373135.98807  20495922.96107   -283932.73849  20495920.04349      -658.69300
  -3104425.31606  23298689.20306  -2390179.12947  23298683.61747      3748.90100
  -3442334.50806  23806309.74206  -2676815.32847  23806307.07847       974.01300
  -9376211.49207  21367001.63307  -7285191.30548  21366997.18048       426.40200
   -873901.82005  24122987.99205   -658453.79346  24122988.01246      3202.14800
   5927485.05507  21916537.32007   4616089.80948  21916534.93048     -2097.00500
 08 11  4  0 50 30.0000000  0  9  3  6 13 16 19 21 23 25 31
 -16906144.36707  20670123.22707 -13140495.18448  20670120.91848      2562.96300
 -12715811.18407  20416483.77307  -9883209.37949  20416482.10549      1471.99500
  -6841810.01606  22617137.09406  -5321556.71947  22617135.02747      2114.28700
   -353152.98407  20499725.73407   -268361.55548  20499722.67648      -666.10000
  -3216706.90607  23277323.11707  -2477671.27047  23277318.43447      3742.72000
  -3471141.85905  23800826.38305  -2699262.57046  23800824.66046       960.24500
  -9388377.05907  21364685.78107  -7294670.97748  21364682.26248       405.51900
   -969933.95705  24104714.21105   -733284.00046  24104713.50046      3201.07100
   5990710.21507  21928568.91407   4665356.15248  21928566.21948     -2107.50500
 08 11  4  0 51  0.0000000  0  9  3  6 13 16 19 21 23 25 31
 -16982581.69107  20655577.89807 -13200056.72748  20655576.01648      2547.91100
 -12759478.16807  20408174.14807  -9917235.58648  20408172.23448      1455.56600
  -6904712.55906  22605168.23406  -5370571.71147  22605166.09847      2096.75100
   -332947.73007  20503570.98407   -252617.21149  20503568.16449      -673.50800
  -3328799.35506  23255992.14106  -2565016.00847  23255988.59847      3736.41500
  -3499533.09005  23795424.07005  -2721385.61346  23795421.61746       946.37400
  -9399914.65607  21362490.37507  -7303661.31648  21362486.28548       384.58700
  -1065931.19505  24086446.74205   -808087.01646  24086445.56646      3199.90800
   6054250.92207  21940660.41407   4714868.36348  21940657.11348     -2118.02400
 08 11  4  0 51 29.9990000  0  9  3  6 13 16 19 21 23 25 31
 -17058560.72307  20641119.33107 -13259261.16049  20641118.17549      2532.63400
 -12802647.85207  20399959.36207  -9950874.29348  20399957.76548      1438.98900
  -6967082.05106  22593299.48706  -5419171.31647  22593297.56247      2078.98300
   -312518.99207  20507458.66707   -236698.71149  20507455.47949      -680.95800
  -3440694.13706  23234698.87006  -2652206.73847  23234695.77647      3729.82600
  -3527503.35906  23790102.00306  -2743180.62546  23790099.39046       932.34200
  -9410821.14807  21360414.98707  -7312159.88748  21360410.89048       363.55000
  -1161886.06605  24068186.84705   -882857.00846  24068185.53046      3198.49600
   6118107.05507  21952811.69807   4764626.35948  21952809.02248     -2128.53800
 08 11  4  0 51 59.9990000  0  9  3  6 13 16 19 21 23 25 31
 -17134080.68007  20626748.58907 -13318107.86749  20626746.54249      2517.33200
 -12845318.13307  20391839.58107  -9984123.86749  20391837.59749      1422.34300
  -7028917.21506  22581532.63606  -5467354.57847  22581530.75747      2061.17200
   -291862.02707  20511389.17507   -220602.36749  20511386.44449      -688.56500
  -3552392.62106  23213443.95606  -2739244.48847  23213440.28447      3723.28300
  -3555048.60506  23784860.25306  -2764644.46547  23784857.02647       918.17500
  -9421092.77307  21358460.25307  -7320163.75848  21358456.35148       342.38700
  -1257799.15206  24049935.09706   -957594.45746  24049933.31946      3197.10300
   6182286.70707  21965024.63607   4814636.45748  21965022.47948     -2139.32200
 08 11  4  0 52 29.9990000  0  9  3  6 13 16 19 21 23 25 31
 -17209138.27307  20612465.54207 -13376594.29349  20612464.15149      2501.92000
 -12887487.87107  20383814.57307 -10016983.38748  20383812.86248      1405.65800
  -7090213.56306  22569867.88606  -5515117.94147  22569865.55847      2043.21200
   -270978.95307  20515363.40107   -204329.87549  20515360.17949      -696.10200
  -3663889.18006  23192226.59706  -2826124.86347  23192222.57347      3716.55200
  -3582167.37906  23779700.05006  -2785775.98446  23779697.26146       903.95900
  -9430730.25407  21356626.08907  -7327673.49248  21356622.65948       321.24900
  -1353666.33605  24031692.84705  -1032296.19146  24031690.25346      3195.57300
   6246786.57007  21977298.37807   4864896.03548  21977295.67948     -2149.99500
 08 11  4  0 52 59.9990000  0  9  3  6 13 16 19 21 23 25 31
 -17283730.95307  20598270.91707 -13434718.44948  20598269.38248      2486.42300
 -12929155.60207  20375885.62807 -10049451.74249  20375883.74149      1388.92400
  -7150968.56606  22558307.14406  -5562459.48047  22558304.40547      2025.16700
   -249869.93807  20519380.20607   -187881.29748  20519377.04248      -703.63400
  -3775180.56606  23171048.74506  -2912845.35947  23171044.52247      3709.71300
  -3608857.46106  23774621.58906  -2806573.47747  23774617.84747       889.66900
  -9439732.71107  21354913.54207  -7334688.38348  21354909.33548       300.08200
  -1449485.35905  24013458.64405  -1106960.33247  24013457.33147      3193.96700
   6311606.81607  21989633.41707   4915405.28548  21989630.77248     -2160.67500
 08 11  4  0 53 29.9990000  0  9  3  6 13 16 19 21 23 25 31
 -17357859.18007  20584164.86207 -13492480.72348  20584162.67148      2470.94100
 -12970322.90607  20368052.04207 -10081530.14849  20368050.44449      1372.24300
  -7211182.23006  22546848.70606  -5609379.21547  22546846.41347      2007.12200
   -228537.45307  20523439.88607   -171258.57049  20523436.67549      -711.08300
  -3886266.60206  23149909.55806  -2999405.85247  23149905.76147      3702.86800
  -3635118.76606  23769623.30006  -2827036.81646  23769620.16746       875.37700
  -9448102.09407  21353320.75307  -7341209.98448  21353316.38248       278.97900
  -1545256.16005  23995234.53405  -1181586.89847  23995232.69047      3192.36000
   6376745.14107  22002028.52607   4966162.39848  22002026.26148     -2171.27700
 08 11  4  0 53 59.9990000  0  9  3  6 13 16 19 21 23 25 31
 -17431531.20307  20570145.44807 -13549887.47748  20570143.46848      2455.73400
 -13010998.80907  20360311.38607 -10113225.64849  20360309.35149      1355.86300
  -7270862.57406  22535491.87006  -5655883.35547  22535489.51947      1989.34500
   -206992.11707  20527539.87007   -154469.98849  20527536.16349      -718.17800
  -3997154.55106  23128808.36206  -3085812.01247  23128803.99147      3696.26500
  -3660959.76206  23764706.05806  -2847172.64846  23764703.12846       861.36700
  -9455847.80507  21351846.89407  -7347245.61748  21351842.88248       258.19000
  -1640987.05505  23977017.33905  -1256182.36347  23977015.35847      3191.03000
   6442191.18007  22014482.62007   5017159.28148  22014479.58148     -2181.53500
 08 11  4  0 54 29.9990000  0  9  3  6 13 16 19 21 23 25 31
 -17504743.29307  20556213.71407 -13606935.85248  20556212.01948      2440.40300
 -13051181.09807  20352665.06507 -10144536.51648  20352662.97248      1339.41000
  -7330005.50006  22524237.30806  -5701968.75847  22524234.85847      1971.43100
   -185232.74607  20531680.32307   -137514.62949  20531676.77249      -725.31200
  -4107840.29706  23107745.52606  -3172060.62147  23107741.29647      3689.52500
  -3686376.91006  23759869.20606  -2866978.23046  23759866.07346       847.23800
  -9462968.13307  21350491.50307  -7352793.93048  21350488.17948       237.34400
  -1736674.33605  23958808.44805  -1330743.84847  23958806.73747      3189.57600
   6507946.17607  22026995.69807   5068396.90648  22026992.85148     -2191.83300
 08 11  4  0 54 59.9990000  0  9  3  6 13 16 19 21 23 25 31
 -17577486.74207  20542371.01107 -13663619.05548  20542368.47248      2424.78200
 -13090861.66807  20345114.07307 -10175456.42649  20345112.30849      1322.68600
  -7388601.58206  22513086.82306  -5747628.04747  22513084.22947      1953.20300
   -163252.44907  20535863.10407   -120387.12549  20535860.00349      -732.67700
  -4218314.08206  23086723.22206  -3258144.03947  23086720.70247      3682.46000
  -3711361.40605  23755114.14405  -2886446.69546  23755111.58146       832.81700
  -9469455.82006  21349256.86206  -7357849.25448  21349253.37448       216.25600
  -1832308.89106  23940609.90906  -1405264.24247  23940608.69847      3187.81800
   6574017.35207  22039568.44807   5119880.90248  22039566.12448     -2202.37300
 08 11  4  0 55 29.9990000  0  9  3  6 13 16 19 21 23 25 31
 -17649760.24607  20528617.89407 -13719936.04748  20528615.76548      2409.11700
 -13130039.88307  20337658.55007 -10205984.91049  20337656.96049      1305.94000
  -7446648.45306  22502041.23706  -5792859.34447  22502038.68347      1934.89600
   -141052.14507  20540087.35407   -103088.17649  20540084.69049      -740.01000
  -4328573.71906  23065741.66706  -3344060.63747  23065739.24147      3675.32100
  -3735911.95305  23750443.51105  -2905576.96946  23750439.61646       818.35200
  -9475310.72707  21348142.79207  -7362411.52748  21348138.76948       195.16400
  -1927888.92206  23922421.63606  -1479742.18847  23922419.99147      3186.00100
   6640404.14107  22052201.85407   5171610.84048  22052198.83948     -2212.89300
 08 11  4  0 55 59.9990000  0  9  3  6 13 16 19 21 23 25 31
 -17721567.57007  20514952.90907 -13775889.78549  20514951.76549      2393.57700
 -13168721.12907  20330297.80807 -10236126.12548  20330295.87848      1289.37500
  -7504149.79706  22491099.09706  -5837665.57847  22491097.23747      1916.71100
   -118637.99607  20544353.05007    -85622.61749  20544350.24149      -747.13800
  -4438622.16007  23044799.84707  -3429812.65247  23044797.28047      3668.28100
  -3760032.33606  23745853.21406  -2924372.09846  23745850.02246       804.01300
  -9480538.57007  21347148.62807  -7366485.19148  21347144.46848       174.26100
  -2023418.30506  23904242.94006  -1554180.66047  23904241.52247      3184.31300
   6707100.10907  22064893.02607   5223581.69548  22064890.66348     -2223.19900
 08 11  4  0 56 29.9990000  0  9  3  6 13 16 19 21 23 25 31
 -17792908.71507  20501377.19007 -13831480.30149  20501375.99549      2378.03800
 -13206905.91807  20323031.51107 -10265880.50848  20323029.59748      1272.82600
  -7561105.05906  22480260.50306  -5882046.30147  22480258.14047      1898.50900
    -96011.93807  20548658.33107    -67991.94149  20548655.74549      -754.20200
  -4548458.28906  23023898.93306  -3515399.22747  23023894.65147      3661.20400
  -3783722.49206  23741344.65906  -2942831.94146  23741342.80846       789.67200
  -9485140.67607  21346272.62007  -7370071.24648  21346268.54248       153.40400
  -2118896.44505  23886073.47905  -1628579.16447  23886072.77247      3182.60500
   6774103.64807  22077643.74507   5275792.21948  22077640.99148     -2233.45100
 08 11  4  0 56 59.9990000  0  9  3  6 13 16 19 21 23 25 31
 -17863778.77007  20487891.30807 -13886703.72749  20487889.96449      2362.33500
 -13244591.03507  20315860.57307 -10295245.52349  20315858.81949      1256.17100
  -7617509.61306  22469526.78406  -5925997.91847  22469524.77647      1880.15200
    -73171.82007  20553004.87807    -50194.44149  20553002.06249      -761.33700
  -4658077.09406  23003039.05806  -3600816.46947  23003034.59747      3653.96000
  -3806978.10506  23736920.26106  -2960953.17646  23736917.39046       775.18700
  -9489114.34407  21345516.10407  -7373167.60248  21345513.06548       132.45600
  -2214318.59005  23867915.24505  -1702934.02747  23867914.42547      3180.73800
   6841417.21507  22090453.33107   5328244.33648  22090450.45248     -2243.78600
 08 11  4  0 57 29.9990000  0  9  3  6 13 16 19 21 23 25 31
 -17934181.13707  20474494.40107 -13941562.71948  20474492.68748      2346.74600
 -13281780.62907  20308783.55807 -10324224.42249  20308781.41349      1239.65300
  -7673365.96106  22458898.34706  -5969522.36347  22458895.86647      1861.87800
    -50123.13707  20557390.58907    -32234.44148  20557387.51948      -768.28900
  -4767481.04706  22982220.05006  -3686066.27347  22982215.30847      3646.79800
  -3829801.98006  23732576.83106  -2978738.02046  23732574.43346       760.79600
  -9492464.23807  21344878.84707  -7375777.92248  21344874.51548       111.66300
  -2309687.74605  23849766.40105  -1777247.66046  23849765.43746      3178.97200
   6909035.52007  22103320.69007   5380933.90248  22103317.78848     -2253.94300
 08 11  4  0 57 59.9990000  0  9  3  6 13 16 19 21 23 25 31
 -18004111.84007  20461186.86207 -13996054.16048  20461184.92148      2331.02300
 -13318471.98408  20301801.31508 -10352815.07449  20301799.28849      1223.04500
  -7728669.99207  22448373.93307  -6012616.41447  22448372.02247      1843.46800
    -26863.67207  20561816.89407    -14110.19948  20561813.59348      -775.31500
  -4876665.16406  22961442.47206  -3771144.77747  22961438.78847      3639.47100
  -3852190.56606  23728316.10406  -2996183.67647  23728312.85147       746.28600
  -9495188.23807  21344360.85407  -7377900.54748  21344356.49948        90.80000
  -2404999.66805  23831629.15105  -1851516.68046  23831627.63646      3177.06400
   6976960.50806  22116246.30806   5433862.43048  22116244.21848     -2264.16600
 08 11  4  0 58 29.9990000  0  9  3  6 13 16 19 21 23 25 31
 -18073571.84007  20447969.07307 -14050178.82448  20447966.89748      2315.33300
 -13354666.64807  20294913.36207 -10381018.69948  20294911.72248      1206.48900
  -7783421.68006  22437954.90106  -6055280.07047  22437952.78847      1825.05600
     -3396.55507  20566282.26907      4175.87148  20566279.38248      -782.23700
  -4985629.41006  22940708.13606  -3856051.96547  22940703.82347      3632.14200
  -3874144.75806  23724138.88606  -3013290.85247  23724136.39447       731.80600
  -9497288.65607  21343960.90907  -7379537.24648  21343956.26548        70.01400
  -2500254.80905  23813502.86205  -1925741.42647  23813501.48347      3175.17100
   7045189.38707  22129229.97907   5487027.75848  22129227.58948     -2274.29600
 08 11  4  0 58 59.9990000  0  9  3  6 13 16 19 21 23 25 31
 -18142558.15607  20434841.23707 -14103934.38749  20434839.85849      2299.54400
 -13390363.02307  20288120.50307 -10408834.04349  20288119.06249      1189.87900
  -7837617.59406  22427641.69006  -6097510.63747  22427639.05847      1806.53000
     20278.96907  20570787.68307     22624.32448  20570784.50748      -789.18400
  -5094369.74206  22920014.30806  -3940784.66447  22920011.95647      3624.67800
  -3895661.48806  23720043.66706  -3030057.14846  23720042.14046       717.22400
  -9498764.34007  21343679.99507  -7380687.11748  21343675.81248        49.18900
  -2595449.82005  23795388.32305  -1999919.33647  23795386.77247      3173.16700
   7113723.28107  22142270.87007   5540430.75048  22142269.72948     -2284.46300
 08 11  4  0 59 29.9990000  0  9  3  6 13 16 19 21 23 25 31
 -18211065.93007  20421804.63607 -14157317.05948  20421803.10848      2283.59200
 -13425556.97707  20281423.40107 -10436257.90649  20281421.84749      1173.13200
  -7891252.71906  22417434.90106  -6139304.25047  22417433.71047      1787.83800
     44165.69507  20575333.14407     41237.34449  20575329.79649      -796.22400
  -5202880.53106  22899365.41706  -4025338.50847  22899363.30847      3617.02600
  -3916736.21506  23716033.47206  -3046478.97746  23716030.24546       702.49100
  -9499612.20307  21343518.79207  -7381347.78548  21343514.51948        28.26200
  -2690579.34005  23777285.83905  -2074046.19147  23777284.75747      3170.98400
   7182564.49207  22155371.00307   5594073.22348  22155369.33548     -2294.70700
 08 11  4  0 59 59.9990000  0  9  3  6 13 16 19 21 23 25 31
 -18279093.32407  20408859.54207 -14210325.43048  20408858.22248      2267.58000
 -13460248.12907  20274822.29207 -10463289.97349  20274820.45249      1156.37200
  -7944324.73806  22407335.92506  -6180659.09047  22407333.05447      1769.06700
     68263.57407  20579919.15907     60014.89849  20579915.43749      -803.26300
  -5311159.26606  22878761.42506  -4109711.51247  22878758.76947      3609.29100
  -3937367.03906  23712107.82306  -3062554.94147  23712104.74147       687.69400
  -9499831.99607  21343476.98707  -7381519.06348  21343472.91748         7.32600
  -2785641.32805  23759196.10405  -2148120.42647  23759195.08147      3168.73300
   7251713.05107  22168530.26107   5647955.20748  22168527.68348     -2304.95200
 08 11  4  1  0 29.9990000  0  9  3  6 13 16 19 21 23 25 31
 -18346639.29307  20396006.12007 -14262958.65249  20396004.47649      2251.53200
 -13494436.52007  20268316.22907 -10489930.26249  20268314.52649      1139.61300
  -7996832.21506  22397344.43306  -6221573.96547  22397342.13247      1750.24900
     92571.50407  20584544.59707     78956.12549  20584541.60449      -810.26400
  -5419203.56606  22858201.37806  -4193901.85548  22858198.94848      3601.47700
  -3957552.81306  23708266.33906  -3078284.10946  23708263.17146       672.85900
  -9499424.62507  21343554.37807  -7381201.64548  21343550.24548       -13.57900
  -2880634.14105  23741119.36205  -2222140.77747  23741117.34747      3166.42700
   7321168.13707  22181746.40907   5702076.00848  22181744.30448     -2315.17000
 08 11  4  1  0 59.9990000  0  9  3  6 13 16 19 21 23 25 31
 -18413704.29307  20383243.81507 -14315217.07448  20383242.28048      2235.50000
 -13528123.34007  20261905.72207 -10516179.71149  20261904.36249      1122.89400
  -8048775.17206  22387459.42506  -6262049.01247  22387457.04247      1731.43200
    117086.90207  20589209.92507     98059.01649  20589206.49949      -817.18000
  -5527013.45306  22837685.64406  -4277909.55548  22837683.05448      3593.66300
  -3977294.22306  23704509.75306  -3093667.00447  23704507.15147       658.04700
  -9498392.20707  21343750.97907  -7380397.16848  21343746.94448       -34.41400
  -2975557.86306  23723056.22906  -2296107.30146  23723053.05846      3164.12400
   7390927.19507  22195021.29207   5756433.65648  22195019.67548     -2325.30200
 08 11  4  1  1 29.9990000  0  9  3  6 13 16 19 21 23 25 31
 -18480280.70707  20370574.51907 -14367094.78148  20370573.03048      2219.21400
 -13561302.31307  20255592.01107 -10542033.45749  20255590.39049      1105.96600
  -8100145.68406  22377684.01106  -6302077.95747  22377681.76547      1712.35000
    141815.27007  20593915.33107    117327.86748  20593912.54248      -824.27900
  -5634580.24206  22817215.94806  -4361727.80948  22817213.39048      3585.56000
  -3996583.81606  23700839.01906  -3108697.85247  23700836.26947       642.98600
  -9496728.71507  21344067.30807  -7379100.93848  21344063.56948       -55.45000
  -3070404.51205  23705007.20605  -2370013.79747  23705004.85147      3161.55500
   7460995.73806  22208355.05006   5811032.47748  22208352.79648     -2335.61800
 08 11  4  1  1 59.9990000  0  9  3  6 13 16 19 21 23 25 31
 -18546373.18407  20357997.81507 -14418595.40649  20357996.35449      2203.08300
 -13593978.81607  20249374.07307 -10567495.67649  20249371.90149      1089.21700
  -8150947.57006  22368016.64406  -6341663.85247  22368015.68347      1693.39600
    166750.55507  20598660.62807    136757.96548  20598657.68748      -831.17600
  -5741907.57406  22796793.08106  -4445359.49647  22796788.60147      3577.57800
  -4015425.85206  23697253.15106  -3123379.91046  23697249.73346       628.06800
  -9494440.27707  21344502.85407  -7377317.74648  21344498.72248       -76.28100
  -3165177.74205  23686972.89405  -2443863.00047  23686970.83147      3159.10800
   7531367.64106  22221747.00306   5865867.68448  22221743.59748     -2345.73000
 08 11  4  1  2 29.9990000  0  9  3  6 13 16 19 21 23 25 31
 -18611985.99207  20345512.26907 -14469722.26649  20345510.43349      2187.09400
 -13626158.30107  20243250.40107 -10592570.58649  20243248.99949      1072.64900
  -8201185.28106  22358456.73706  -6380810.14547  22358454.82347      1674.59000
    191886.05907  20603443.69807    156344.07849  20603440.60149      -837.85000
  -5848998.87106  22776413.82306  -4528807.24648  22776410.10848      3569.71000
  -4033825.19906  23693752.41706  -3137717.05947  23693748.53847       613.31200
  -9491533.47307  21345055.84707  -7375052.70348  21345051.89448       -96.89300
  -3259881.66006  23668951.32306  -2517658.23447  23668949.45247      3156.79700
   7602036.23407  22235194.28407   5920934.12148  22235191.14748     -2355.62000
 08 11  4  1  2 59.9990000  0  9  3  6 13 16 19 21 23 25 31
 -18677111.76207  20333119.37807 -14520469.62149  20333117.26949      2170.85900
 -13657834.59407  20237222.60407 -10617253.40649  20237221.37849      1055.87600
  -8250850.89106  22349005.93306  -6419510.60947  22349003.27647      1655.52000
    217227.41007  20608265.75307    176090.58649  20608262.67949      -844.71200
  -5955845.58206  22756081.47206  -4612064.41447  22756078.06947      3561.55700
  -4051774.54306  23690336.36206  -3151703.55946  23690334.38646       598.31100
  -9488002.39107  21345728.26107  -7372301.21148  21345723.59348      -117.70300
  -3354508.29706  23650944.15906  -2591393.24647  23650942.34747      3154.22100
   7673007.05907  22248699.18307   5976236.01648  22248698.08948     -2365.69400
 08 11  4  1  3 29.9990000  0  9  3  6 13 16 19 21 23 25 31
 -18741755.05507  20320817.73707 -14570841.00448  20320816.12848      2154.77600
 -13689013.32007  20231289.78407 -10641548.50049  20231287.70249      1039.29100
  -8299948.34806  22339663.56506  -6457768.37147  22339660.19847      1636.58200
    242767.98007  20613126.36207    195992.32049  20613123.31249      -851.35200
  -6062451.43806  22735795.32306  -4695133.91047  22735791.42547      3553.52900
  -4069278.10506  23687005.56506  -3165342.68846  23687003.11246       583.45200
  -9483853.54707  21346517.24507  -7369068.36348  21346513.33548      -138.29500
  -3449061.67606  23632951.19006  -2665071.18847  23632948.83947      3151.77900
   7744273.46507  22262261.40107   6031768.23448  22262259.38648     -2375.54700
 08 11  4  1  3 59.9990000  0  9  3  6 13 16 19 21 23 25 31
 -18805913.16407  20308608.94007 -14620834.32448  20308607.17948      2138.60400
 -13719692.77007  20225451.29207 -10665454.55149  20225449.10449      1022.64800
  -8348475.04306  22330428.54206  -6495581.35547  22330426.34347      1617.55700
    268508.61307  20618024.56507    216049.95749  20618021.97949      -858.02100
  -6168812.66406  22715555.19806  -4778012.76647  22715552.62847      3545.37400
  -4086333.16006  23683759.72206  -3178632.34446  23683756.81246       568.50200
  -9479085.73407  21347424.58107  -7365353.19948  21347420.97948      -158.92700
  -3543538.26206  23614973.10406  -2738689.31347  23614971.06247      3149.22000
   7815836.17207  22275878.69007   6087531.34448  22275877.03448     -2385.42400
 08 11  4  1  4 29.9990000  0  9  3  6 13 16 19 21 23 25 31
 -18869584.75007  20296492.88607 -14670448.53948  20296490.43348      2122.38600
 -13749872.57807  20219708.20607 -10688971.29749  20219706.84349      1005.99400
  -8396428.56607  22321303.56507  -6532947.75847  22321301.80047      1598.45100
    294448.97307  20622960.79207    236263.21549  20622958.26949      -864.67900
  -6274926.96906  22695362.26106  -4860699.18847  22695359.68747      3537.14300
  -4102938.74206  23680600.72206  -3191571.73046  23680597.00746       553.51900
  -9473699.82407  21348449.51907  -7361156.37548  21348445.51148      -179.53000
  -3637936.17206  23597009.46406  -2812246.12147  23597007.11647      3146.59700
   7887694.77306  22289552.80006   6143525.00848  22289551.49948     -2395.28700
 08 11  4  1  4 59.9990000  0  9  3  6 13 16 19 21 23 25 31
 -18932767.50807  20284469.27607 -14719681.85949  20284467.31249      2106.09200
 -13779552.26207  20214060.26907 -10712098.31649  20214058.82749       989.32300
  -8443806.89806  22312287.73706  -6569865.91847  22312284.90147      1579.27800
    320589.25407  20627934.96407    256632.24649  20627932.06549      -871.34300
  -6380791.36306  22675216.47906  -4943190.88747  22675213.48747      3528.81300
  -4119092.77706  23677526.08906  -3204159.27346  23677523.01546       538.46800
  -9467695.39107  21349592.53407  -7356477.60948  21349587.97948      -200.14800
  -3732252.74606  23579061.45606  -2885739.49647  23579058.77647      3143.88600
   7959848.93807  22303284.03407   6199749.01248  22303281.53448     -2405.13900
 08 11  4  1  5 29.9990000  0  9  3  6 13 16 19 21 23 25 31
 -18995459.77307  20272539.61207 -14768532.96549  20272538.34349      2089.74200
 -13808730.11307  20208508.01907 -10734834.29749  20208506.54649       972.59500
  -8490607.25006  22303382.25306  -6606333.75047  22303379.71047      1560.01200
    346929.61707  20632947.53407    277157.20749  20632944.94849      -878.01200
  -6486402.39806  22655119.76906  -5025485.16447  22655115.99147      3520.36800
  -4134793.18406  23674538.81506  -3216393.32046  23674536.13646       523.34700
  -9461072.10507  21350852.55807  -7351316.63348  21350848.46848      -220.77600
  -3826484.89105  23561129.72905  -2959167.12547  23561127.49147      3141.07100
   8032299.38707  22317071.27607   6256203.85548  22317068.44848     -2415.01500
 08 11  4  1  5 59.9990000  0  9  3  6 13 16 19 21 23 25 31
 -19057656.40607  20260703.97907 -14816997.86349  20260702.10849      2073.22100
 -13837402.28507  20203052.12007 -10757176.23448  20203050.19848       955.73900
  -8536824.24606  22294586.65906  -6642346.98847  22294584.53847      1540.56700
    373473.64507  20637998.79207    297840.86348  20637995.48748      -884.80100
  -6591754.26206  22635072.03406  -5107577.48447  22635068.19447      3511.72900
  -4150034.80906  23671637.97206  -3228269.89146  23671636.48746       508.05400
  -9453827.06607  21352231.40907  -7345671.15648  21352227.16748      -241.50100
  -3920626.99605  23543215.43305  -3032524.58647  23543213.15147      3138.07000
   8105049.42207  22330915.05807   6312892.16848  22330913.08948     -2425.00100
 08 11  4  1  6 29.9990000  0  9  3  6 13 16 19 21 23 25 31
 -19119356.03507  20248962.82307 -14865075.49248  20248960.95648      2056.65400
 -13865569.12107  20197692.02607 -10779124.40649  20197690.22249       938.89500
  -8582456.69906  22285903.85406  -6677904.70347  22285902.03047      1521.08200
    400220.28507  20643088.59707    318682.39848  20643084.99148      -891.55500
  -6696844.72306  22615073.92506  -5189466.14148  22615070.36248      3503.01500
  -4164816.71906  23668825.12006  -3239788.24246  23668822.69846       492.73000
  -9445960.32407  21353728.40907  -7339541.21948  21353723.83948      -262.22500
  -4014677.32006  23525318.01906  -3105810.52347  23525316.36647      3135.01100
   8178097.81607  22344815.64407   6369812.96548  22344813.49948     -2434.94600
 08 11  4  1  6 59.9990000  0  9  3  6 13 16 19 21 23 25 31
 -19180559.11307  20237316.44007 -14912766.19949  20237314.32749      2040.10300
 -13893231.91007  20192427.71407 -10800679.81648  20192425.94848       922.09300
  -8627504.52007  22277331.59707  -6713006.91447  22277329.47247      1501.59400
    427167.54307  20648216.30807    339680.26249  20648213.17949      -898.24200
  -6801673.39806  22595126.19806  -5271150.82448  22595122.51948      3494.28900
  -4179139.77006  23666099.49506  -3250949.02747  23666096.80447       477.43500
  -9437474.57807  21355343.30807  -7332928.95748  21355339.14448      -282.85800
  -4108635.59405  23507437.76905  -3179024.72347  23507436.53847      3131.94200
   8251442.45306  22358772.73706   6426964.59848  22358769.88248     -2444.82100
 08 11  4  1  7 29.9990000  0  9  3  6 13 16 19 21 23 25 31
 -19241263.92607  20225764.53407 -14960068.64149  20225762.12849      2023.49400
 -13920389.55107  20187259.80807 -10821841.60949  20187258.05049       905.25500
  -8671965.45707  22268870.93307  -6747651.78947  22268868.32747      1482.03100
    454315.90207  20653382.55807    360834.82448  20653379.60148      -904.94500
  -6906236.66806  22575228.03406  -5352628.67248  22575224.74148      3485.44200
  -4193001.44906  23663461.83906  -3261750.33647  23663459.27647       462.05600
  -9428369.65607  21357075.54207  -7325834.23448  21357071.83148      -303.49700
  -4202498.50405  23489576.33905  -3252164.63547  23489575.28847      3128.76400
   8325083.27006  22372786.11206   6484347.02048  22372783.48748     -2454.69400
 08 11  4  1  7 59.9990000  0  9  3  6 13 16 19 21 23 25 31
 -19301467.05507  20214308.11207 -15006980.15649  20214306.55049      2006.77100
 -13947040.22307  20182188.37007 -10842608.35949  20182187.30849       888.35600
  -8715835.74606  22260522.96406  -6781836.42647  22260520.01147      1462.34300
