     2              OBSERVATION DATA                        RINEX VERSION / TYPE
DAT2RINW 3.10 001   .                   16NOV08 14:18:48    PGM / RUN BY / DATE 
.                   .                                       OBSERVER / AGENCY   
0220273500          TRIMBLE 5700        Nav 1.24 Sig 1.24   REC # / TYPE / VERS 
00000000            TRM39105.00     NONE                    ANT # / TYPE        
----------------------------------------------------------- COMMENT             
Offset from BOTTOM OF ANTENNA to PHASE CENTER is  46.0 mm   COMMENT             
----------------------------------------------------------- COMMENT             
0221                                                        MARKER NAME
0221                                                        MARKER NUMBER       
 -3055287.5768  4056392.0626  3846211.5413                  APPROX POSITION XYZ 
        1.4674        0.0000        0.0000                  ANTENNA: DELTA H/E/N
*** Above antenna height is from mark to BOTTOM OF ANTENNA. COMMENT             
----------------------------------------------------------- COMMENT             
Note: The above offsets are CORRECTED.                      COMMENT             
Raw Offsets: H=      1.5090 E=      0.0000 N=      0.0000   COMMENT             
----------------------------------------------------------- COMMENT             
     1     1     0                                          WAVELENGTH FACT L1/2
     4    L1    C1    L2    P2                              # / TYPES OF OBSERV 
    30                                                      INTERVAL            
  2008    11    15     0     0    0.000000                  TIME OF FIRST OBS   
  2008    11    15     8    10    0.000000                  TIME OF LAST OBS    
    19                                                      # OF SATELLITES     
     2    12    12    12    12                              PRN / # OF OBS      
     3   578   578   565   565                              PRN / # OF OBS      
     4   253   253   253   253                              PRN / # OF OBS      
     6   492   494   486   486                              PRN / # OF OBS      
     7   540   540   540   540                              PRN / # OF OBS      
     8   458   458   458   458                              PRN / # OF OBS      
    11   694   694   678   678                              PRN / # OF OBS      
    13   395   395   395   395                              PRN / # OF OBS      
    16   401   401   401   401                              PRN / # OF OBS      
    17   421   421   421   421                              PRN / # OF OBS      
    19   731   732   731   732                              PRN / # OF OBS      
    20   450   450   450   450                              PRN / # OF OBS      
    21   217   217   217   217                              PRN / # OF OBS      
    23   394   394   394   394                              PRN / # OF OBS      
    25   574   574   574   574                              PRN / # OF OBS      
    27   439   439   439   439                              PRN / # OF OBS      
    28   550   550   550   550                              PRN / # OF OBS      
    31   179   179   179   179                              PRN / # OF OBS      
    32   463   463   462   462                              PRN / # OF OBS      
                                                            END OF HEADER       
 08 11 15  0  0  0.0000000  0  8  3  6 13 16 19 21 23 31
  -2923605.39507  21057679.50007  -2330934.21248  21057677.75048
  -1691936.96107  20757810.91407  -1315004.39348  20757809.28548
  -2452723.89506  22951651.46906  -1907070.06047  22951648.45347
   1368494.05507  20742113.96107   1082100.64848  20742111.18848
  -1856346.66806  23741517.96106  -1443134.25047  23741513.75047
   -888831.69906  24203574.12506   -693524.68147  24203570.80947
   -606657.93006  21614087.53106   -471754.77048  21614083.14848
   2994214.97707  22132064.72707   2373803.50248  22132062.98048
 08 11 15  0  0 30.0000000  0  9  3  6 13 16 19 21 23 25 31
  -2986754.41007  21045662.87507  -2380141.24548  21045661.14548
  -1722651.50007  20751965.88307  -1338937.81348  20751964.36348
  -2504061.69906  22941882.68006  -1947073.54747  22941878.98847
   1405180.28507  20749095.06307   1110687.32348  20749092.47748
  -1952981.27706  23723129.50806  -1518433.95947  23723125.07047
   -903824.68806  24200721.50006   -705207.52546  24200718.08246
   -608942.71906  21613653.05506   -473535.15448  21613647.98848
    -79377.11315  24525127.73405    -60033.19456  24525126.39546
   3071727.66007  22146814.48407   2434202.96448  22146812.73848
 08 11 15  0  1  0.0000000  0  9  3  6 13 16 19 21 23 25 31
  -3049532.57007  21033716.82807  -2429059.29148  21033715.19148
  -1752945.14107  20746200.94507  -1362543.24048  20746200.06648
  -2554966.31306  22932196.00006  -1986739.51847  22932192.97347
   1442024.59407  20756106.18807   1139397.15748  20756103.65248
  -2049518.28506  23704758.19506  -1593657.60347  23704754.54747
   -918491.12506  24197930.10206   -716635.89846  24197927.21546
   -610672.25006  21613323.46906   -474882.84648  21613319.33248
   -157761.03105  24510212.03105   -121111.57847  24510210.17247
   3149484.34407  22161611.17207   2494792.58048  22161609.84848
 08 11 15  0  1 30.0000000  0  9  3  6 13 16 19 21 23 25 31
  -3111927.84807  21021843.08607  -2477678.97248  21021841.76248
  -1782806.76206  20740518.22706  -1385812.01948  20740517.19548
  -2605424.66406  22922594.26606  -2026057.70547  22922591.26247
   1479036.05107  20763149.62507   1168237.24948  20763146.41048
  -2145944.99206  23686409.75806  -1668795.26947  23686405.73047
   -932818.67606  24195203.13306   -727800.21146  24195200.94546
   -611835.83606  21613102.33606   -475789.55948  21613098.60548
   -236186.69905  24495287.98405   -182222.47346  24495286.01246
   3227495.34807  22176456.18007   2555580.34948  22176454.39848
 08 11 15  0  2  0.0000000  0  9  3  6 13 16 19 21 23 25 31
  -3173919.85907  21010046.15607  -2525984.44048  21010045.12148
  -1812217.05907  20734921.93807  -1408729.14148  20734920.48048
  -2655415.55106  22913080.68806  -2065011.64547  22913077.52347
   1516232.42207  20770227.54707   1197221.41748  20770224.28948
  -2242240.75406  23668084.57806  -1743830.91147  23668081.09447
   -946787.31306  24192545.03106   -738684.79546  24192543.50046
   -612414.74607  21612992.32807   -476240.65748  21612987.97348
   -314634.07805  24480360.69505   -243350.32146  24480357.89146
   3305778.65207  22191353.26607   2616580.29548  22191351.53548
 08 11 15  0  2 30.0000000  0  9  3  6 13 16 19 21 23 25 31
  -3235519.57007  20998324.63307  -2573984.21048  20998323.06648
  -1841188.00407  20729409.11707  -1431303.90248  20729407.28948
  -2704949.44106  22903654.16406  -2103609.44547  22903652.29347
   1553600.33207  20777338.52307   1226339.26048  20777335.05548
  -2338415.81306  23649782.60206  -1818772.48047  23649778.82847
   -960408.02006  24189953.40606   -749298.27947  24189950.72347
   -612421.08606  21612990.75806   -476245.60648  21612985.96148
   -393114.57805  24465425.90605   -304503.93046  24465422.60946
   3384321.12507  22206299.00807   2677782.22748  22206297.47348
 08 11 15  0  3  0.0000000  0  9  3  6 13 16 19 21 23 25 31
  -3296722.58607  20986677.83607  -2621674.86648  20986677.32048
  -1869716.19107  20723980.44507  -1453533.64748  20723978.51648
  -2754021.30106  22894315.88306  -2141847.29347  22894314.82047
   1591141.41807  20784482.58607   1255592.03648  20784479.58248
  -2434465.16006  23631505.84406  -1893616.13147  23631500.83247
   -973676.84806  24187428.60206   -759637.61947  24187426.04747
   -611851.71506  21613098.76606   -475801.92648  21613094.81648
   -471623.71905  24450485.59405   -365679.87946  24450483.00846
   3463125.28907  22221295.05507   2739188.06448  22221292.61348
 08 11 15  0  3 30.0000000  0  9  3  6 13 16 19 21 23 25 31
  -3357530.57407  20975106.37507  -2669057.70648  20975104.83648
  -1897803.99207  20718635.17207  -1475420.25048  20718633.84448
  -2802631.93006  22885065.71106  -2179725.69247  22885064.51647
   1628851.87907  20791658.44507   1284976.80948  20791655.82448
  -2530389.39806  23613251.67206  -1968362.24447  23613247.29347
   -986594.50406  24184969.79706   -769703.30247  24184968.15247
   -610709.29306  21613316.59406   -474911.75348  21613311.35248
   -550163.09406  24435540.72706   -426879.38046  24435537.57446
   3542187.51607  22236340.21907   2800794.94348  22236338.33248
 08 11 15  0  4  0.0000000  0  9  3  6 13 16 19 21 23 25 31
  -3417940.12907  20963610.71907  -2716130.07048  20963609.22748
  -1925449.49207  20713374.84407  -1496962.20748  20713372.98048
  -2850778.34006  22875904.29706  -2217242.36547  22875901.30147
   1666731.92607  20798866.86707   1314493.71948  20798864.55548
  -2626185.01206  23595022.22706  -2043008.17247  23595019.09847
   -999158.29706  24182579.45306   -779493.30147  24182576.73447
   -608992.25006  21613643.15606   -473573.81148  21613638.95748
   -628729.96106  24420589.73406   -488100.32146  24420587.01646
   3621508.69107  22251434.93007   2862603.62548  22251432.93848
 08 11 15  0  4 30.0000000  0  9  3  6 13 16 19 21 23 25 31
  -3477938.70707  20952193.66407  -2762882.23048  20952192.19148
  -1952641.32007  20708200.10207  -1518150.65248  20708198.67648
  -2898447.68006  22866833.11706  -2254387.30647  22866831.63747
   1704791.49207  20806109.21907   1344150.49048  20806107.08648
  -2721838.83606  23576820.40606  -2117543.61047  23576816.04347
  -1011356.18806  24180258.21106   -788998.12246  24180254.75446
   -606689.64507  21614081.22707   -471779.59448  21614077.45748
   -707311.97705  24405635.45305   -549333.02346  24405633.51246
   3701099.38307  22266580.58607   2924622.30848  22266577.97348
 08 11 15  0  5  0.0000000  0  9  3  6 13 16 19 21 23 25 31
  -3537524.69907  20940854.89807  -2809312.86848  20940853.09848
  -1979378.27307  20703112.26607  -1538984.64548  20703111.01648
  -2945636.93406  22857853.28106  -2291158.17247  22857851.22347
   1743030.00407  20813385.59407   1373946.71848  20813382.51648
  -2817348.08206  23558645.60906  -2191966.38147  23558642.17247
  -1023185.93406  24178007.07006   -798216.04747  24178004.30547
   -603800.80106  21614631.17206   -469528.56348  21614626.99248
   -785907.16805  24390679.81305   -610576.00746  24390677.43846
   3780959.22707  22281777.21907   2986850.73748  22281775.68848
 08 11 15  0  5 30.0000000  0  9  3  6 13 16 19 21 23 25 31
  -3596707.57407  20929592.57807  -2855429.38548  20929590.75448
  -2005670.85507  20698108.87507  -1559472.35348  20698107.41448
  -2992355.31306  22848962.60906  -2327562.07047  22848960.64847
   1781435.84407  20820694.28907   1403873.34848  20820691.38748
  -2912721.51206  23540496.75006  -2266283.32347  23540492.87947
  -1034656.91806  24175823.99206   -807154.39547  24175821.59847
   -600336.50806  21615290.52306   -466829.13448  21615286.39148
   -864524.92606  24375719.43006   -671836.61346  24375717.03546
   3861076.72707  22297023.00007   3049279.94448  22297021.22748
 08 11 15  0  6  0.0000000  0  9  3  6 13 16 19 21 23 25 31
  -3655494.51607  20918405.57007  -2901237.37948  20918403.83648
  -2031527.56607  20693188.32007  -1579620.43848  20693186.97748
  -3038609.62906  22840160.77306  -2363604.38047  22840158.46147
   1819998.89807  20828032.43007   1433922.48148  20828030.18848
  -3007965.95306  23522371.35906  -2340499.73047  23522368.42247
  -1045776.74606  24173707.61706   -815819.21347  24173706.02047
   -596305.84807  21616057.85207   -463688.37248  21616053.66048
   -943172.89806  24360753.60906   -733120.73947  24360751.32847
   3941442.53106  22312315.64106   3111902.63048  22312313.70348
 08 11 15  0  6 30.0010000  0  9  3  6 13 16 19 21 23 25 31
  -3713856.97707  20907299.60607  -2946714.62848  20907297.89648
  -2056919.94107  20688356.54407  -1599406.70648  20688355.34548
  -3084370.64506  22831452.75506  -2399262.33847  22831449.93847
   1858748.49607  20835406.36407   1464116.96548  20835403.29848
  -3103053.41006  23504277.10606  -2414593.78647  23504273.98947
  -1056515.16806  24171664.09906   -824186.81447  24171662.15347
   -591679.58607  21616937.54407   -460083.48748  21616933.91948
  -1021823.40206  24345786.23906   -794406.82846  24345784.39246
   4022087.41407  22327662.66907   3174742.79448  22327661.20848
 08 11 15  0  7  0.0010000  0  9  3  6 13 16 19 21 23 25 31
  -3771789.26607  20896275.43507  -2991856.66348  20896273.86048
  -2081845.09407  20683613.84907  -1618828.89948  20683611.97048
  -3129632.53106  22822839.54406  -2434531.34547  22822837.47447
   1897681.68007  20842814.95807   1494454.48948  20842811.72848
  -3197974.69906  23486214.26306  -2488558.42647  23486211.11447
  -1066869.61706  24169694.52806   -832255.20147  24169692.48147
   -586457.19506  21617932.00506   -456014.10548  21617927.54448
  -1100469.01205  24330820.59905   -855689.04047  24330819.38047
   4103006.29306  22343060.16906   3237796.43148  22343059.66148
 08 11 15  0  7 30.0010000  0  9  3  6 13 16 19 21 23 25 31
  -3829303.18007  20885331.48907  -3036672.69148  20885329.21648
  -2106314.90207  20678957.29407  -1637896.30548  20678954.77848
  -3174406.55106  22814319.82506  -2469420.20447  22814317.82947
   1936787.50007  20850256.84107   1524926.52648  20850253.38848
  -3292742.38306  23468180.66106  -2562403.31947  23468177.60347
  -1076850.33606  24167795.16906   -840032.40447  24167793.45447
   -580649.98007  21619036.68507   -451488.99148  21619032.80248
  -1179122.19906  24315853.64606   -916977.18847  24315851.02147
   4184189.81606  22358509.14606   3301056.27148  22358507.27148
 08 11 15  0  8  0.0010000  0  9  3  6 13 16 19 21 23 25 31
  -3886391.78107  20874467.78607  -3081157.30748  20874465.92348
  -2130323.22707  20674388.72407  -1656604.08748  20674386.52848
  -3218685.21106  22805893.65306  -2503923.01447  22805891.45847
   1976070.44507  20857731.95007   1555536.60348  20857728.98948
  -3387348.23406  23450177.35606  -2636122.11147  23450174.83347
  -1086450.37106  24165967.85606   -847512.90747  24165965.56347
   -574252.29307  21620253.78607   -446503.78748  21620249.56748
  -1257775.94106  24300886.17706   -978265.83047  24300884.23547
   4265642.89807  22374009.30207   3364526.17048  22374008.08348
 08 11 15  0  8 30.0010000  0  9  3  6 13 16 19 21 23 25 31
  -3943041.32007  20863687.58307  -3125299.79848  20863685.81748
  -2153857.58607  20669910.47407  -1674942.54348  20669908.24748
  -3262453.88306  22797565.09906  -2538028.50747  22797562.74347
   2015541.85907  20865243.10607   1586293.53248  20865240.57148
  -3481777.91406  23432208.89606  -2709703.67047  23432205.66547
  -1095656.46906  24164216.16106   -854686.45847  24164213.23547
   -567252.04706  21621586.12206   -441049.06848  21621581.87648
  -1336416.57405  24285920.90305  -1039544.24647  24285919.47047
   4347377.02707  22389562.93507   3428215.06748  22389561.13048
 08 11 15  0  9  0.0010000  0  9  3  6 13 16 19 21 23 25 31
  -3999267.32407  20852988.06007  -3169112.25848  20852986.52848
  -2176934.38307  20665518.95007  -1692924.46548  20665516.79448
  -3305727.95306  22789329.43506  -2571748.58847  22789328.39247
   2055184.03507  20872786.80207   1617183.52448  20872785.02148
  -3576046.27306  23414270.02106  -2783159.48547  23414267.17747
  -1104483.79306  24162536.09906   -861564.88747  24162534.11847
   -559666.23806  21623029.66106   -435138.05048  21623025.62648
  -1415059.32005  24270955.88805  -1100824.26047  24270954.00147
   4429374.92606  22405166.36406   3492109.53248  22405165.27448
 08 11 15  0  9 30.0010000  0  9  3  6 13 16 19 21 23 25 31
  -4055058.46507  20842371.29407  -3212585.86448  20842369.71648
  -2199543.55507  20661216.52107  -1710542.00448  20661214.77148
  -3348495.46906  22781192.13006  -2605073.90647  22781189.71247
   2095005.86307  20880364.69207   1648213.51848  20880362.28248
  -3670141.22706  23396364.22406  -2856480.18147  23396360.77847
  -1112921.08206  24160930.34106   -868139.42247  24160927.84147
   -551485.09806  21624586.69206   -428763.15048  21624582.13448
  -1493692.99606  24255992.92706  -1162097.19247  24255990.20847
   4511645.66007  22420821.75507   3556216.56448  22420820.94248
 08 11 15  0 10  0.0010000  0  9  3  6 13 16 19 21 23 25 31
  -4110414.79307  20831837.70807  -3255720.63848  20831836.15748
  -2221686.09407  20657002.92707  -1727795.92548  20657001.00548
  -3390756.67606  22773150.06006  -2638004.71447  22773146.73547
   2135004.64806  20887976.33306   1679381.38948  20887973.70448
  -3764062.00406  23378491.45006  -2929665.11847  23378488.12247
  -1120968.47706  24159399.20006   -874410.09847  24159396.47447
   -542710.31306  21626255.84906   -421925.63548  21626251.98948
  -1572317.43805  24241030.43505  -1223363.05346  24241028.11846
   4594187.43407  22436529.37207   3620534.81048  22436527.50148
 08 11 15  0 10 30.0010000  0  9  3  6 13 16 19 21 23 25 31
  -4165341.93407  20821385.38807  -3298521.00248  20821383.78648
  -2243368.81607  20652875.97407  -1744691.54448  20652874.84948
  -3432516.21906  22765202.92706  -2670544.61047  22765200.82947
   2175172.62107  20895619.73907   1710681.11148  20895616.95448
  -3857813.42206  23360651.41906  -3002718.13847  23360647.38847
  -1128631.85206  24157941.41906   -880381.55547  24157938.78247
   -533348.89807  21628037.82507   -414631.04348  21628033.71248
  -1650938.09405  24226070.06005  -1284625.92346  24226066.79046
   4676992.20307  22452286.86407   3685057.98648  22452284.91148
 08 11 15  0 11  0.0010000  0  9  3  6 13 16 19 21 23 25 31
  -4219826.84407  20811016.83307  -3340976.76848  20811015.27448
  -2264579.62106  20648839.70006  -1761219.43448  20648838.08348
  -3473760.39806  22757354.79406  -2702682.94247  22757352.21247
   2215520.72706  20903297.82506   1742121.17448  20903295.39948
  -3951381.63306  23342845.34906  -3075628.40747  23342842.35347
  -1135898.11706  24156558.21606   -886043.54947  24156555.24347
   -523389.29706  21629933.01306   -406870.30848  21629928.72048
  -1729541.66405  24211112.14605  -1345875.40247  24211109.98547
   4760071.13706  22468095.97406   3749794.77948  22468094.17348
 08 11 15  0 11 30.0010000  0  9  3  6 13 16 19 21 23 25 31
  -4273863.25407  20800734.59107  -3383083.05448  20800732.43848
  -2285313.03106  20644894.98106  -1777375.34748  20644893.37648
  -3514481.96506  22749605.84906  -2734414.04547  22749602.79447
   2256053.37507  20911010.83307   1773705.04548  20911008.58348
  -4044759.25806  23325076.16106  -3148390.10147  23325072.70447
  -1142760.82406  24155252.34906   -891391.13047  24155249.75947
   -512826.69906  21631943.25506   -398639.71648  21631938.91148
  -1808121.38705  24196159.07505  -1407106.30546  24196155.56346
   4843428.75007  22483958.52807   3814748.73348  22483957.03648
 08 11 15  0 12  0.0010000  0  9  3  6 13 16 19 21 23 25 31
  -4327464.96507  20790534.14607  -3424850.60848  20790532.15748
  -2305584.29706  20641037.16906  -1793171.12548  20641035.91948
  -3554695.66806  22741953.50506  -2765749.40647  22741950.41547
   2296753.96906  20918755.87206   1805419.78848  20918753.61048
  -4137959.55906  23307340.73906  -3221013.69847  23307336.20447
  -1149234.01206  24154020.74706   -896435.14247  24154017.82947
   -501676.78907  21634064.98107   -389951.47348  21634060.79048
  -1886691.30105  24181207.45005  -1468329.72646  24181203.83346
   4927048.86707  22499871.05207   3879907.24848  22499869.39248
 08 11 15  0 12 30.0010000  0  9  3  6 13 16 19 21 23 25 31
  -4380622.21107  20780419.09907  -3466271.85048  20780417.04848
  -2325384.71107  20637269.70807  -1808600.01748  20637267.98548
  -3594390.37906  22734399.38806  -2796680.34247  22734397.86047
   2337629.91006  20926534.77106   1837271.15048  20926531.66148
  -4230971.82806  23289641.79406  -3293490.77447  23289637.27847
  -1155308.01206  24152864.27806   -901168.14347  24152861.76747
   -489931.25006  21636300.04406   -380799.09248  21636295.43848
  -1965241.20705  24166259.04405  -1529537.39946  24166256.48146
   5010939.51207  22515835.02807   3945276.53648  22515832.85648
 08 11 15  0 13  0.0010000  0  9  3  6 13 16 19 21 23 25 31
  -4433330.09807  20770389.11407  -3507342.93648  20770386.97048
  -2344710.44906  20633591.81006  -1823659.03448  20633589.85348
  -3633561.18006  22726945.21606  -2827203.04947  22726943.99347
   2378684.10506  20934346.77806   1869261.42148  20934344.09148
  -4323790.52706  23271978.63006  -3365816.98947  23271974.99347
  -1160978.10206  24151785.56006   -905586.39647  24151782.67747
   -477587.11706  21638649.01306   -371180.28948  21638644.39648
  -2043766.21104  24151316.54404  -1590725.67446  24151313.80246
   5095102.88307  22531851.17707   4010858.37648  22531849.23948
 08 11 15  0 13 30.0010000  0  9  3  6 13 16 19 21 23 25 31
  -4485595.61307  20760442.41107  -3548069.30548  20760441.01348
  -2363569.30507  20630003.46607  -1838354.24248  20630002.27448
  -3672214.82406  22719590.05206  -2857322.76547  22719587.92747
   2419907.61307  20942191.56007   1901383.65348  20942188.51748
  -4416421.43406  23254351.99706  -3437996.90047  23254348.12247
  -1166250.87506  24150782.85606   -909695.05347  24150780.09947
   -464652.37106  21641110.18506   -361101.29748  21641106.47848
  -2122272.57005  24136378.17705  -1651899.44446  24136375.35346
   5179530.69507  22547917.27807   4076646.25748  22547914.64648
 08 11 15  0 14  0.0010000  0  9  3  6 13 16 19 21 23 25 31
  -4537427.15607  20750579.77107  -3588457.51348  20750578.08748
  -2381970.77007  20626501.81707  -1852693.05148  20626499.48948
  -3710358.02706  22712332.15306  -2887044.74647  22712328.38047
   2461289.69507  20950066.41907   1933629.40048  20950062.73148
  -4508872.07806  23236758.55206  -3510036.32647  23236754.60647
  -1171135.09406  24149852.89606   -913500.92947  24149850.58347
   -451137.35506  21643682.07506   -350570.10848  21643677.71248
  -2200768.48405  24121440.34905  -1713065.08146  24121438.59546
   5264212.57807  22564031.27807   4142632.12748  22564028.72448
 08 11 15  0 14 30.0010000  0  9  3  6 13 16 19 21 23 25 31
  -4588810.43807  20740801.63807  -3628496.43148  20740800.09548
  -2399901.70707  20623089.55207  -1866665.20448  20623088.19648
  -3747977.03106  22705172.91106  -2916358.27347  22705169.97047
   2502842.52307  20957973.10607   1966008.24348  20957970.29848
  -4601127.25806  23219202.87206  -3581923.47747  23219198.68547
  -1175616.50406  24148999.52806   -916992.91447  24148998.56047
   -437029.27307  21646366.79407   -339576.80848  21646362.73548
  -2279239.14105  24106508.00505  -1774211.05547  24106506.58347
   5349160.69507  22580196.48107   4208825.42248  22580194.62248
 08 11 15  0 15  0.0010000  0  9  3  6 13 16 19 21 23 25 31
  -4639728.59007  20731112.32507  -3668172.92048  20731110.71648
  -2417346.11307  20619769.88007  -1880258.24548  20619768.74748
  -3785054.65606  22698117.57506  -2945249.92147  22698114.46247
   2544581.11307  20965916.16107   1998531.79148  20965913.33348
  -4693169.17606  23201687.86406  -3653644.43547  23201684.07147
  -1179678.09406  24148227.45006   -920157.79146  24148225.34146
   -422312.93407  21649166.94207   -328109.54148  21649162.86448
  -2357667.41405  24091583.20805  -1835323.97047  24091582.35347
   5434389.97707  22596415.14607   4275237.82748  22596413.27148
 08 11 15  0 15 30.0010000  0  9  3  6 13 16 19 21 23 25 31
  -4690193.27007  20721509.11407  -3707496.03248  20721507.83348
  -2434316.96107  20616540.58307  -1893482.28248  20616538.90348
  -3821601.53106  22691163.02806  -2973727.98247  22691160.29447
   2586491.82006  20973891.24706   2031189.48848  20973888.93148
  -4785008.43006  23184211.59106  -3725207.49247  23184208.00947
  -1183331.57806  24147531.69206   -923004.64146  24147528.94246
   -407001.49607  21652080.65307   -316178.57048  21652076.57148
  -2436064.47305  24076664.85605  -1896412.54647  24076663.11047
   5519886.84806  22612684.52806   4341858.73348  22612682.61448
 08 11 15  0 16  0.0010000  0  9  3  6 13 16 19 21 23 25 31
  -4740194.87507  20711994.16107  -3746458.33248  20711992.91148
  -2450805.57807  20613402.77107  -1906330.56048  20613401.52848
  -3857607.57006  22684311.26306  -3001784.66847  22684307.23947
   2628581.90606  20981900.63806   2063986.93348  20981898.20848
  -4876634.43006  23166775.61406  -3796604.37047  23166772.09147
  -1186567.35906  24146916.79406   -925526.04346  24146914.49746
   -391087.10907  21655109.18507   -303777.77648  21655105.37248
  -2514420.26205  24061754.78605  -1957469.01847  24061752.24347
   5605659.05506  22629006.52106   4408694.18148  22629004.93148
 08 11 15  0 16 30.0010000  0  9  3  6 13 16 19 21 23 25 31
  -4789744.36307  20702564.92707  -3785068.31048  20702563.72048
  -2466824.32807  20610354.87207  -1918812.69048  20610352.91548
  -3893083.78106  22677560.63806  -3029428.46447  22677556.84147
   2670838.38706  20989942.20806   2096914.02548  20989939.60648
  -4968057.44106  23149378.66106  -3867843.09247  23149374.31047
  -1189396.72306  24146378.38806   -927730.72546  24146375.97846
   -374582.69107  21658250.45807   -290917.19648  21658246.37248
  -2592745.67605  24046849.71605  -2018501.79547  24046847.17747
   5691693.26206  22645378.09906   4475733.79348  22645376.73148
 08 11 15  0 17  0.0010000  0  9  3  6 13 16 19 21 23 25 31
  -4838830.03907  20693224.53607  -3823316.89748  20693222.95448
  -2482362.10907  20607398.27807  -1930920.08048  20607395.89248
  -3928017.90206  22670912.56706  -3056649.87247  22670909.71647
   2713271.29706  20998016.56006   2129978.63848  20998013.40348
  -5059264.32806  23132022.65306  -3938913.41147  23132018.41947
  -1191807.96906  24145918.81706   -929609.61846  24145916.28646
   -357477.95707  21661505.37207   -277588.86448  21661501.18148
  -2671027.86305  24031952.51305  -2079500.91147  24031950.25147
   5777999.77006  22661801.58306   4542985.58648  22661799.93148
 08 11 15  0 17 30.0010000  0  9  3  6 13 16 19 21 23 25 31
  -4887450.58606  20683972.59906  -3861203.04448  20683970.41148
  -2497419.08207  20604532.62207  -1942652.77848  20604530.86848
  -3962407.94506  22664368.23106  -3083447.31247  22664365.41947
   2755879.55506  21006125.00506   2163179.85648  21006122.34148
  -5150253.44906  23114707.39606  -4009813.99647  23114703.88847
  -1193799.79306  24145539.96606   -931161.66546  24145538.02446
   -339773.51207  21664874.13807   -263793.20548  21664869.63048
  -2749265.34405  24017065.14605  -2140465.14947  24017062.29447
   5864577.51606  22678276.80206   4610448.73748  22678274.98948
 08 11 15  0 18  0.0010000  0  9  3  6 13 16 19 21 23 25 31
  -4935619.00807  20674806.42707  -3898736.88048  20674804.97448
  -2512009.06307  20601756.32507  -1954021.60248  20601754.26748
  -3996266.75806  22657925.06706  -3109830.79947  22657922.95847
   2798648.25006  21014263.56706   2196506.10848  21014261.27148
  -5241036.45706  23097432.70806  -4080554.01647  23097429.28247
  -1195385.06306  24145238.18506   -932396.93546  24145236.06046
   -321483.62907  21668354.46607   -249541.36748  21668350.49348
  -2827470.43805  24002182.63005  -2201404.15347  24002180.66147
   5951412.16007  22694801.43507   4678112.06648  22694799.33348
 08 11 15  0 18 30.0010000  0  9  3  6 13 16 19 21 23 25 31
  -4983317.37907  20665729.63007  -3935904.43148  20665727.92748
  -2526115.41407  20599071.63007  -1965013.55948  20599070.23148
  -4029576.74206  22651586.50506  -3135786.65247  22651584.16947
   2841593.42207  21022435.56707   2229969.86848  21022433.00148
  -5331594.50006  23080200.39606  -4151118.70347  23080196.17347
  -1196546.16406  24145017.20806   -933301.66747  24145014.80647
   -302592.29707  21671949.15307   -234820.84848  21671944.09548
  -2905624.87503  23987310.41903  -2262303.72847  23987308.40347
   6038519.16006  22711377.16106   4745987.61648  22711375.24748
 08 11 15  0 19  0.0010000  0  9  3  6 13 16 19 21 23 25 31
  -5030559.01207  20656739.95807  -3972716.09148  20656738.64948
  -2539752.23807  20596476.94207  -1975639.65648  20596474.99748
  -4062349.52306  22645350.15306  -3161323.89947  22645347.69647
   2884699.90207  21030638.63807   2263559.32948  21030636.66948
  -5421939.70306  23063007.42706  -4221517.53247  23063003.92347
  -1197296.36306  24144873.95806   -933886.27646  24144871.04846
   -283114.57407  21675656.11407   -219643.42348  21675651.05248
  -2983741.21904  23972445.20804  -2323173.54847  23972443.93547
   6125883.36306  22728001.74706   4814063.57748  22728000.14948
 08 11 15  0 19 30.0010000  0  9  3  6 13 16 19 21 23 25 31
  -5077318.42607  20647841.55207  -4009151.97948  20647840.06048
  -2552895.84007  20593975.64607  -1985881.41348  20593973.84548
  -4094559.70306  22639220.77806  -3186422.73347  22639217.73547
   2927991.03507  21038876.64607   2297292.66548  21038874.41548
  -5512045.94906  23045860.58306  -4291730.19247  23045857.16147
  -1197610.54306  24144814.30206   -934131.01146  24144811.64646
   -263027.09807  21679478.22407   -203990.86848  21679473.48148
  -3061793.67605  23957592.66105  -2383993.61747  23957590.34147
   6213528.18406  22744680.13006   4882358.20648  22744677.59548
 08 11 15  0 20  0.0010000  0  9  3  6 13 16 19 21 23 25 31
  -5123607.50807  20639033.23907  -4045221.39748  20639031.90748
  -2565558.56307  20591566.23107  -1995748.47548  20591564.10648
  -4126218.88706  22633196.20806  -3211092.25447  22633193.27147
   2971453.02707  21047147.44207   2331159.16048  21047144.78648
  -5601923.43406  23028757.66906  -4361764.57147  23028753.68547
  -1197500.45306  24144835.82506   -934045.24046  24144832.51746
   -242343.15207  21683414.81007   -187873.51648  21683409.81348
  -3139793.06305  23942749.59105  -2444772.40147  23942747.89247
   6301440.19106  22761408.91106   4950861.05548  22761407.11848
 08 11 15  0 20 30.0010000  0  9  3  6 13 16 19 21 23 25 31
  -5169439.56307  20630311.77107  -4080934.67948  20630310.47048
  -2577754.68807  20589245.15307  -2005251.95248  20589243.80648
  -4157339.67206  22627273.59906  -3235342.18347  22627271.27147
   3015071.13707  21055447.35607   2365147.29848  21055445.13048
  -5691584.76606  23011695.66906  -4431630.56547  23011691.38847
  -1196978.92606  24144934.74706   -933638.85246  24144931.47046
   -221077.56607  21687460.73907   -171302.95048  21687457.32948
  -3217752.04305  23927914.63005  -2505519.62147  23927912.73147
   6389604.29706  22778185.63006   5019560.36248  22778184.16948
 08 11 15  0 21  0.0010000  0  9  3  6 13 16 19 21 23 25 31
  -5214796.25407  20621680.57507  -4116277.54748  20621679.32548
  -2589467.35907  20587016.33307  -2014378.70548  20587014.74748
  -4187903.57806  22621457.49706  -3259158.19647  22621455.34547
   3058861.90607  21063780.84907   2399269.94748  21063777.86048
  -5781010.60206  22994678.43506  -4501313.03047  22994674.28647
  -1196028.10506  24145115.90306   -932897.93146  24145113.37246
   -199214.14107  21691622.06007   -154266.53648  21691617.34548
  -3295651.63705  23913090.73905  -2566220.60047  23913089.41547
   6478036.70306  22795014.13806   5088468.69247  22795012.12647
 08 11 15  0 21 30.0010000  0  9  3  6 13 16 19 21 23 25 31
  -5259679.47307  20613139.28607  -4151251.47448  20613138.17348
  -2600699.18007  20584878.94207  -2023130.76948  20584877.24348
  -4217912.13706  22615747.12206  -3282541.52347  22615744.64247
   3102821.43406  21072145.99706   2433524.10948  21072143.35348
  -5870201.43006  22977706.54406  -4570812.35247  22977702.85647
  -1194649.69906  24145378.81706   -931823.82746  24145376.05646
   -176756.25407  21695895.74707   -136766.90848  21695890.98148
  -3373493.04706  23898277.71606  -2626876.19447  23898276.25947
   6566733.93806  22811893.41106   5157583.39248  22811891.70448
 08 11 15  0 22  0.0010000  0  9  3  6 13 16 19 21 23 25 31
  -5304080.48807  20604690.17707  -4185849.67648  20604689.44248
  -2611442.80507  20582834.70807  -2031502.41648  20582833.22848
  -4247356.37106  22610144.21606  -3305485.07847  22610143.20047
   3146956.48407  21080544.46607   2467915.05948  21080541.47048
  -5959147.79706  22960780.06706  -4640121.18547  22960776.31347
  -1192835.41006  24145723.41106   -930410.07547  24145722.09947
   -153697.20707  21700283.71607   -118798.80948  21700279.31048
  -3451266.78506  23883477.95806  -2687479.12147  23883476.75547
   6655702.34806  22828823.21606   5226909.39048  22828821.11848
 08 11 15  0 22 30.0010000  0  9  3  6 13 16 19 21 23 25 31
  -5347987.60507  20596334.84107  -4220062.98948  20596333.66548
  -2621687.46907  20580885.26307  -2039485.27248  20580883.95848
  -4276223.81606  22604650.55206  -3327979.20147  22604648.82947
   3191277.65207  21088978.34907   2502451.04448  21088976.29048
  -6047836.78906  22943902.72406  -4709229.45947  22943899.61847
  -1190573.23006  24146153.65306   -928647.34247  24146151.63847
   -130026.91407  21704788.06007   -100354.45248  21704783.71248
  -3528960.35506  23868693.62206  -2748019.57847  23868692.18147
   6744952.02006  22845806.26306   5296454.55848  22845805.04048
 08 11 15  0 23  0.0010000  0  9  3  6 13 16 19 21 23 25 31
  -5391431.09007  20588067.75507  -4253915.05048  20588066.33348
  -2631464.56307  20579024.48907  -2047103.78448  20579022.96648
  -4304544.69106  22599261.94206  -3350047.41747  22599259.54847
   3235752.46907  21097441.88807   2537106.75348  21097439.14248
  -6136297.48406  22927069.47406  -4778159.84747  22927066.16147
  -1187893.71506  24146663.97406   -926559.40046  24146661.05246
   -105777.49207  21709402.41107    -81458.80548  21709397.82548
  -3606603.24206  23853918.49706  -2808520.53347  23853917.18547
   6834451.23406  22862837.39606   5366194.15648  22862836.72848
 08 11 15  0 23 30.0010000  0  9  3  6 13 16 19 21 23 25 31
  -5434394.98407  20579892.28607  -4287393.39948  20579890.71248
  -2640759.18807  20577255.85607  -2054346.34248  20577254.58348
  -4332301.89506  22593979.60606  -3371676.40947  22593977.35647
   3280395.30907  21105936.56007   2571893.38748  21105934.41948
  -6224512.67206  22910282.75506  -4846898.94347  22910278.33347
  -1184780.71505  24147255.23105   -924133.67246  24147253.50946
    -80934.95307  21714129.45007    -62100.98648  21714125.55248
  -3684178.50405  23839156.43505  -2868968.78347  23839154.61847
   6924213.84406  22879919.25506   5436139.01348  22879917.46248
 08 11 15  0 24  0.0010000  0  9  3  6 13 16 19 21 23 25 31
  -5476887.81307  20571805.97407  -4320504.69148  20571805.10348
  -2649581.42607  20575577.37207  -2061220.81848  20575575.21248
  -4359504.87106  22588803.41106  -3392873.50747  22588800.63847
   3325195.34807  21114461.93507   2606802.49048  21114459.53248
  -6312490.32006  22893541.11406  -4915452.96647  22893537.41947
  -1181243.46506  24147928.77106   -921377.38446  24147926.20446
    -55509.67207  21718967.34907    -42289.11348  21718963.51748
  -3761694.45105  23824405.84105  -2929370.83047  23824404.45047
   7014228.99606  22897047.91106   5506280.69048  22897046.84148
 08 11 15  0 24 30.0010000  0  9  3  6 13 16 19 21 23 25 31
  -5518904.36707  20563810.65307  -4353244.84848  20563809.45848
  -2657926.93807  20573989.09907  -2067723.79848  20573987.31348
  -4386147.64106  22583733.40306  -3413634.09747  22583730.35347
   3370156.54307  21123017.82507   2641837.17348  21123015.23148
  -6400223.76606  22876846.22406  -4983816.63247  22876842.57147
  -1177276.32806  24148684.02106   -918286.12246  24148680.83746
    -29498.40607  21723917.69207    -22020.60648  21723913.35348
  -3839144.71506  23809667.23906  -2989721.62247  23809666.09947
   7104500.43406  22914226.50506   5576622.02847  22914225.22047
 08 11 15  0 25  0.0010000  0  9  3  6 13 16 19 21 23 25 31
  -5560449.61707  20555904.70807  -4385617.77648  20555903.17748
  -2665801.39807  20572490.38807  -2073859.75248  20572488.48948
  -4412234.48806  22578768.99706  -3433961.49947  22578766.84947
   3415272.48407  21131603.29407   2676992.45548  21131600.65748
  -6487716.41006  22860196.62206  -5051992.69847  22860193.29447
  -1172884.27006  24149519.65306   -914863.74346  24149516.35346
     -2907.68407  21728977.92707     -1300.56048  21728973.52148
  -3916532.96506  23794940.84906  -3050024.14947  23794939.13447
   7195021.68806  22931452.48106   5647158.03848  22931450.59548
 08 11 15  0 25 30.0010000  0  9  3  6 13 16 19 21 23 25 31
  -5601490.26207  20548095.25507  -4417597.49048  20548093.31048
  -2673173.16007  20571087.77807  -2079603.97848  20571086.17748
  -4437732.02706  22573917.13006  -3453829.72647  22573914.87247
   3460574.61307  21140224.11407   2712292.80448  21140220.72848
  -6574934.41406  22843599.97406  -5119954.73948  22843596.38448
  -1168034.50006  24150442.72406   -911084.69047  24150440.23547
     24293.30907  21734153.84907     19894.99648  21734149.14948
  -3993825.42206  23780232.73106  -3110252.02747  23780231.18147
   7285823.81606  22948731.52106   5717912.94448  22948728.78248
 08 11 15  0 26  0.0010000  0  9  3  6 13 16 19 21 23 25 31
  -5642041.78907  20540378.42707  -4449196.09248  20540376.91948
  -2680058.42207  20569777.20007  -2084969.12048  20569775.84948
  -4462656.00806  22569174.00506  -3473251.03847  22569172.59947
   3506046.10507  21148876.70807   2747725.14448  21148874.21648
  -6661891.57806  22827052.23906  -5187713.56147  22827048.27847
  -1162741.80906  24151450.54406   -906960.53347  24151448.19647
     52088.32007  21739443.22407     41553.43848  21739438.41548
  -4071036.25406  23765539.93506  -3170416.31547  23765538.56347
   7376889.85506  22966061.16106   5788873.45948  22966058.32948
 08 11 15  0 26 30.0010000  0  9  3  6 13 16 19 21 23 25 31
  -5682105.49207  20532754.43507  -4480414.55548  20532752.39648
  -2686459.61307  20568558.95807  -2089957.04348  20568557.65348
  -4487006.07406  22564540.05206  -3492225.09347  22564538.80647
   3551684.01207  21157561.40307   2783287.14948  21157558.60348
  -6748588.19906  22810554.38806  -5255269.37148  22810550.97048
  -1157008.14106  24152541.06006   -902492.72747  24152538.31347
     80473.86307  21744845.14607     63672.04048  21744840.61048
  -4148166.00405  23750862.06005  -3230517.38346  23750860.88846
   7468216.48806  22983440.19206   5860037.01248  22983438.58748
 08 11 15  0 27  0.0010000  0  9  3  6 13 16 19 21 23 25 31
  -5721688.17607  20525222.12207  -4511258.21348  20525220.81048
  -2692384.69107  20567431.63807  -2094573.99648  20567429.50948
  -4510789.08606  22560015.07506  -3510757.30147  22560012.34947
   3597480.12907  21166276.08307   2818972.40948  21166273.06748
  -6835029.79706  22794105.17706  -5322626.45848  22794101.81348
  -1150840.02306  24153715.23106   -897686.43047  24153711.65347
    109440.48007  21750356.74707     86243.40948  21750352.76748
  -4225220.30106  23736199.54406  -3290559.68947  23736198.46247
   7559795.33606  23000866.25506   5931397.11448  23000865.36448
 08 11 15  0 27 30.0010000  0  9  3  6 13 16 19 21 23 25 31
  -5760781.69107  20517782.58307  -4541720.67748  20517781.10348
  -2697826.66007  20566396.22407  -2098814.46948  20566394.89248
  -4533996.94906  22555598.53606  -3528841.32447  22555596.16547
   3643440.84007  21175022.29407   2854785.97848  21175019.29448
  -6921207.31306  22777705.74706  -5389777.71647  22777702.44247
  -1144229.82806  24154972.77106   -892535.63747  24154970.57947
    138994.86707  21755981.06707    109272.80948  21755976.56748
  -4302190.11306  23721552.81706  -3350536.14347  23721551.13047
   7651632.50806  23018342.91906   6002958.50748  23018341.38048
 08 11 15  0 28  0.0010000  0  9  3  6 13 16 19 21 23 25 31
  -5799397.87107  20510434.48907  -4571811.20348  20510432.75948
  -2702798.23407  20565450.39607  -2102688.43648  20565448.95848
  -4556641.16006  22551289.04406  -3546486.17547  22551286.41547
   3689552.88707  21183796.63807   2890717.43848  21183794.50548
  -7007130.95706  22761355.33306  -5456731.21547  22761351.56747
  -1137188.54306  24156312.34106   -887048.96747  24156309.97047
    169123.69507  21761714.35607    132749.80848  21761710.10648
  -4379086.03506  23706919.59106  -3410455.05047  23706918.08347
   7743714.73806  23035865.56706   6074710.84248  23035862.66948
 08 11 15  0 28 30.0010000  0  9  3  6 13 16 19 21 23 25 31
  -5837536.94907  20503176.81007  -4601529.94048  20503175.40348
  -2707301.05507  20564593.28607  -2106197.12748  20564591.64248
  -4578721.84006  22547087.33306  -3563691.91147  22547085.32547
   3735814.43807  21192600.48107   2926765.38548  21192597.94648
  -7092799.87506  22745053.16906  -5523486.19648  22745048.75148
  -1129717.14106  24157734.33306   -881227.09747  24157732.73147
    199824.16807  21767555.95807    156672.25948  21767552.16948
  -4455907.49606  23692301.35606  -3470315.89047  23692299.64247
   7836039.71506  23053434.54406   6146652.38247  23053431.65747
 08 11 15  0 29  0.0010000  0  9  3  6 13 16 19 21 23 25 31
  -5875171.36307  20496015.08307  -4630855.45348  20496013.73948
  -2711308.29707  20563831.09107  -2109319.65148  20563829.35648
  -4600210.62506  22542998.34106  -3580436.42347  22542996.00947
   3782251.92207  21201437.45007   2962950.41648  21201433.78648
  -7178185.23806  22728804.76306  -5590020.25248  22728801.26748
  -1121788.28106  24159242.87206   -875048.79446  24159240.59546
    231122.53507  21773511.92707    181060.57548  21773508.65748
  -4532625.44106  23677702.53606  -3530096.10347  23677700.64247
   7928633.55906  23071054.13806   6218803.36947  23071052.31747
 08 11 15  0 29 30.0010000  0  9  3  6 13 16 19 21 23 25 31
  -5912311.22307  20488947.58307  -4659795.59848  20488945.64648
  -2714831.41007  20563160.26307  -2112064.92548  20563158.72048
  -4621117.43806  22539019.61406  -3596727.45447  22539017.21647
   3828853.38307  21210304.91907   2999263.22148  21210301.89248
  -7263295.91006  22712608.59106  -5656340.20448  22712605.07948
  -1113411.62106  24160837.08306   -868521.51446  24160833.91546
    263006.24607  21779579.17707    205904.99848  21779575.92748
  -4609249.19506  23663120.91906  -3589802.91847  23663119.50547
   8021484.52306  23088723.41106   6291154.74547  23088722.41147
 08 11 15  0 30  0.0010000  0  9  3  6 13 16 19 21 23 25 31
  -5948967.60907  20481971.89607  -4688359.00648  20481970.49348
  -2717882.27307  20562579.59107  -2114442.22448  20562577.81748
  -4641453.34006  22535149.90306  -3612573.60347  22535147.81747
   3875606.91807  21219202.11407   3035694.52848  21219198.69648
  -7348141.34406  22696463.07506  -5722453.50348  22696459.48548
  -1104598.37506  24162514.18506   -861654.05846  24162511.57146
    295462.60907  21785755.41907    231195.65248  21785752.23148
  -4685788.33206  23648556.52106  -3649443.78947  23648554.84547
   8114579.55906  23106438.78606   6363696.29547  23106437.14647
 08 11 15  0 30 30.0010000  0  9  3  6 13 16 19 21 23 25 31
  -5985142.37907  20475088.49707  -4716547.12748  20475086.64248
  -2720464.18007  20562088.20007  -2116454.08748  20562086.92748
  -4661219.50806  22531388.73906  -3627975.83447  22531386.71647
   3922508.92607  21228127.25507   3072241.53048  21228124.22848
  -7432722.79306  22680368.14606  -5788361.10048  22680364.21248
  -1095350.85506  24164274.08306   -854448.16546  24164271.02846
    328487.35507  21792040.13007    256929.21648  21792035.95048
  -4762243.87906  23634007.79406  -3709019.53047  23634005.69647
   8207914.93806  23124200.08306   6436425.15947  23124197.52147
 08 11 15  0 31  0.0010000  0  9  3  6 13 16 19 21 23 25 31
  -6020829.97707  20468297.13807  -4744355.64148  20468296.25948
  -2722572.64807  20561687.20807  -2118097.04348  20561685.79448
  -4680410.84806  22527737.03606  -3642930.15047  22527734.33347
   3969563.57807  21237081.37207   3108907.47248  21237079.07148
  -7517033.22306  22664324.17706  -5854057.50848  22664320.75548
  -1085663.53906  24166118.15306   -846899.62546  24166114.78246
    362084.68807  21798433.60607    283108.94448  21798429.26348
  -4838608.89806  23619475.73106  -3768524.71247  23619473.84147
   8301494.62506  23142007.59106   6509344.37747  23142005.92347
 08 11 15  0 31 30.0010000  0  9  3  6 13 16 19 21 23 25 31
  -6056003.98007  20461603.81007  -4771763.93548  20461602.20848
  -2724182.22307  20561380.92707  -2119351.24448  20561379.02148
  -4698999.91406  22524199.74706  -3657415.13347  22524196.89647
   4016796.32407  21246069.54407   3145712.20848  21246066.16148
  -7601044.62906  22648336.93506  -5919520.90647  22648333.43847
  -1075509.62506  24168050.06706   -838987.47546  24168047.00146
    396278.71907  21804940.77807    309753.63548  21804935.81748
  -4914855.80506  23604966.19206  -3827937.85147  23604964.43147
   8395343.59806  23159866.38806   6582473.43047  23159863.72047
 08 11 15  0 32  0.0010000  0  9  3  6 13 16 19 21 23 25 31
  -6090685.87107  20455003.96607  -4798788.76648  20455002.75148
  -2725315.57407  20561165.02807  -2120234.36648  20561163.55248
  -4717008.49206  22520772.98906  -3671447.78447  22520769.75547
   4064183.74607  21255087.31007   3182637.46648  21255084.12248
  -7684777.23006  22632403.70006  -5984767.04048  22632400.00548
  -1064910.59806  24170066.82506   -830728.55347  24170064.31347
    431046.11707  21811556.51307    336845.12248  21811551.80248
  -4991004.69106  23590476.10606  -3887274.63547  23590474.46647
   8489438.54706  23177772.60606   6655794.14447  23177770.15747
 08 11 15  0 32 30.0010000  0  9  3  6 13 16 19 21 23 25 31
  -6124878.75807  20448497.31707  -4825432.57548  20448495.96648
  -2725976.62907  20561039.60607  -2120749.49448  20561037.54448
  -4734438.69906  22517455.82506  -3685029.78247  22517452.57147
   4111722.28907  21264132.82507   3219680.47148  21264130.96248
  -7768232.76206  22616522.13006  -6049797.31548  22616518.66148
  -1053869.57806  24172168.04406   -822125.17646  24172165.27846
    466382.17206  21818280.39606    364379.71248  21818276.16148
  -5067057.17606  23576003.11406  -3946536.30147  23576001.59147
   8583774.62106  23195723.84106   6729302.71247  23195721.66547
 08 11 15  0 33  0.0010000  0  9  3  6 13 16 19 21 23 25 31
  -6158565.38307  20442087.18507  -4851681.88048  20442084.73948
  -2726149.24607  20561006.87207  -2120883.97948  20561005.04848
  -4751273.63706  22514252.16106  -3698147.91047  22514249.09547
   4159427.59807  21273211.14607   3256853.43648  21273208.36448
  -7851392.69506  22600697.59106  -6114597.21148  22600694.16548
  -1042369.76206  24174356.04406   -813164.32847  24174353.64647
    502301.47707  21825115.83307    392368.76448  21825111.77148
  -5142994.89106  23561552.54406  -4005708.53947  23561550.54847
   8678367.84006  23213724.85606   6803011.70147  23213722.86047
 08 11 15  0 33 30.0010000  0  9  3  6 13 16 19 21 23 25 31
  -6191751.47707  20435771.74707  -4877541.18448  20435769.84148
  -2725840.34007  20561065.36407  -2120643.28148  20561063.63048
  -4767518.47706  22511160.52806  -3710806.22347  22511158.61047
   4207292.82007  21282319.66907   3294151.01548  21282316.66548
  -7934261.30906  22584928.04406  -6179170.13447  22584923.77147
  -1030416.64805  24176630.72405   -803850.21647  24176629.13447
    538796.91407  21832060.42707    420806.74848  21832056.13048
  -5218822.00406  23547123.47406  -4064794.59447  23547121.74347
   8773210.55106  23231771.95006   6876915.07247  23231770.31047
 08 11 15  0 34  0.0010000  0  9  3  6 13 16 19 21 23 25 31
  -6224430.72707  20429553.74707  -4903005.53548  20429551.97048
  -2725045.11707  20561216.62207  -2120023.63048  20561214.90748
  -4783166.99606  22508182.47406  -3722999.89547  22508180.90347
   4255322.49607  21291459.98107   3331576.71048  21291456.84548
  -8016831.52306  22569215.63806  -6243510.55448  22569212.08348
  -1018005.04706  24178992.99706   -794178.79647  24178989.76747
    575871.98007  21839115.69207    449696.38248  21839112.43148
  -5294531.52306  23532716.80206  -4123789.02747  23532714.95847
   8868306.80506  23249868.71606   6951016.02247  23249865.79847
 08 11 15  0 34 30.0010000  0  9  3  6 13 16 19 21 23 25 31
  -6256609.77707  20423429.82507  -4928080.11648  20423428.09548
  -2723771.28507  20561459.16907  -2119031.02348  20561457.65748
  -4798225.78906  22505317.13806  -3734734.01247  22505315.83747
   4303508.93407  21300629.23907   3369124.58248  21300626.38048
  -8099108.42606  22553558.41106  -6307622.37748  22553555.32548
  -1005141.21906  24181440.99706   -784155.06847  24181437.55247
    613518.37907  21846280.38807    479031.22348  21846275.87648
  -5370128.60906  23518330.09906  -4182695.84647  23518328.85347
   8963648.52306  23268011.71606   7025308.24947  23268010.24347
 08 11 15  0 35  0.0010000  0  9  3  6 13 16 19 21 23 25 31
  -6288317.94507  20417395.27807  -4952787.77348  20417394.41148
  -2722048.63707  20561786.98907  -2117688.68348  20561785.43548
  -4812723.44506  22502558.43506  -3746030.91447  22502556.55647
   4351821.95307  21309822.38807   3406771.09748  21309820.25148
  -8181119.52707  22537952.42707  -6371527.12148  22537948.94248
   -991853.51606  24183969.12206   -773800.99147  24183966.73947
    651705.10207  21853546.26307    508787.12548  21853541.95848
  -5445640.57806  23503961.18506  -4241536.32547  23503959.11447
   9059205.24606  23286195.50506   7099768.01347  23286194.09547
 08 11 15  0 35 30.0010000  0  9  3  6 13 16 19 21 23 25 31
  -6319507.55507  20411460.59107  -4977091.36248  20411459.50148
  -2719830.42207  20562209.11407  -2115960.20348  20562207.06748
  -4826612.01206  22499915.75506  -3756853.19047  22499913.78647
   4400308.64107  21319049.77107   3444552.90748  21319046.46648
  -8262815.68406  22522406.09106  -6435186.46348  22522402.24748
   -978094.39106  24186587.15306   -763079.64946  24186584.96646
    690478.02306  21860924.09106    538999.77148  21860920.25148
  -5521018.04306  23489617.39606  -4300271.99947  23489615.73547
   9155023.42606  23304428.59906   7174431.48747  23304427.08747
 08 11 15  0 36  0.0010000  0  9  3  6 13 16 19 21 23 25 31
  -6350163.23007  20405627.18507  -5000978.90848  20405625.72048
  -2717103.11707  20562728.02107  -2113835.03748  20562725.64648
  -4839876.49606  22497391.22406  -3767189.14147  22497389.91947
   4448982.39107  21328312.06707   3482480.51048  21328308.91548
  -8344180.76606  22506922.97406  -6498587.83548  22506919.59548
   -963849.64506  24189297.71606   -751979.83447  24189294.56047
    729849.96907  21868417.14607    569679.19748  21868412.66148
  -5596245.09406  23475302.09906  -4358890.46647  23475300.52147
   9251115.96506  23322714.27806   7249308.75347  23322713.29447
 08 11 15  0 36 30.0010000  0  9  3  6 13 16 19 21 23 25 31
  -6380324.93807  20399887.68507  -5024481.54148  20399886.05248
  -2713907.63307  20563335.85607  -2111345.05048  20563334.15348
  -4852556.62106  22494978.57506  -3777069.76647  22494976.67347
   4497802.36707  21337602.11407   3520522.05948  21337599.05648
  -8425253.19506  22491495.25506  -6561761.12048  22491491.95048
   -949159.05506  24192093.27106   -740532.60147  24192090.31347
    769778.36307  21876015.54407    600792.23448  21876010.61848
  -5671359.92606  23461008.40306  -4417421.49547  23461006.51747
   9347441.18006  23341044.87206   7324367.34347  23341043.10647
 08 11 15  0 37  0.0010000  0  9  3  6 13 16 19 21 23 25 31
  -6410002.44907  20394240.09107  -5047606.88348  20394238.25548
  -2710254.17207  20564031.04407  -2108498.19748  20564029.49748
  -4864661.16406  22492675.22406  -3786501.86847  22492673.41547
   4546758.38707  21346918.07507   3558669.59848  21346915.34148
  -8506040.65206  22476122.16106  -6624712.38448  22476117.58348
   -934031.58606  24194972.73906   -728744.96847  24194969.33347
    810252.54307  21883717.09907    632330.54548  21883712.87248
  -5746370.23406  23446734.44206  -4475871.08147  23446732.89647
   9443988.50406  23359416.90306   7399598.97348  23359416.00548
 08 11 15  0 37 30.0010000  0  9  3  6 13 16 19 21 23 25 31
  -6439177.73807  20388688.35607  -5070340.87748  20388686.23548
  -2706126.12507  20564816.70807  -2105281.53648  20564815.00948
  -4876172.35906  22490484.71606  -3795471.62447  22490482.72047
   4595867.09807  21356263.24707   3596936.10248  21356259.49748
  -8586523.90606  22460806.48906  -6687426.58748  22460802.05648
   -918449.81306  24197937.42706   -716603.32147  24197934.52147
    851288.22307  21891525.91107    664306.37548  21891522.13848
  -5821256.66006  23432484.35606  -4534224.12447  23432481.73947
   9540774.17606  23377834.81706   7475016.33647  23377833.22447
 08 11 15  0 38  0.0010000  0  9  3  6 13 16 19 21 23 25 31
  -6467841.71507  20383233.69207  -5092676.44648  20383232.15348
  -2701515.56607  20565694.31007  -2101688.88948  20565692.83748
  -4887081.07006  22488408.79406  -3803971.94247  22488406.73547
   4645136.36707  21365638.70807   3635327.72748  21365635.19648
  -8666692.59806  22445550.96606  -6749895.67648  22445547.17748
   -902404.66806  24200990.76306   -704100.58847  24200988.34547
    892892.35207  21899443.09107    696725.15048  21899438.70048
  -5896008.69106  23418259.27806  -4592472.45847  23418256.69247
   9637805.68807  23396299.90307   7550625.28347  23396298.13847
 08 11 15  0 38 30.0010000  0  9  3  6 13 16 19 21 23 25 31
  -6496010.09007  20377873.55207  -5114625.83748  20377872.34148
  -2696439.30507  20566660.06707  -2097733.35948  20566658.41948
  -4897402.98406  22486444.83306  -3812014.99647  22486442.59947
   4694549.52707  21375041.44207   3673831.48648  21375039.10648
  -8746561.12106  22430352.80206  -6812130.90448  22430348.56348
   -885911.83206  24204129.95806   -691249.04747  24204127.35647
    935047.15607  21907465.16907    729573.04448  21907460.31048
  -5970640.52306  23404057.27806  -4650627.14947  23404055.27847
   9735065.52006  23414807.76306   7626412.15147  23414806.34947
 08 11 15  0 39  0.0010000  0  9  3  6 13 16 19 21 23 25 31
  -6523686.60907  20372606.83307  -5136191.93948  20372605.03648
  -2690902.08607  20567713.70807  -2093418.63648  20567712.09948
  -4907141.42206  22484591.25506  -3819603.36947  22484588.74747
   4744101.64807  21384470.90307   3712443.51648  21384468.58348
  -8826131.71907  22415211.10607  -6874133.93848  22415207.09148
   -868975.60906  24207352.48906   -678051.95447  24207349.91547
    977746.43807  21915590.66107    762845.18448  21915586.07548
  -6045154.28106  23389877.58306  -4708689.79047  23389876.19647
   9832548.39106  23433357.62206   7702372.80848  23433356.59148
 08 11 15  0 39 30.0010000  0  9  3  6 13 16 19 21 23 25 31
  -6550850.49607  20367437.93507  -5157358.60948  20367436.20048
  -2684884.32807  20568858.98107  -2088729.46848  20568857.19648
  -4916275.59006  22482853.59906  -3826720.91047  22482850.91547
   4793813.04307  21393931.18507   3751179.65948  21393927.94248
  -8905382.35506  22400130.07506  -6935887.66148  22400126.12648
   -851574.85906  24210663.07506   -664492.90146  24210660.32146
   1021009.12907  21923823.06707    796556.34648  21923818.91148
  -6119527.48006  23375724.83306  -4766642.90947  23375723.31747
   9930273.65206  23451954.55206   7778522.31148  23451953.56348
 08 11 15  0 40  0.0010000  0  9  3  6 13 16 19 21 23 25 31
  -6577508.41807  20362364.81007  -5178131.00448  20362363.18848
  -2678393.55507  20570094.06007  -2083671.71848  20570092.40348
  -4924811.93006  22481228.49706  -3833372.60647  22481227.15747
   4843675.93407  21403419.75507   3790033.85348  21403417.11848
  -8984317.88307  22385108.98907  -6997395.85348  22385105.37248
   -833716.47706  24214061.84906   -650577.31447  24214059.16147
   1064826.57807  21932161.04407    830699.81048  21932156.68548
  -6193765.06606  23361597.27806  -4824490.36847  23361595.79847
  10028233.13706  23470595.66106   7854854.34547  23470593.56347
 08 11 15  0 40 30.0010000  0  9  3  6 13 16 19 21 23 25 31
  -6603652.92607  20357389.61407  -5198503.36748  20357387.73148
  -2671423.42207  20571420.82507  -2078240.44948  20571418.74748
  -4932742.74206  22479719.66106  -3839552.44947  22479718.11447
   4893697.23807  21412938.56707   3829011.47448  21412935.70448
  -9062929.23006  22370149.30206  -7058651.44148  22370145.61048
   -815392.88306  24217548.25506   -636299.18447  24217545.93547
   1109204.25807  21940605.88007    865279.80448  21940601.73948
  -6267857.70305  23347498.50505  -4882224.89147  23347495.57147
  10126433.10206  23489281.87206   7931373.74247  23489279.75147
 08 11 15  0 41  0.0010000  0  9  3  6 13 16 19 21 23 25 31
  -6629288.42607  20352511.43507  -5218479.06048  20352509.91948
  -2663979.48007  20572837.13807  -2072439.97148  20572835.20048
  -4940072.75807  22478324.80207  -3845264.16747  22478323.16947
   4943871.36707  21422485.98107   3868108.18448  21422482.98148
  -9141219.59006  22355251.57506  -7119656.89948  22355247.10648
   -796608.55906  24221123.48906   -621662.07247  24221119.98147
   1154135.53507  21949156.57507    900291.17048  21949151.83748
  -6341808.43406  23333426.49706  -4939848.79547  23333424.45447
  10224866.94906  23508013.23906   8008075.43347  23508011.27847
 08 11 15  0 41 30.0010000  0  9  3  6 13 16 19 21 23 25 31
  -6654403.31307  20347731.59107  -5238049.08448  20347730.74348
  -2656051.17607  20574345.86407  -2066262.07948  20574343.78648
  -4946789.92607  22477047.18507  -3850498.33047  22477044.78247
   4994208.94907  21432064.81707   3907332.26948  21432062.10648
  -9219176.05106  22340416.81706  -7180402.17848  22340413.20848
   -777352.10506  24224786.94206   -606657.04746  24224783.98146
   1199629.87907  21957813.45007    935741.31948  21957809.12248
  -6415603.72306  23319383.15306  -4997351.60447  23319380.88447
  10323545.33206  23526792.30206   8084967.65247  23526790.94647
 08 11 15  0 42  0.0010000  0  9  3  6 13 16 19 21 23 25 31
  -6679012.45707  20343048.94207  -5257225.02748  20343047.32948
  -2647654.29307  20575943.60607  -2059719.05948  20575941.32948
  -4952909.07806  22475882.41106  -3855266.48247  22475880.37647
   5044694.68807  21441672.10607   3946671.77848  21441669.54048
  -9296811.43406  22325643.73906  -7240897.25648  22325639.97848
   -757638.29305  24228538.54405   -591295.62247  24228536.40747
   1245670.30107  21966574.59907    971616.95048  21966570.79048
  -6489256.60206  23305367.96606  -5054743.46147  23305365.38847
  10422451.67606  23545612.97406   8162037.47547  23545611.25547
 08 11 15  0 42 30.0010000  0  9  3  6 13 16 19 21 23 25 31
  -6703112.65607  20338463.08307  -5276004.40248  20338461.23148
  -2638786.69907  20577631.16907  -2052809.23648  20577629.41948
  -4958426.90607  22474831.79407  -3859566.09947  22474830.21247
   5095330.92207  21451308.25507   3986128.57048  21451305.50148
  -9374121.23406  22310931.34106  -7301138.64148  22310927.37248
   -737464.00806  24232377.22406   -575575.44047  24232375.33347
   1292258.28907  21975439.75507   1007919.26848  21975435.89948
  -6562762.08206  23291379.85606  -5112020.47047  23291377.67347
  10521587.84805  23564477.00505   8239286.41947  23564476.25547
 08 11 15  0 43  0.0010000  0  9  3  6 13 16 19 21 23 25 31
  -6726715.14107  20333971.80207  -5294395.94448  20333969.72048
  -2629460.48807  20579405.86407  -2045542.07548  20579404.89248
  -4963354.20706  22473894.20006  -3863405.56547  22473892.56347
   5146105.64507  21460970.02107   4025693.28548  21460967.02448
  -9451115.18407  22296279.92707  -7361133.89848  22296276.53248
   -716840.53905  24236302.05205   -559505.23447  24236299.68847
   1339380.45307  21984406.45007   1044637.82748  21984402.36048
  -6636129.31606  23277418.82506  -5169189.73747  23277417.07547
  10620941.33206  23583384.32506   8316704.66647  23583383.54447
 08 11 15  0 43 30.0010000  0  9  3  6 13 16 19 21 23 25 31
  -6749813.69907  20329576.40307  -5312394.81948  20329574.25548
  -2619670.85207  20581268.62207  -2037913.78148  20581266.56048
  -4967685.20306  22473069.94206  -3866780.35847  22473067.93147
   5197024.19107  21470659.51307   4065370.07948  21470656.31748
  -9527785.67207  22281690.60607  -7420877.12948  22281687.05648
   -695762.02006  24240313.62206   -543080.38746  24240310.55646
