     2              OBSERVATION DATA                        RINEX VERSION / TYPE
DAT2RINW 3.10 001   .                   16NOV08 14:21:19    PGM / RUN BY / DATE 
.                   .                                       OBSERVER / AGENCY   
0220363320          TRIMBLE 5700        Nav 2.23 Sig 2.23   REC # / TYPE / VERS 
0                   TRM39105.00     NONE                    ANT # / TYPE        
----------------------------------------------------------- COMMENT             
Offset from BOTTOM OF ANTENNA to PHASE CENTER is  46.0 mm   COMMENT             
----------------------------------------------------------- COMMENT             
0230                                                        MARKER NAME
0230                                                        MARKER NUMBER       
 -3063637.2332  4049883.6379  3846376.3335                  APPROX POSITION XYZ 
        1.4473        0.0000        0.0000                  ANTENNA: DELTA H/E/N
*** Above antenna height is from mark to BOTTOM OF ANTENNA. COMMENT             
----------------------------------------------------------- COMMENT             
Note: The above offsets are CORRECTED.                      COMMENT             
Raw Offsets: H=      1.4890 E=      0.0000 N=      0.0000   COMMENT             
----------------------------------------------------------- COMMENT             
     1     1     0                                          WAVELENGTH FACT L1/2
     4    L1    C1    L2    P2                              # / TYPES OF OBSERV 
    30                                                      INTERVAL            
  2008    11    15     0     0    0.000000                  TIME OF FIRST OBS   
  2008    11    15     8    10    0.000000                  TIME OF LAST OBS    
    20                                                      # OF SATELLITES     
     2     5     5     5     5                              PRN / # OF OBS      
     3   631   631   631   631                              PRN / # OF OBS      
     4   246   247   246   247                              PRN / # OF OBS      
     6   558   558   558   558                              PRN / # OF OBS      
     7   539   539   539   539                              PRN / # OF OBS      
     8   456   456   456   456                              PRN / # OF OBS      
    11   693   693   693   693                              PRN / # OF OBS      
    13   424   424   424   424                              PRN / # OF OBS      
    16   454   454   454   454                              PRN / # OF OBS      
    17   414   414   414   414                              PRN / # OF OBS      
    19   732   732   732   732                              PRN / # OF OBS      
    20   444   444   444   444                              PRN / # OF OBS      
    21   240   240   240   240                              PRN / # OF OBS      
    23   440   440   440   440                              PRN / # OF OBS      
    25   573   573   573   573                              PRN / # OF OBS      
    27   464   464   464   464                              PRN / # OF OBS      
    28   543   543   543   543                              PRN / # OF OBS      
    29    13    13    13    13                              PRN / # OF OBS      
    31   232   232   232   232                              PRN / # OF OBS      
    32   465   465   465   465                              PRN / # OF OBS      
                                                            END OF HEADER       
 08 11 14 23 59 59.9990000  0  8  3  6 13 16 19 21 23 31
  -9956750.28907  20708377.43307  -7730530.78548  20708375.22248
  -7321649.87107  20406071.44807  -5693931.44949  20406069.20649
  -7014873.22706  22606006.07306  -5448179.44547  22606002.21847
    -62293.75407  20388649.32307    -51405.75049  20388645.96849
  -2285154.12506  23393596.43306  -1777200.00847  23393592.43347
  -3249454.48406  23841216.23706  -2527718.50447  23841213.12447
  -5243595.57007  21268965.92507  -4084577.66048  21268961.17548
   3552273.21907  21772620.73707   2762774.28548  21772618.11248
 08 11 15  0  0 29.9990000  0  8  3  6 13 16 19 21 23 31
 -10044616.91007  20691657.08107  -7798998.27348  20691655.49548
  -7377095.02307  20395520.35407  -5737135.46949  20395518.35849
  -7090827.50406  22591551.84706  -5507364.59047  22591548.24147
    -50498.07807  20390893.94807    -42214.32049  20390890.51549
  -2406453.81306  23370514.39406  -1871719.24247  23370510.18747
  -3289081.32806  23833674.30806  -2558596.53547  23833672.16347
  -5270520.60207  21263842.37807  -4105558.19948  21263837.76548
   3605077.36707  21782669.12007   2803920.35948  21782666.03848
 08 11 15  0  0 59.9990000  0  9  3  6 13 16 19 21 23 25 31
 -10132039.23807  20675020.91707  -7867119.54748  20675019.24948
  -7432045.70307  20385063.56507  -5779954.17249  20385061.59749
  -7166274.40606  22577195.12806  -5566154.39547  22577191.87447
    -38470.43007  20393182.57307    -32842.13749  20393179.22649
  -2527581.93806  23347463.50306  -1966104.75847  23347460.09747
  -3328307.08606  23826209.55806  -2589162.05147  23826207.63247
  -5296816.45706  21258838.58906  -4126048.49248  21258833.20648
   -167058.48015  24155807.17505   -124355.55956  24155804.01146
   3658200.30907  21792777.97907   2845314.82448  21792776.05848
 08 11 15  0  1 29.9990000  0  9  3  6 13 16 19 21 23 25 31
 -10219027.56607  20658468.08107  -7934902.66048  20658465.49548
  -7486513.20307  20374698.87807  -5822396.37149  20374696.56549
  -7241223.19506  22562932.42506  -5624556.05147  22562929.72647
    -26224.06607  20395512.96407    -23299.53149  20395509.64049
  -2648548.27706  23324444.99506  -2060364.21147  23324441.29247
  -3367141.83606  23818821.17506  -2619422.91047  23818817.27247
  -5322494.89507  21253951.89407  -4146057.67648  21253947.47648
   -270109.27705  24136197.45605   -204654.88746  24136194.56246
   3711629.94907  21802945.37807   2886948.30148  21802942.85448
 08 11 15  0  1 59.9990000  0  9  3  6 13 16 19 21 23 25 31
 -10305572.19107  20641998.89407  -8002340.02048  20641996.37848
  -7540488.82007  20364427.65907  -5864455.29349  20364425.81949
  -7315663.27306  22548766.88606  -5682561.31347  22548764.44047
    -13751.83607  20397886.12007    -13580.91849  20397882.88249
  -2769342.76606  23301458.18306  -2154489.76647  23301454.01147
  -3405576.16006  23811505.58906  -2649371.69947  23811503.89747
  -5347547.73007  21249184.21407  -4165579.37148  21249179.78048
   -373140.79305  24116591.51905   -284939.18447  24116588.63247
   3765373.67207  21813172.41707   2928826.50048  21813170.06948
 08 11 15  0  2 29.9990000  0  9  3  6 13 16 19 21 23 25 31
 -10391664.95307  20625615.74507  -8069425.28148  20625613.73748
  -7593965.47707  20354250.98707  -5906125.40649  20354249.15149
  -7389586.05906  22534699.57306  -5740163.49647  22534697.56547
     -1048.04707  20400304.15107     -3681.87549  20400300.46049
  -2889956.46906  23278506.11206  -2248474.44547  23278502.11247
  -3443601.93406  23804270.26106  -2679002.13347  23804267.39447
  -5371968.02707  21244537.65107  -4184608.19948  21244532.74948
   -476145.40206  24096989.97906   -365202.48847  24096988.78447
   3819437.44107  21823460.19007   2970954.10248  21823457.82348
 08 11 15  0  2 59.9990000  0  9  3  6 13 16 19 21 23 25 31
 -10477310.51607  20609318.31507  -8136162.06348  20609316.37048
  -7646948.74607  20344169.01907  -5947411.06349  20344167.33149
  -7462995.57006  22520730.98706  -5797365.70347  22520727.71847
     11879.96907  20402764.02607      6391.90249  20402761.21049
  -3010393.48806  23255587.48706  -2342321.48847  23255583.79247
  -3481224.23806  23797111.08106  -2708318.18447  23797108.92547
  -5395761.62907  21240010.11207  -4203148.66448  21240004.96048
   -579127.64505  24077393.12005   -445448.38346  24077390.15146
   3873814.73407  21833807.90107   3013326.01248  21833805.64748
 08 11 15  0  3 29.9990000  0  9  3  6 13 16 19 21 23 25 31
 -10562507.85207  20593106.08107  -8202549.60548  20593103.32348
  -7699438.35207  20334180.61207  -5988312.05949  20334178.22949
  -7535889.85906  22506859.27606  -5854166.45347  22506855.93747
     25031.01607  20405266.95607     16639.46149  20405263.70649
  -3130651.75406  23232703.69006  -2436029.21547  23232699.68347
  -3518441.12906  23790029.18306  -2737318.34047  23790026.36247
  -5418928.60907  21235600.67507  -4221200.87548  21235596.19448
   -682086.44105  24057800.22205   -525676.04746  24057797.06546
   3928504.57807  21844215.37807   3055941.45348  21844212.92548
 08 11 15  0  3 59.9990000  0  9  3  6 13 16 19 21 23 25 31
 -10647251.64507  20576979.36207  -8268583.73048  20576977.31248
  -7751430.46907  20324286.65107  -6028825.38349  20324284.65149
  -7608264.09006  22493087.62806  -5910561.94947  22493083.72247
     38407.25807  20407811.97907     27062.50449  20407808.90149
  -3250725.85906  23209853.99506  -2529593.45347  23209850.18747
  -3555248.03506  23783024.81506  -2765999.02747  23783021.24547
  -5441465.43406  21231312.77606  -4238762.04348  21231308.09748
   -785017.15206  24038213.75306   -605881.78947  24038211.25747
   3983509.82407  21854682.07307   3098802.66048  21854679.78048
 08 11 15  0  4 29.9990000  0  9  3  6 13 16 19 21 23 25 31
 -10731541.05907  20560939.69807  -8334263.78549  20560937.62049
  -7802925.39807  20314487.85407  -6068951.30549  20314485.18749
  -7680117.09806  22479414.02606  -5966551.30547  22479411.37447
     52006.98807  20410400.11207     37659.68049  20410396.25749
  -3370614.34806  23187039.84706  -2623013.00847  23187036.09347
  -3591644.51206  23776099.01906  -2794359.91047  23776095.63247
  -5463372.82807  21227143.86207  -4255832.75448  21227138.76148
   -887919.02006  24018632.06506   -686065.06647  24018629.14747
   4038829.34407  21865209.33107   3141908.74248  21865206.65948
 08 11 15  0  4 59.9990000  0  9  3  6 13 16 19 21 23 25 31
 -10815376.10207  20544986.62807  -8399589.79749  20544984.52649
  -7853923.55507  20304782.95607  -6108690.12549  20304781.20249
  -7751447.43806  22465840.86206  -6022133.40247  22465837.24147
     65827.99207  20413030.17507     48429.28549  20413026.87449
  -3490315.98806  23164260.55806  -2716287.00047  23164257.22947
  -3627629.99606  23769250.66706  -2822400.50847  23769247.68347
  -5484651.77007  21223094.70607  -4272413.75448  21223089.96048
   -990791.78505  23999056.61205   -766225.64847  23999053.42147
   4094461.12907  21875796.01907   3185258.16448  21875792.85848
 08 11 15  0  5 29.9990000  0  9  3  6 13 16 19 21 23 25 31
 -10898758.79307  20529119.30007  -8464563.32049  20529116.89749
  -7904428.00807  20295172.69007  -6148044.25449  20295170.06949
  -7822256.92206  22452365.79206  -6077309.62147  22452362.64747
     79866.05107  20415701.65107     59368.01249  20415698.17949
  -3609832.12906  23141517.90906  -2809416.44547  23141514.31947
  -3663206.43406  23762480.52606  -2850122.36747  23762478.05447
  -5505305.63707  21219164.31507  -4288507.67248  21219159.78048
  -1093637.35506  23979485.78406   -846365.02347  23979483.49147
   4150401.07007  21886441.18307   3228847.70748  21886438.17548
 08 11 15  0  5 59.9990000  0  9  3  6 13 16 19 21 23 25 31
 -10981685.30507  20513339.05807  -8529181.39148  20513336.13648
  -7954436.28507  20285655.84707  -6187011.73849  20285653.50349
  -7892541.35506  22438991.52606  -6132076.71947  22438988.21847
     94122.13307  20418414.41707     70476.64149  20418411.24549
  -3729158.53106  23118811.10406  -2902398.03947  23118806.81947
  -3698370.38306  23755789.16706  -2877522.83247  23755785.48347
  -5525332.44507  21215353.55807  -4304112.98848  21215348.49548
  -1196452.43005  23959919.64405   -926480.61347  23959917.68347
   4206650.91007  21897145.12007   3272678.72748  21897141.96848
 08 11 15  0  6 29.9990000  0  9  3  6 13 16 19 21 23 25 31
 -11064149.73807  20497646.56507  -8593439.39849  20497644.36649
  -8003943.60907  20276235.22907  -6225588.88349  20276233.16749
  -7962294.55906  22425717.63606  -6186429.86347  22425715.06547
    108599.71107  20421169.35407     81757.85549  20421165.72249
  -3848288.70306  23096141.65106  -2995226.70347  23096137.75347
  -3733115.91805  23749176.89405  -2904597.21946  23749174.30446
  -5544727.70707  21211661.97207  -4319226.18448  21211657.51948
  -1299231.21905  23940361.47205  -1006567.88747  23940359.55447
   4263214.14107  21907908.55807   3316753.94548  21907905.90148
 08 11 15  0  6 59.9990000  0  9  3  6 13 16 19 21 23 25 31
 -11146158.42207  20482040.79207  -8657342.25049  20482038.39749
  -8052956.92607  20266908.06507  -6263781.08249  20266905.97649
  -8031521.89806  22412543.32306  -6240373.24247  22412541.27647
    123290.26607  20423964.91707     93205.03149  20423961.67549
  -3967227.87106  23073508.67506  -3087906.54747  23073504.08947
  -3767449.21506  23742643.84706  -2931350.42247  23742641.38247
  -5563498.74607  21208090.21407  -4333852.98848  21208086.01148
  -1401979.59806  23920808.91706  -1086631.54347  23920806.60147
   4320082.85907  21918729.79207   3361067.22748  21918727.46048
 08 11 15  0  7 29.9990000  0  9  3  6 13 16 19 21 23 25 31
 -11227705.56607  20466522.58107  -8720885.47749  20466520.21049
  -8101471.66007  20257676.35407  -6301584.77049  20257673.97949
  -8100217.41806  22399471.59706  -6293902.23047  22399468.88647
    138197.14507  20426801.43307    104820.77349  20426798.22649
  -4085969.81306  23050912.04206  -3180432.68447  23050908.78847
  -3801364.59806  23736190.30806  -2957777.96547  23736186.97247
  -5581641.31607  21204637.84707  -4347990.07448  21204633.12848
  -1504691.88306  23901264.67506  -1166667.10246  23901260.81546
   4377260.72307  21929610.58907   3405621.37948  21929607.25748
 08 11 15  0  7 59.9990000  0  9  3  6 13 16 19 21 23 25 31
 -11308791.99208  20451092.47908  -8784069.69549  20451090.06549
  -8149489.37107  20248538.65907  -6339001.17249  20248536.40949
  -8168381.40206  22386500.09706  -6347017.01247  22386497.46447
    153317.19507  20429678.63607    116602.61349  20429675.64049
  -4204514.09406  23028354.24506  -3272804.78947  23028350.51147
  -3834862.75006  23729816.42506  -2983880.39147  23729812.32347
  -5599157.66807  21201304.69807  -4361639.18048  21201299.54248
  -1607368.72706  23881725.22906  -1246675.05147  23881722.40547
   4434744.92207  21940549.78407   3450414.21548  21940547.22948
 08 11 15  0  8 29.9990000  0  9  3  6 13 16 19 21 23 25 31
 -11389410.42207  20435751.60407  -8846889.24649  20435748.96049
  -8197004.14107  20239496.92507  -6376025.66449  20239494.76549
  -8236005.80106  22373632.05006  -6399711.34447  22373628.35847
    168655.21107  20432597.70607    128554.29349  20432594.26949
  -4322852.84406  23005834.47206  -3365016.76247  23005831.20647
  -3867936.97306  23723522.08106  -3009652.49647  23723518.15947
  -5616042.12107  21198092.37807  -4374795.89548  21198087.23748
  -1710002.97705  23862194.55805  -1326649.75447  23862191.55847
   4492540.34007  21951547.79207   3495449.58648  21951545.34348
 08 11 15  0  8 59.9990000  0  9  3  6 13 16 19 21 23 25 31
 -11469558.11707  20420499.97907  -8909341.98049  20420497.70249
  -8244013.98807  20230551.23707  -6412656.71949  20230548.92949
  -8303087.59806  22360866.86206  -6451982.88347  22360863.77247
    184211.78907  20435557.80007    140676.29749  20435554.22649
  -4440982.63706  22983355.42506  -3457065.89147  22983351.34747
  -3900584.21505  23717309.10405  -3035091.88747  23717305.98747
  -5632293.37107  21194999.19807  -4387459.20348  21194993.95648
  -1812591.61705  23842672.97205  -1406588.92247  23842670.03447
   4550648.12107  21962605.39407   3540728.35248  21962603.19448
 08 11 15  0  9 29.9990000  0  9  3  6 13 16 19 21 23 25 31
 -11549239.23408  20405336.93308  -8971431.15249  20405335.00349
  -8290524.38707  20221700.58107  -6448898.57849  20221698.20249
  -8369630.36707  22348204.24507  -6503834.39547  22348201.61647
    199980.38307  20438558.78407    152963.50449  20438555.01149
  -4558906.78106  22960914.73706  -3548954.80147  22960911.23747
  -3932808.57805  23711176.65105  -3060201.78547  23711173.66747
  -5647917.14107  21192026.22907  -4399633.57848  21192021.55448
  -1915138.87105  23823158.31505  -1486495.82847  23823155.51547
   4609061.76207  21973721.23707   3586245.44948  21973719.13248
 08 11 15  0  9 59.9990000  0  9  3  6 13 16 19 21 23 25 31
 -11628453.71908  20390263.30808  -9033156.70749  20390260.63249
  -8336536.25807  20212944.71407  -6484751.98849  20212942.82749
  -8435634.27006  22335643.86206  -6555266.00047  22335640.96047
    215958.33607  20441599.12807    165413.85249  20441595.98749
  -4676624.52006  22938513.41706  -3640682.85247  22938509.59747
  -3964610.26205  23705125.30005  -3084982.28546  23705122.29246
  -5662915.03907  21189171.92507  -4411320.24648  21189167.24548
  -2017644.53105  23803652.53405  -1566370.34047  23803649.23347
   4667779.50807  21984894.87807   3631999.52048  21984892.86248
 08 11 15  0 10 29.9990000  0  9  3  6 13 16 19 21 23 25 31
 -11707200.53907  20375277.90107  -9094517.86349  20375275.44849
  -8382049.71907  20204283.98707  -6520217.00449  20204281.73749
  -8501097.25006  22323186.37006  -6606276.11347  22323183.75747
    232144.62107  20444679.15907    178026.53149  20444675.63649
  -4794133.94106  22916152.20606  -3732248.60947  22916148.78847
  -3995988.34406  23699154.00306  -3109432.72347  23699151.75347
  -5677287.40607  21186437.04207  -4422519.50448  21186432.24148
  -2120107.27706  23784154.43306  -1646211.44147  23784151.61647
   4726800.14107  21996126.04207   3677989.60248  21996124.16348
 08 11 15  0 10 59.9990000  0  9  3  6 13 16 19 21 23 25 31
 -11785476.91407  20360382.44007  -9155512.42249  20360380.16749
  -8427062.89807  20195718.02607  -6555292.20749  20195715.67549
  -8566015.91006  22310833.44006  -6656862.07847  22310829.89447
    248539.89107  20447799.46407    190802.06349  20447796.17949
  -4911431.53106  22893830.48706  -3823649.26247  22893827.42147
  -4026939.99606  23693264.31506  -3133550.90247  23693260.43747
  -5691032.92207  21183821.37807  -4433230.30148  21183817.06548
  -2222524.13305  23764664.83905  -1726016.77347  23764661.77247
   4786124.43807  22007415.15107   3724216.30548  22007412.53048
 08 11 15  0 11 29.9990000  0  9  3  6 13 16 19 21 23 25 31
 -11863281.44907  20345576.69807  -9216139.32049  20345574.76149
  -8471575.27707  20187247.75307  -6589977.17649  20187245.38649
  -8630387.88707  22298583.44007  -6707022.05947  22298580.57747
    265143.64107  20450958.44007    203740.04749  20450955.49549
  -5028514.73806  22871551.19806  -3914882.88747  22871547.68747
  -4057463.78106  23687455.70606  -3157335.65647  23687453.08147
  -5704151.78107  21181324.69807  -4443452.77748  21181320.63248
  -2324893.28905  23745184.80005  -1805784.93447  23745181.28047
   4845752.05907  22018762.19807   3770679.35948  22018760.04648
 08 11 15  0 11 59.9990000  0  9  3  6 13 16 19 21 23 25 31
 -11940612.29707  20330861.08107  -9276397.12149  20330858.57749
  -8515586.41407  20178872.79207  -6624271.57049  20178870.58549
  -8694212.28106  22286438.21406  -6756755.35947  22286434.51147
    281955.00807  20454157.67507    216839.79749  20454154.11249
  -5145381.17606  22849312.03406  -4005947.63347  22849308.49547
  -4087557.94906  23681729.30806  -3180785.67247  23681727.18347
  -5716643.84007  21178947.69807  -4453186.87148  21178943.42948
  -2427213.04706  23725714.02606  -1885514.60947  23725711.49947
   4905682.51607  22030165.83107   3817378.39848  22030164.10148
 08 11 15  0 12 29.9990000  0  9  3  6 13 16 19 21 23 25 31
 -12017465.92207  20316235.92507  -9336283.05149  20316233.77249
  -8559093.79307  20170593.48707  -6658173.41849  20170591.19049
  -8757484.15206  22274397.65906  -6806058.11347  22274394.92547
    298975.14807  20457396.33107    230102.23049  20457392.73349
  -5262026.39506  22827115.19006  -4096839.97747  22827111.55847
  -4117219.09806  23676084.53406  -3203898.22747  23676081.07747
  -5728507.13307  21176690.47907  -4462430.99648  21176686.14448
  -2529479.28906  23706253.70606  -1965202.56347  23706250.67547
   4965917.58207  22041628.98707   3864314.77048  22041626.76548
 08 11 15  0 12 59.9990000  0  9  3  6 13 16 19 21 23 25 31
 -12093848.58607  20301701.08107  -9395801.99649  20301698.90149
  -8602104.79307  20162408.92507  -6691688.47349  20162406.87849
  -8820209.75807  22262461.86207  -6854935.20747  22262458.79647
    316195.81307  20460673.72907    243520.93049  20460670.04249
  -5378455.97306  22804959.18306  -4187564.32047  22804954.94847
  -4146453.68406  23670521.75306  -3226678.43847  23670518.45647
  -5739749.80507  21174550.91707  -4471191.51648  21174546.63248
  -2631698.51606  23686801.57306  -2044853.90647  23686798.58147
   5026448.30907  22053147.68307   3911481.55948  22053144.71848
 08 11 15  0 13 29.9990000  0  9  3  6 13 16 19 21 23 25 31
 -12169756.03507  20287256.35407  -9454950.66049  20287254.73749
  -8644615.93407  20154319.12807  -6724814.04349  20154317.00749
  -8882384.64806  22250630.10406  -6903383.15647  22250627.03447
    333619.33607  20463989.17507    257097.68849  20463985.84749
  -5494664.55506  22782845.42506  -4278116.41847  22782841.14747
  -4175257.04706  23665040.15106  -3249122.61747  23665038.07747
  -5750368.64507  21172530.21407  -4479465.94948  21172526.44048
  -2733865.62106  23667359.88606  -2124464.62547  23667356.60447
   5087277.63707  22064723.04207   3958881.00048  22064720.30848
 08 11 15  0 13 59.9990000  0  9  3  6 13 16 19 21 23 25 31
 -12245181.67207  20272903.36207  -9513723.87949  20272901.40549
  -8686621.79707  20146325.86207  -6757545.87949  20146323.13249
  -8944000.55906  22238904.85406  -6951395.57047  22238902.30447
    351249.93807  20467344.27607    270835.81349  20467341.11249
  -5610644.60506  22760775.24506  -4368490.43447  22760771.72947
  -4203622.96506  23659642.73706  -3271225.91447  23659640.24147
  -5760358.96107  21170629.24507  -4487250.62148  21170625.01948
  -2835973.87106  23647929.47906  -2204029.48047  23647925.17547
   5148410.16007  22076356.24507   4006516.70348  22076353.26548
 08 11 15  0 14 29.9990000  0  9  3  6 13 16 19 21 23 25 31
 -12320124.08607  20258642.30007  -9572120.55549  20258640.08549
  -8728121.96507  20138428.40107  -6789883.66849  20138426.08949
  -9005056.48006  22227286.07306  -6998971.60547  22227284.11247
    369087.00007  20470738.53407    284734.80949  20470734.98349
  -5726393.73406  22738749.44006  -4458684.52047  22738744.98747
  -4231550.02706  23654329.27606  -3292987.26647  23654325.91347
  -5769720.82007  21168847.70607  -4494545.58648  21168843.26548
  -2938021.22305  23628510.68305  -2283546.93447  23628506.87447
   5209845.22707  22088046.79207   4054388.13748  22088044.32748
 08 11 15  0 14 59.9990000  0  9  3  6 13 16 19 21 23 25 31
 -12394580.28507  20244473.35407  -9630138.36749  20244471.22949
  -8769114.43407  20130628.21407  -6821825.84449  20130625.79249
  -9065549.24206  22215774.75306  -7046108.80947  22215772.56947
    387131.59407  20474172.33107    298795.52049  20474168.83149
  -5841908.05506  22716768.30006  -4548695.68448  22716763.38648
  -4259035.16006  23649098.35406  -3314404.21947  23649095.31547
  -5778452.94107  21167186.47907  -4501349.84048  21167181.76548
  -3040004.46105  23609103.89405  -2363014.38747  23609099.47947
   5271583.86707  22099795.37807   4102496.14148  22099791.93748
 08 11 15  0 15 29.9990000  0  9  3  6 13 16 19 21 23 25 31
 -12468549.22707  20230397.76107  -9687776.50849  20230395.78849
  -8809599.44507  20122923.84707  -6853372.60549  20122921.71449
  -9125476.69106  22204371.66706  -7092805.54747  22204368.77247
    405382.79307  20477645.26107    313017.21549  20477642.10849
  -5957185.54306  22694831.33906  -4638522.29347  22694827.60847
  -4286077.32806  23643952.81506  -3335476.05547  23643949.76547
  -5786555.80907  21165644.55807  -4507663.77348  21165639.51548
  -3141922.11305  23589709.18305  -2442430.71947  23589706.07347
   5333625.15206  22111601.65106   4150839.96548  22111598.94048
 08 11 15  0 15 59.9990000  0  9  3  6 13 16 19 21 23 25 31
 -12542028.96107  20216415.13607  -9745033.44549  20216413.14049
  -8849575.95307  20115316.56507  -6884523.13749  20115314.76149
  -9184836.48806  22193075.01906  -7139059.92647  22193072.62847
    423840.21907  20481157.72907    327399.61349  20481154.46449
  -6072223.25406  22672940.15106  -4728162.05547  22672936.61247
  -4312674.60906  23638890.97906  -3356201.16846  23638887.79246
  -5794029.16407  21164222.41707  -4513487.17648  21164217.07348
  -3243771.76605  23570326.40905  -2521794.05947  23570324.76547
   5395969.22307  22123464.87807   4199419.73848  22123461.74548
 08 11 15  0 16 29.9990000  0  9  3  6 13 16 19 21 23 25 31
 -12615020.94907  20202525.50307  -9801910.32049  20202522.67949
  -8889046.85207  20107805.40907  -6915279.68049  20107802.97649
  -9243630.09006  22181887.12806  -7184873.11747  22181884.29647
    442500.41007  20484708.77607    341940.01649  20484705.15149
  -6187021.88706  22651094.53406  -4817615.51647  22651090.92547
  -4338828.80105  23633913.55005  -3376581.06646  23633910.62846
  -5800876.46507  21162919.08107  -4518822.75048  21162914.58948
  -3345554.66405  23550958.31505  -2601105.37947  23550955.44447
   5458612.28907  22135385.40107   4248232.49648  22135383.04648
 08 11 15  0 16 59.9990000  0  9  3  6 13 16 19 21 23 25 31
 -12687525.34407  20188728.32307  -9858407.24649  20188725.87049
  -8928012.85207  20100390.50307  -6945642.80149  20100388.42949
  -9301856.99606  22170807.19806  -7230244.75447  22170804.69447
    461361.60207  20488297.50307    356637.03949  20488294.84749
  -6301580.14506  22629294.97206  -4906881.69948  22629291.00348
  -4364540.00006  23629021.72206  -3396615.74247  23629017.92947
  -5807099.23007  21161735.02607  -4523671.66848  21161730.68748
  -3447269.89505  23531603.14405  -2680364.00447  23531600.71847
   5521552.69506  22147362.60406   4297276.93848  22147360.32748
 08 11 15  0 17 29.9990000  0  9  3  6 13 16 19 21 23 25 31
 -12759542.80907  20175023.55807  -9914524.74249  20175021.53849
  -8966476.13307  20093071.40107  -6975614.18849  20093068.86249
  -9359517.36706  22159834.47906  -7275174.89847  22159832.02647
    480420.65207  20491924.60407    371488.24249  20491921.59749
  -6415898.42206  22607540.55806  -4995960.87948  22607537.17548
  -4389808.93806  23624211.76906  -3416305.80947  23624209.71447
  -5812700.11307  21160668.92507  -4528035.98848  21160664.35148
  -3548917.99605  23512260.22905  -2759570.28147  23512257.41747
   5584787.50006  22159395.66706   4346550.79348  22159393.51548
 08 11 15  0 17 59.9990000  0  9  3  6 13 16 19 21 23 25 31
 -12831075.77007  20161411.42507  -9970264.71949  20161409.07749
  -9004439.91807  20085846.99507  -7005196.35549  20085845.10849
  -9416613.39506  22148969.51906  -7319665.30147  22148966.79247
    499673.26207  20495588.03407    386490.26649  20495584.94449
  -6529977.77706  22585832.40906  -5084853.88347  22585828.77647
  -4414637.88306  23619488.16706  -3435653.02047  23619484.73347
  -5817682.80107  21159720.93307  -4531918.61348  21159716.25748
  -3650500.64805  23492929.45605  -2838725.58247  23492927.20247
   5648312.85907  22171484.59707   4396051.03548  22171481.84748
 08 11 15  0 18 29.9990000  0  9  3  6 13 16 19 21 23 25 31
 -12902115.43007  20147893.22907 -10025620.29349  20147890.95649
  -9041896.68407  20078719.15107  -7034383.44949  20078716.90549
  -9473136.64806  22138213.80806  -7363709.39547  22138210.89047
    519126.40207  20499289.69807    401648.54749  20499287.00349
  -6643808.55506  22564170.98706  -5173553.18048  22564167.86648
  -4439018.35505  23614848.37005  -3454650.78146  23614844.34746
  -5822040.37107  21158891.90907  -4535314.13748  21158886.85448
  -3752008.76205  23473613.33905  -2917822.77047  23473610.85447
   5712135.13307  22183629.27607   4445782.64548  22183627.64048
 08 11 15  0 18 59.9990000  0  9  3  6 13 16 19 21 23 25 31
 -12972656.19507  20134469.87007 -10080587.10549  20134467.53049
  -9078841.66007  20071688.97207  -7063171.74249  20071686.55049
  -9529079.72706  22127568.30806  -7407301.42247  22127565.06947
    538783.76607  20503030.57307    416965.96149  20503027.42149
  -6757383.87106  22542558.16706  -5262053.42648  22542555.13248
  -4462944.74205  23610294.79205  -3473294.71947  23610292.51947
  -5825769.03507  21158182.34707  -4538219.59848  21158177.56948
  -3853435.89506  23454312.00306  -2996856.90247  23454309.33547
   5776258.03907  22195831.45607   4495748.51648  22195829.73348
 08 11 15  0 19 29.9990000  0  9  3  6 13 16 19 21 23 25 31
 -13042707.51607  20121139.08907 -10135172.54349  20121136.87849
  -9115286.04707  20064753.68307  -7091569.97349  20064751.13649
  -9584452.30506  22117030.53406  -7450448.87547  22117028.40547
    558633.75407  20506808.02607    432433.48448  20506805.21448
  -6870712.65606  22520992.56506  -5350361.56648  22520988.69848
  -4486426.79705  23605826.91705  -3491592.38747  23605824.07347
  -5828880.31607  21157590.19007  -4540643.98448  21157585.13648
  -3954791.25805  23435024.47905  -3075835.08247  23435022.09347
   5840670.09407  22208088.38607   4545939.72348  22208086.39448
 08 11 15  0 19 59.9990000  0  9  3  6 13 16 19 21 23 25 31
 -13112260.48407  20107903.50307 -10189369.65649  20107901.42549
  -9151221.34807  20057915.47907  -7119571.50449  20057913.26949
  -9639245.15606  22106603.65106  -7493144.60947  22106601.95247
    578683.48007  20510623.38607    448056.63349  20510620.43349
  -6983784.16406  22499475.72206  -5438469.23848  22499471.85848
  -4509455.51206  23601444.03406  -3509536.82447  23601441.32347
  -5831366.70707  21157117.19007  -4542581.46148  21157112.72948
  -4056064.87105  23415753.45605  -3154749.58247  23415750.36247
   5905378.75807  22220402.30007   4596362.02748  22220400.38248
 08 11 15  0 20 29.9990000  0  9  3  6 13 16 19 21 23 25 31
 -13181316.34807  20094762.58107 -10243179.41449  20094760.55449
  -9186649.90207  20051173.30007  -7147178.17249  20051171.27249
  -9693458.77706  22096287.62006  -7535388.98047  22096285.44047
    598930.18807  20514476.51907    463833.28949  20514473.00749
  -7096599.08206  22478008.17506  -5526376.95748  22478004.08548
  -4532031.66405  23597148.03405  -3527128.62547  23597145.92547
  -5833231.03907  21156762.67507  -4544034.20348  21156757.83548
  -4157257.25006  23396496.94806  -3233600.77347  23396494.40147
   5970380.84807  22232771.98707   4647012.97748  22232770.10148
 08 11 15  0 20 59.9990000  0  9  3  6 13 16 19 21 23 25 31
 -13249869.19907  20081717.57307 -10296597.21149  20081715.32749
  -9221567.19907  20044528.83907  -7174386.45349  20044526.56549
  -9747087.16806  22086082.94006  -7577177.35547  22086079.49547
    619377.96907  20518367.17507    479766.61349  20518364.03449
  -7209150.45706  22456589.95606  -5614079.29348  22456586.14748
  -4554149.82806  23592939.18306  -3544363.56647  23592936.83147
  -5834469.45307  21156527.17507  -4544999.23448  21156522.34748
  -4258361.95306  23377257.94006  -3312383.67647  23377254.72647
   6035680.16806  22245197.91706   4697895.52348  22245196.61648
 08 11 15  0 21 29.9990000  0  9  3  6 13 16 19 21 23 25 31
 -13317924.73007  20068766.82307 -10349627.48849  20068764.49949
  -9255979.68807  20037980.54207  -7201201.37549  20037978.74149
  -9800135.67206  22075987.87806  -7618513.85247  22075984.80447
    640019.19907  20522295.51907    495850.68849  20522292.56249
  -7321442.54306  22435221.08106  -5701579.60248  22435217.21048
  -4575815.50406  23588816.62806  -3561245.91847  23588813.87047
  -5835089.21107  21156408.96407  -4545482.17648  21156403.97248
  -4359383.87906  23358034.00306  -3391102.04347  23358030.91747
   6101269.46906  22257679.51106   4749004.03948  22257677.33548
 08 11 15  0 21 59.9990000  0  9  3  6 13 16 19 21 23 25 31
 -13385480.16407  20055911.61207 -10402268.08249  20055909.28449
  -9289885.92607  20031528.42507  -7227621.82049  20031526.34749
  -9852601.21906  22066004.19006  -7659396.09447  22066000.93747
    660854.65607  20526260.19007    512086.10249  20526256.84749
  -7433471.89506  22413903.26906  -5788875.15648  22413899.20648
  -4597026.30506  23584779.95606  -3577773.78947  23584777.26147
  -5835089.52707  21156408.54207  -4545482.43848  21156404.24948
  -4460319.60506  23338826.51106  -3469753.27747  23338822.85147
   6167149.13306  22270215.51106   4800338.81648  22270213.72948
 08 11 15  0 22 29.9990000  0  9  3  6 13 16 19 21 23 25 31
 -13452532.62908  20043151.89408 -10454516.74649  20043149.74149
  -9323284.00007  20025173.28407  -7253646.28949  20025171.08549
  -9904480.23406  22056132.07306  -7699821.30547  22056129.37047
    681886.12907  20530262.43307    528474.26249  20530258.98349
  -7545234.35906  22392635.07306  -5875962.77348  22392631.54648
  -4617779.21505  23580830.91705  -3593944.87147  23580828.13247
  -5834469.17207  21156526.88607  -4544999.06348  21156521.56548
  -4561165.36305  23319635.64405  -3548334.37147  23319632.83547
   6233320.41807  22282807.67507   4851900.83248  22282804.62448
 08 11 15  0 22 59.9990000  0  9  3  6 13 16 19 21 23 25 31
 -13519081.61707  20030488.07307 -10506373.10249  20030486.01549
  -9356174.52307  20018914.07307  -7279275.26249  20018911.92549
  -9955772.10206  22046371.31506  -7739788.99647  22046368.59347
    703111.91807  20534301.39407    545013.84049  20534298.23749
  -7656728.28906  22371418.63606  -5962841.16048  22371414.72648
  -4638073.87906  23576969.34706  -3609758.88747  23576966.39047
  -5833229.44107  21156762.75307  -4544033.05148  21156757.61648
  -4661919.88706  23300462.63606  -3626844.36747  23300460.42147
   6299782.37107  22295455.44807   4903689.34048  22295451.74948
 08 11 15  0 23 29.9990000  0  9  3  6 13 16 19 21 23 25 31
 -13585125.73408  20017920.32308 -10557836.04749  20017918.56949
  -9388557.12507  20012751.61207  -7304508.45749  20012749.24949
 -10006474.31607  22036722.93307  -7779297.22747  22036719.76147
    724531.89807  20538377.48707    561704.73448  20538374.11648
  -7767951.04306  22350253.88606  -6049508.22348  22350249.80448
  -4657908.69906  23573194.55006  -3625214.59447  23573191.80047
  -5831370.94907  21157116.08107  -4542584.89548  21157111.12448
  -4762580.77306  23281307.12006  -3705281.41047  23281305.14047
   6366534.31607  22308157.64407   4955703.80548  22308154.12848
 08 11 15  0 23 59.9990000  0  9  3  6 13 16 19 21 23 25 31
 -13650665.44508  20005448.72908 -10608905.94549  20005446.31949
  -9420433.87907  20006685.79207  -7329347.48449  20006683.81549
 -10056588.24206  22027186.55806  -7818347.04347  22027183.19847
    746143.26607  20542489.98707    578544.75049  20542486.90549
  -7878902.54706  22329139.94806  -6135963.91048  22329136.14748
  -4677284.91406  23569508.30006  -3640312.93447  23569504.32347
  -5828895.98007  21157587.47207  -4540656.35948  21157582.41348
  -4863148.28506  23262170.03406  -3783645.71147  23262168.01947
   6433573.48007  22320915.05007   5007942.07848  22320912.15148
 08 11 15  0 24 29.9990000  0  9  3  6 13 16 19 21 23 25 31
 -13715704.80908  19993072.01908 -10659585.96549  19993070.03849
  -9451809.66407  20000714.75307  -7353796.14549  20000712.84749
 -10106117.18806  22017761.80806  -7856941.02047  22017758.28047
    767940.72307  20546638.14407    595529.77748  20546634.39748
  -7989585.28506  22308078.24506  -6222210.16448  22308073.99548
  -4696206.09806  23565907.66706  -3655056.72747  23565903.87447
  -5825810.61307  21158174.20607  -4538252.18848  21158169.33948
  -4963625.25406  23243049.88606  -3861939.43447  23243047.68747
   6500894.23007  22333725.87007   5060399.77748  22333723.45248
 08 11 15  0 24 59.9990000  0  9  3  6 13 16 19 21 23 25 31
 -13780241.59008  19980791.08908 -10709874.37949  19980788.70249
  -9482683.00807  19994840.30007  -7377853.28549  19994838.24549
 -10155058.22306  22008448.30006  -7895076.89147  22008444.96047
    789925.05107  20550821.40907    612660.42648  20550817.94848
  -8099995.66806  22287067.85406  -6308244.21548  22287062.88648
  -4714670.09406  23562393.96406  -3669444.26247  23562390.81547
  -5822114.09807  21158877.47207  -4535371.79748  21158872.79648
  -5064008.27005  23223947.43305  -3940159.94147  23223944.90947
   6568497.34407  22346590.27607   5113077.50848  22346588.22648
 08 11 15  0 25 29.9990000  0  9  3  6 13 16 19 21 23 25 31
 -13844270.57408  19968606.84708 -10759767.08249  19968604.95249
  -9513050.28107  19989061.63607  -7401516.09849  19989059.61249
 -10203406.08606  21999248.29206  -7932750.55547  21999244.90947
    812099.65607  20555040.95607    629939.33248  20555037.89448
  -8210127.69506  22266109.88606  -6394061.39148  22266105.76148
  -4732672.07406  23558967.67506  -3683471.77347  23558965.49547
  -5817803.79307  21159697.85407  -4532013.13348  21159693.46848
  -5164291.54306  23204864.68306  -4018302.72747  23204861.81947
   6636385.88306  22359509.00306   5165977.64848  22359506.14448
 08 11 15  0 25 59.9990000  0  9  3  6 13 16 19 21 23 25 31
 -13907794.57408  19956518.44008 -10809266.30949  19956516.28849
  -9542915.03908  19983378.39408  -7424787.34049  19983376.33549
 -10251163.85507  21990160.52607  -7969964.40647  21990156.50347
    834460.38707  20559296.02607    647363.27049  20559292.87449
  -8319982.73806  22245205.80806  -6479662.70748  22245201.41748
  -4750214.28506  23555629.58906  -3697140.99647  23555626.72247
  -5812883.20707  21160634.57307  -4528178.92648  21160630.22248
  -5264476.59006  23185800.70606  -4096369.00447  23185797.00747
   6704555.41807  22372481.07307   5219096.71548  22372479.12048
 08 11 15  0 26 29.9990000  0  9  3  6 13 16 19 21 23 25 31
 -13970810.72308  19944527.14408 -10858369.78549  19944524.68749
  -9572275.55907  19977791.26907  -7447665.65649  19977789.49949
 -10298326.93807  21981184.87807  -8006714.86747  21981182.41747
    857008.41807  20563587.06507    664933.16848  20563583.89048
  -8429556.82006  22224354.19806  -6565045.07048  22224350.48348
  -4767294.47306  23552379.76106  -3710450.26247  23552376.55047
  -5807351.74607  21161687.22907  -4523868.70748  21161682.49148
  -5364559.76206  23166754.87006  -4174355.87147  23166752.47647
   6773006.85907  22385507.21407   5272435.47748  22385504.40548
 08 11 15  0 26 59.9990000  0  9  3  6 13 16 19 21 23 25 31
 -14033326.28508  19932630.69008 -10907083.21549  19932628.03449
  -9601140.27707  19972298.63607  -7470157.65249  19972296.62049
 -10344902.72306  21972322.18306  -8043007.68847  21972319.06947
    879735.11707  20567911.58107    682642.27748  20567908.10848
  -8538855.94906  22203555.84706  -6650213.21548  22203550.72248
  -4783919.59006  23549216.83106  -3723404.91047  23549214.13247
  -5801219.26607  21162854.19007  -4519090.15248  21162849.15148
  -5464547.18406  23147727.77606  -4252268.13747  23147725.55847
   6841731.36706  22398584.96406   5325987.00048  22398582.29248
 08 11 15  0 27 29.9990000  0  9  3  6 13 16 19 21 23 25 31
 -14095333.50007  19920831.12807 -10955400.51649  19920828.66749
  -9629502.51607  19966901.37807  -7492258.09049  19966899.70649
 -10390883.51607  21963572.19007  -8078836.87547  21963568.76947
    902646.52007  20572271.58107    700495.31348  20572268.44848
  -8647871.37507  22182810.47907  -6735160.26248  22182806.22248
  -4800082.45306  23546139.32306  -3735999.36346  23546137.32746
  -5794479.47307  21164136.87807  -4513838.39548  21164132.29248
  -5564430.19106  23128720.94806  -4330099.02347  23128718.52647
   6910734.63706  22411715.99506   5379755.75848  22411713.33948
 08 11 15  0 27 59.9990000  0  9  3  6 13 16 19 21 23 25 31
 -14156831.83607  19909128.31507 -11003321.28549  19909126.17149
  -9657362.68807  19961600.02607  -7513967.32049  19961597.58149
 -10436268.43807  21954935.85407  -8114201.73847  21954933.15547
    925741.70707  20576666.50307    718491.55549  20576663.60149
  -8756601.04307  22162119.66707  -6819884.68848  22162116.26548
  -4815781.71905  23543152.15105  -3748232.58246  23543150.17546
  -5787133.32807  21165534.55807  -4508114.13348  21165530.74148
  -5664207.00806  23109733.72906  -4407847.19547  23109731.13247
   6980015.77706  22424899.19006   5433741.03548  22424897.90148
 08 11 15  0 28 29.9990000  0  9  3  6 13 16 19 21 23 25 31
 -14217819.22307  19897523.03407 -11050843.92249  19897520.43349
  -9684720.12507  19956393.83107  -7535284.79349  19956391.96849
 -10481055.30106  21946413.28406  -8149100.60247  21946410.27247
    949021.12907  20581096.26907    736631.36748  20581092.93748
  -8865041.78907  22141484.35407  -6904383.94948  22141479.99548
  -4831015.95706  23540253.72206  -3760103.40246  23540250.49146
  -5779181.36307  21167047.87007  -4501917.80148  21167043.93748
  -5763874.73806  23090767.92506  -4485510.32847  23090765.39747
   7049574.81306  22438136.36206   5487942.84848  22438134.00348
 08 11 15  0 28 59.9990000  0  9  3  6 13 16 19 21 23 25 31
 -14278303.54708  19886013.08908 -11097974.55149  19886010.77649
  -9711583.34407  19951281.92507  -7556217.16449  19951279.65949
 -10525251.14506  21938002.72906  -8183538.93047  21938000.34747
    972475.89507  20585559.56507    754907.79348  20585556.40948
  -8973200.14506  22120902.40106  -6988663.16048  22120898.17548
  -4845793.24606  23537441.98706  -3771618.18446  23537438.78046
  -5770632.70307  21168673.98707  -4495256.52048  21168669.81948
  -5863439.76206  23071821.13606  -4563093.45347  23071818.27647
   7119402.38306  22451423.62806   5542353.92648  22451421.98748
 08 11 15  0 29 29.9990000  0  9  3  6 13 16 19 21 23 25 31
 -14338280.00008  19874599.83108 -11144709.44549  19874597.64749
  -9737949.03907  19946264.40107  -7576761.85549  19946262.68349
 -10568851.09407  21929706.40907  -8217512.89847  21929703.58547
    996108.82407  20590056.96407    773323.04749  20590053.77249
  -9081070.18406  22100374.80806  -7072717.71548  22100371.19448
  -4860108.39506  23534717.44806  -3782772.85946  23534713.44046
  -5761485.08207  21170414.98707  -4488128.51648  21170411.01948
  -5962896.54306  23052894.62806  -4640592.23447  23052892.68347
   7189501.62506  22464763.77606   5596976.67648  22464761.49148
 08 11 15  0 29 59.9990000  0  9  3  6 13 16 19 21 23 25 31
 -14397744.72308  19863284.12808 -11191045.58649  19863281.89449
  -9763814.06607  19941342.83107  -7596916.42249  19941340.69449
 -10611851.18807  21921524.12807  -8251019.47747  21921520.87047
   1019923.02007  20594588.34707    791879.54349  20594585.63649
  -9188646.41006  22079903.79206  -7156543.30948  22079899.69048
  -4873957.73805  23532081.97205  -3793564.59446  23532079.12846
  -5751736.22707  21172270.55007  -4480532.02048  21172266.35448
  -6062239.70706  23033991.14406  -4718002.48847  23033987.61647
   7259874.46906  22478155.43306   5651812.63748  22478152.53448
 08 11 15  0 30 29.9990000  0  9  3  6 13 16 19 21 23 25 31
 -14456696.96108  19852065.95608 -11236982.37949  19852063.91749
  -9789179.09007  19936515.80807  -7616681.37149  19936514.10149
 -10654250.03506  21913455.72906  -8284057.53947  21913453.04647
   1043917.49607  20599154.57307    810576.52748  20599151.54248
  -9295927.32006  22059489.05806  -7240138.81648  22059485.35148
  -4887340.87505  23529535.07305  -3803993.02346  23529532.31546
  -5741387.74607  21174239.87007  -4472468.27048  21174234.91748
  -6161467.59006  23015108.77606  -4795322.91447  23015104.99547
   7330519.77306  22491598.79206   5706860.89148  22491595.35848
 08 11 15  0 30 59.9990000  0  9  3  6 13 16 19 21 23 25 31
 -14515130.26208  19840946.40108 -11282514.80549  19840944.28449
  -9814038.72307  19931785.18307  -7636052.51249  19931783.08949
 -10696041.57006  21905502.70606  -8316622.38347  21905499.72947
   1068097.40607  20603756.05007    829417.99248  20603752.61648
  -9402905.09406  22039132.04206  -7323498.08248  22039128.61648
  -4900251.43406  23527078.44806  -3814053.21946  23527075.36646
  -5730434.53907  21176323.85407  -4463933.31348  21176319.48748
  -6260572.39106  22996249.49506  -4872547.43847  22996246.39747
   7401442.47707  22505095.02607   5762125.29748  22505091.66348
 08 11 15  0 31 29.9990000  0  9  3  6 13 16 19 21 23 25 31
 -14573051.05108  19829924.55808 -11327647.88749  19829922.40949
  -9838400.44507  19927149.44807  -7655035.66849  19927147.33549
 -10737231.29306  21897664.64406  -8348718.28147  21897661.23347
   1092455.22307  20608390.76107    848398.10948  20608388.00748
  -9509584.64506  22018830.53406  -7406624.97748  22018827.62848
  -4912695.55906  23524710.94806  -3823749.94546  23524706.41746
  -5718885.43407  21178521.82307  -4454934.00448  21178517.15548
  -6359559.38706  22977412.63606  -4949680.14147  22977410.03047
   7472634.52006  22518642.36206   5817599.58248  22518640.46048
 08 11 15  0 31 59.9990000  0  9  3  6 13 16 19 21 23 25 31
 -14630455.00408  19819000.55808 -11372378.22749  19818998.53449
  -9862261.02308  19922608.87008  -7673628.32049  19922606.85449
 -10777815.11706  21889941.72206  -8380342.06647  21889939.21047
   1116993.43007  20613060.49507    867518.77049  20613057.60149
  -9615960.26206  21998588.79206  -7489515.05548  21998585.02648
  -4924668.83606  23522432.55806  -3833079.73047  23522428.24547
  -5706737.82007  21180833.36207  -4445468.33648  21180829.24148
  -6458422.87106  22958599.47206  -5026716.61347  22958597.09347
   7544098.57806  22532240.69806   5873285.84848  22532238.84348
 08 11 15  0 32 29.9990000  0  9  3  6 13 16 19 21 23 25 31
 -14687347.04708  19808174.50308 -11416709.68049  19808172.21449
  -9885626.24207  19918162.68307  -7691834.98449  19918160.22949
 -10817797.08606  21882333.75306  -8411496.83247  21882331.17147
   1141706.64807  20617763.43307    886775.82048  20617760.22648
  -9722035.55506  21978403.07306  -7572171.10948  21978399.41748
  -4936176.12906  23520242.61206  -3842046.52747  23520239.48747
  -5693998.36707  21183257.65107  -4435541.49248  21183253.24148
  -6557166.22306  22939809.54206  -5103659.48047  22939806.35847
   7615827.89506  22545890.35406   5929178.78948  22545888.73348
 08 11 15  0 32 59.9990000  0  9  3  6 13 16 19 21 23 25 31
 -14743724.20308  19797446.33108 -11460639.92249  19797443.81249
  -9908494.21907  19913810.90907  -7709654.17649  19913808.85849
 -10857174.46906  21874840.23706  -8442180.50847  21874837.60447
   1166596.21907  20622499.61207    906170.27348  20622496.25348
  -9827806.25806  21958276.08906  -7654589.80948  21958272.07348
  -4947215.05905  23518141.72205  -3850648.28147  23518138.98347
  -5680666.70307  21185794.23707  -4425153.19548  21185789.96848
  -6655785.42206  22921042.50306  -5180505.58647  22921039.53047
   7687824.27006  22559591.51106   5985279.81648  22559589.38648
 08 11 15  0 33 29.9990000  0  9  3  6 13 16 19 21 23 25 31
 -14799583.63308  19786816.56508 -11504166.74649  19786814.35449
  -9930863.34407  19909554.26107  -7727084.66449  19909551.80049
 -10895943.90207  21867462.36207  -8472390.44547  21867459.76947
   1191663.89807  20627269.83107    925703.51648  20627266.75348
  -9933268.15606  21938207.34706  -7736767.88348  21938203.39048
  -4957782.47306  23516130.65106  -3858882.60547  23516128.08547
  -5666741.38307  21188444.07307  -4414302.30948  21188439.85148
  -6754275.98406  22902301.16706  -5257251.47347  22902297.55447
   7760088.48006  22573342.75306   6041589.56648  22573340.23348
 08 11 15  0 33 59.9990000  0  9  3  6 13 16 19 21 23 25 31
 -14854926.84008  19776284.99508 -11547291.32049  19776283.22649
  -9952736.57407  19905392.22207  -7744128.73049  19905389.57349
 -10934106.98807  21860200.67507  -8502127.93047  21860197.96847
   1216906.36307  20632073.48707    945372.97348  20632070.36648
 -10038421.91006  21918197.15906  -7818705.84048  21918193.19448
  -4967881.02005  23514208.99505  -3866751.63746  23514206.22246
  -5652226.70707  21191205.95607  -4402992.18448  21191202.06548
  -6852638.82006  22883582.59706  -5333897.81647  22883579.33947
   7832616.90206  22587144.56506   6098105.17248  22587141.83148
 08 11 15  0 34 29.9990000  0  9  3  6 13 16 19 21 23 25 31
 -14909742.52308  19765854.00308 -11590004.84049  19765851.81549
  -9974103.71907  19901326.20607  -7760778.45349  19901323.79249
 -10971652.41007  21853056.01107  -8531384.09848  21853053.69048
   1242333.94107  20636911.94807    965186.66448  20636909.22948
 -10143254.67607  21898248.09707  -7900393.68448  21898244.10148
  -4977499.08605  23512378.27605  -3874246.23446  23512375.48346
  -5637113.09007  21194082.48707  -4391215.36748  21194078.07748
  -6950861.08206  22864890.79206  -5410434.62947  22864889.09347
   7905419.34406  22600997.97206   6154834.30948  22600995.64748
 08 11 15  0 34 59.9990000  0  9  3  6 13 16 19 21 23 25 31
 -14964040.86708  19755521.37808 -11632315.23449  19755519.60849
  -9994975.39508  19897354.26908  -7777042.09049  19897352.34749
 -11008589.60207  21846026.94007  -8560166.34848  21846024.51548
   1267935.61307  20641784.20607    985136.00449  20641781.11249
 -10247774.92606  21878358.45606  -7981838.02048  21878354.34748
  -4986645.78505  23510637.91705  -3881373.50846  23510635.26146
  -5621412.30507  21197070.30807  -4378981.00448  21197066.15948
  -7048950.86306  22846225.12006  -5486868.21547  22846222.79247
   7978484.49206  22614901.77606   6211768.15248  22614899.55848
 08 11 15  0 35 29.9990000  0  9  3  6 13 16 19 21 23 25 31
 -15017823.48808  19745287.31508 -11674223.77349  19745284.87449
 -10015354.20307  19893476.06507  -7792921.67649  19893474.15949
 -11044919.91807  21839113.37007  -8588475.68047  21839111.02647
   1293709.07407  20646688.47907   1005219.21948  20646685.36648
 -10351982.74207  21858528.62807  -8063038.87948  21858524.43348
  -4995322.90205  23508986.33905  -3888134.94946  23508983.60146
  -5605127.90607  21200169.22907  -4366291.86348  21200164.80448
  -7146908.23006  22827584.46406  -5563198.63747  22827581.32347
   8051809.43406  22628855.12006   6268904.46948  22628852.51548
 08 11 15  0 35 59.9990000  0  9  3  6 13 16 19 21 23 25 31
 -15071079.50007  19735152.83107 -11715721.97349  19735150.15949
 -10035231.08207  19889694.01907  -7808410.14849  19889691.55849
 -11080632.84806  21832316.97906  -8616303.95347  21832314.99147
   1319663.28107  20651627.39407   1025443.27348  20651624.45248
 -10455866.44906  21838760.37006  -8143987.20348  21838755.40548
  -5003520.77306  23507427.22906  -3894522.89147  23507424.35147
  -5588251.47307  21203380.65907  -4353141.40648  21203375.67948
  -7244721.70706  22808971.58106  -5639416.92647  22808968.23347
   8125402.65207  22642860.05007   6326249.79348  22642857.48748
 08 11 15  0 36 29.9990000  0  9  3  6 13 16 19 21 23 25 31
 -15123810.96908  19725118.33108 -11756811.43449  19725116.10449
 -10054609.00807  19886006.49507  -7823509.82849  19886003.96849
 -11115730.21506  21825638.70606  -8643652.54747  21825636.24547
   1345795.33207  20656600.01107   1045805.90648  20656596.80048
 -10559426.59406  21819053.49506  -8224683.39548  21819048.14748
  -5011241.23006  23505957.83906  -3900538.85546  23505955.44046
  -5570787.66407  21206704.18307  -4339533.24648  21206699.47648
  -7342391.54306  22790386.21406  -5715523.29347  22790383.02247
   8199260.36707  22656914.49507   6383801.24248  22656911.58148
 08 11 15  0 36 59.9990000  0  9  3  6 13 16 19 21 23 25 31
 -15176021.16008  19715183.03408 -11797494.70349  19715180.33149
 -10073491.73408  19882413.51108  -7838223.64149  19882410.91749
 -11150214.28106  21819076.94006  -8670523.26248  21819074.00348
   1372101.52707  20661606.00307   1066304.22348  20661602.66348
 -10662664.34806  21799408.17506  -8305128.38348  21799402.42148
  -5018486.71905  23504579.97205  -3906184.71546  23504576.44446
  -5552740.73007  21210138.05807  -4325470.70348  21210133.05848
  -7439919.01206  22771826.60406  -5791518.71547  22771824.31947
   8273378.46507  22671018.70607   6441555.56348  22671016.47248
 08 11 15  0 37 29.9990000  0  9  3  6 13 16 19 21 23 25 31
 -15227701.32808  19705348.67508 -11837764.96149  19705346.29649
 -10091871.86707  19878915.19807  -7852545.80949  19878912.97249
 -11184076.59406  21812632.83906  -8696909.48048  21812630.83148
   1398589.30507  20666646.44807   1086944.05548  20666643.41748
 -10765569.80906  21779825.36206  -8385314.46148  21779820.11648
  -5025249.09405  23503291.87005  -3911454.09046  23503289.06546
  -5534104.11307  21213684.22207  -4310948.68048  21213679.75348
  -7537293.85906  22753297.30006  -5867395.19547  22753295.24547
   8347763.93406  22685173.78406   6499518.22347  22685171.19447
 08 11 15  0 37 59.9990000  0  9  3  6 13 16 19 21 23 25 31
 -15278857.76608  19695614.14408 -11877627.11749  19695611.22949
 -10109756.90607  19875512.23707  -7866482.20349  19875509.60849
 -11217323.44106  21806306.03406  -8722816.10548  21806304.31248
   1425251.04307  20671719.86207   1107719.42248  20671716.95248
 -10868147.98006  21760305.62006  -8465245.50848  21760300.99948
  -5031534.84005  23502095.77605  -3916352.05546  23502093.43346
  -5514886.37907  21217340.89407  -4295973.84448  21217337.17548
  -7634521.12506  22734795.66706  -5943156.70347  22734792.63247
   8422408.85506  22699377.77606   6557683.07448  22699375.19848
 08 11 15  0 38 29.9990000  0  9  3  6 13 16 19 21 23 25 31
 -15329494.84808  19685977.76908 -11917084.58249  19685975.79249
 -10127152.29307  19872201.78407  -7880037.05149  19872199.26549
 -11249959.08207  21800096.39407  -8748246.48448  21800093.12848
   1452081.49207  20676825.93307   1128626.24648  20676822.73348
 -10970401.94506  21740846.97906  -8544923.88748  21740842.00748
  -5037348.14106  23500990.55006  -3920881.87547  23500987.66747
  -5495093.85907  21221107.54207  -4280551.12948  21221103.57748
  -7731603.60206  22716321.73706  -6018805.36747  22716318.10147
   8497307.13306  22713631.32306   6616045.32848  22713628.63648
 08 11 15  0 38 59.9990000  0  9  3  6 13 16 19 21 23 25 31
 -15379603.45708  19676442.62808 -11956130.25449  19676440.26549
 -10144049.96107  19868986.30807  -7893204.06649  19868983.83149
 -11281974.03906  21794003.39406  -8773193.19947  21794000.04247
   1479088.58207  20681964.99507   1149670.71948  20681962.02648
 -11072321.07006  21721451.94006  -8624341.35948  21721448.40548
  -5042680.40606  23499975.83906  -3925036.89147  23499973.28047
  -5474719.97707  21224985.41707  -4264675.39548  21224980.67548
  -7828530.57406  22697876.77606  -6094332.85547  22697873.91747
   8572466.20306  22727933.75306   6674610.82448  22727930.18348
 08 11 15  0 39 29.9990000  0  9  3  6 13 16 19 21 23 25 31
 -15429188.04308  19667007.01108 -11994767.58649  19667004.47949
 -10160455.47307  19865864.31507  -7905987.57449  19865862.32349
 -11313372.73806  21788028.87006  -8797659.71148  21788026.01148
   1506267.42207  20687137.30807   1170849.02048  20687133.90548
 -11173908.48806  21702121.08106  -8703500.39548  21702116.48348
  -5047535.77005  23499051.33105  -3928820.30946  23499048.47646
  -5453771.01607  21228972.08907  -4248351.53548  21228967.05448
  -7925304.68006  22679461.18306  -6169741.24247  22679458.39447
   8647880.25006  22742284.15106   6733374.98848  22742281.30448
 08 11 15  0 39 59.9990000  0  9  3  6 13 16 19 21 23 25 31
 -15478248.43008  19657670.99508 -12032996.46149  19657668.70249
 -10176369.59407  19862835.69007  -7918388.19549  19862833.40949
 -11344154.80506  21782170.94006  -8821645.74248  21782168.26148
   1533617.02007  20692341.37007   1192160.38748  20692338.55048
 -11275162.32006  21682852.66706  -8782399.48448  21682848.43748
  -5051914.33605  23498218.11205  -3932232.18046  23498214.45246
  -5432248.74607  21233067.37007  -4231580.94548  21233062.19848
  -8021924.14106  22661075.10406  -6245029.11747  22661072.01147
   8723547.99606  22756683.34706   6792336.84847  22756679.78047
 08 11 15  0 40 29.9990000  0  9  3  6 13 16 19 21 23 25 31
 -15526779.14508  19648435.90108 -12070812.59849  19648433.46849
 -10191787.91007  19859901.69007  -7930402.46949  19859899.72249
 -11374314.48007  21776431.94007  -8845146.80548  21776428.94048
   1561142.36307  20697579.77607   1213608.69148  20697576.45648
 -11376075.41406  21663649.65106  -8861033.06348  21663645.55848
  -5055810.58206  23497476.97206  -3935268.18447  23497473.37847
  -5410149.68807  21237272.28407  -4214360.92248  21237267.96048
  -8118381.53506  22642719.87806  -6320190.71147  22642716.98347
   8799473.58206  22771131.79206   6851499.60548  22771128.87448
 08 11 15  0 40 59.9990000  0  9  3  6 13 16 19 21 23 25 31
 -15574782.09008  19639301.62008 -12108217.48849  19639299.10849
 -10206713.48407  19857061.80807  -7942032.78549  19857059.22249
 -11403854.02007  21770810.55007  -8868164.62948  21770807.80048
   1588840.36707  20702850.32307   1235191.53548  20702847.05048
 -11476648.45307  21644511.61207  -8939401.64848  21644507.75748
  -5059226.29305  23496826.73705  -3937929.79746  23496824.01146
  -5387478.00407  21241586.55807  -4196694.68448  21241581.83548
  -8214677.41006  22624395.44806  -6395226.45747  22624392.53847
   8875653.04706  22785628.27606   6910860.20747  22785624.85447
 08 11 15  0 41 29.9990000  0  9  3  6 13 16 19 21 23 25 31
 -15622260.85908  19630266.43308 -12145213.91849  19630264.57349
 -10221150.95707  19854314.54207  -7953282.76649  19854312.45249
 -11432776.57006  21765306.68306  -8890701.68047  21765304.57747
   1616706.47707  20708152.93307   1256905.37548  20708149.29248
 -11576883.76207  21625437.34707  -9017507.05148  21625433.03048
  -5062165.34805  23496267.05805  -3940219.94946  23496263.77246
  -5364239.37107  21246008.72207  -4178586.67248  21246003.62048
  -8310813.46906  22606101.25306  -6470137.66447  22606098.21447
   8952081.82406  22800172.20606   6970415.04347  22800169.65947
 08 11 15  0 41 59.9990000  0  9  3  6 13 16 19 21 23 25 31
 -15669213.35208  19621331.59708 -12181800.27049  19621329.56549
 -10235099.12507  19851659.98707  -7964151.46949  19851658.05449
 -11461080.01606  21759920.79206  -8912756.30947  21759917.97247
   1644742.37507  20713487.87007   1278751.52348  20713484.61248
 -11676777.18407  21606428.34707  -9095346.07048  21606424.16348
  -5064625.61305  23495799.35405  -3942137.08246  23495795.58146
  -5340433.85907  21250538.67507  -4160036.94148  21250533.69448
  -8406785.75006  22587838.72206  -6544921.22747  22587835.82347
   9028760.21906  22814763.70606   7030164.40648  22814761.38248
 08 11 15  0 42 29.9990000  0  9  3  6 13 16 19 21 23 25 31
 -15715635.53908  19612497.89408 -12217973.39849  19612495.51149
 -10248555.02007  19849099.48707  -7974636.58249  19849097.46449
 -11488760.21106  21754652.99506  -8934325.30547  21754651.09347
   1672951.19907  20718855.95607   1300732.41448  20718852.91348
 -11776323.38307  21587485.02607  -9172914.52748  21587480.78448
  -5066603.08205  23495423.22905  -3943677.92747  23495420.47647
  -5316059.14807  21255177.05807  -4141043.66848  21255172.10848
  -8502588.39106  22569607.30806  -6619572.63747  22569604.65947
   9105690.94106  22829402.76106   7090110.37948  22829401.22248
 08 11 15  0 42 59.9990000  0  9  3  6 13 16 19 21 23 25 31
 -15761531.86708  19603763.88608 -12253736.77049  19603761.75349
 -10261523.96907  19846631.65907  -7984742.25849  19846629.40949
 -11515821.15207  21749503.87807  -8955411.76248  21749501.62048
   1701327.75407  20724256.06507   1322843.99648  20724252.62048
 -11875525.33207  21568607.97907  -9250214.72748  21568603.73748
  -5068102.28105  23495137.40905  -3944846.19147  23495135.44847
  -5291121.85207  21259922.51907  -4121612.02348  21259917.42948
  -8598223.77006  22551408.70606  -6694093.69147  22551406.24547
   9182868.31606  22844089.48706   7150248.54748  22844087.44448
 08 11 15  0 43 29.9990000  0  9  3  6 13 16 19 21 23 25 31
 -15806901.45708  19595130.59708 -12289089.69549  19595128.34349
 -10274006.49607  19844256.31507  -7994468.90249  19844254.34349
 -11542262.39807  21744472.34707  -8976015.32848  21744469.99148
   1729872.09807  20729687.61207   1345086.34448  20729684.58548
 -11974380.74207  21549796.00307  -9327244.89148  21549792.08148
  -5069122.69505  23494943.52605  -3945641.30947  23494941.13247
