     2.10           OBSERVATION DATA    G (GPS)             RINEX VERSION / TYPE
Pinnacle 1.00                           16-NOV-08 16:01     PGM / RUN BY / DATE
build April 19, 2002                                        COMMENT
-Unknown-           -Unknown-                               OBSERVER / AGENCY
         Begin Pinnacle project                             COMMENT
1115                                                        COMMENT
                                                            COMMENT
                                                            COMMENT
November 16, 2008 3:45:30 pm                                COMMENT
                                                            COMMENT
                                                            COMMENT
D:\2008-----\gps\20081115\Pinnacle.dbd                 COMMENT
         End Pinnacle project                               COMMENT
                                                            COMMENT
7291                                                        MARKER NAME
7291(Tail)(Head)                                            MARKER NUMBER
AG7DJYXE328         TPS GB-1000         3.1 Jun,28,2007 p3  REC # / TYPE / VERS
-Unknown-           TPSPG_A1        NONE                    ANT # / TYPE
 -3064109.3254  4054742.4979  3840892.3118                  APPROX POSITION XYZ
        1.4929        0.0000        0.0000                  ANTENNA: DELTA H/E/N
     1     1                                                WAVELENGTH FACT L1/2
     7    L1    L2    C1    P1    P2    D1    D2            # / TYPES OF OBSERV
    30.000                                                  INTERVAL
  2008    11    15     1     0    0.0000000     GPS         TIME OF FIRST OBS
  2008    11    15     3     0    0.0000000     GPS         TIME OF LAST OBS
    12                                                      # OF SATELLITES
   G 3   241   241   241   241   241   241   241            PRN / # OF OBS
   G 6   241   241   241   241   241   241   241            PRN / # OF OBS
   G 7   241   241   241   241   241   241   241            PRN / # OF OBS
   G 8    63    50    63    50    50    63    50            PRN / # OF OBS
   G11   102   101   102   101   101   102   101            PRN / # OF OBS
   G13   171   151   171   151   151   171   151            PRN / # OF OBS
   G16   213   171   213   171   171   201   171            PRN / # OF OBS
   G19   241   241   241   241   241   241   241            PRN / # OF OBS
   G21    38    22    38    22    22    32    22            PRN / # OF OBS
   G23    95    77    95    77    77    92    77            PRN / # OF OBS
   G25   241   241   241   241   241   241   241            PRN / # OF OBS
   G27   206   198   206   198   198   206   198            PRN / # OF OBS
SE TPS 8ad2756d                                             COMMENT
                                                            END OF HEADER
 08 11 15  1  0  0.0000000  0  9G 6G 3G16G19G23G13G25G21G 7         
 107376769.817    83670216.4044   20433118.655 8  20433118.46045  20433120.86245
      -966.258        -752.938  
 105002463.047    81820104.3114   19981302.548 8  19981302.03846  19981305.05646
        65.807          51.277  
 113224304.371    88226732.6724   21545865.819 7  21545865.21445  21545867.77545
     -1983.178       -1545.333  
 113398256.936    88362280.3624   21578968.418 7  21578967.64945  21578967.36645
      2019.712        1573.801  
 116104118.509    90470745.8194   22093878.356 7  22093878.29845  22093877.50545
     -2283.465       -1779.318  
 116974618.649    91149049.2124   22259525.986 6  22259526.51843  22259527.54643
      -657.725        -512.514  
 118619577.909    92430845.7504   22572552.903 7  22572552.48445  22572554.86544
      2100.543        1636.781  
 126966922.715    98935260.0584   24160998.540 4  24160997.08741  24161000.86941
     -1355.035       -1055.866  
 126024316.214    98200767.8314   23981627.076 5  23981627.04443  23981630.19643
      2889.518        2251.582  
 08 11 15  1  0 30.0000000  0  9G 6G 3G16G19G23G13G25G21G 7         
 107405732.004    83692784.3364   20438629.458 8  20438629.14745  20438631.84845
      -964.708        -751.721  
 105000500.292    81818574.8864   19980929.350 8  19980928.99046  19980931.45846
        64.886          50.563  
 113283626.733    88272957.8654   21557154.244 7  21557153.74145  21557156.15645
     -1971.793       -1536.464  
 113337615.457    88315027.2574   21567428.359 7  21567427.24245  21567428.13645
      2022.867        1576.256  
 116172614.264    90524119.1024   22106912.736 7  22106913.00545  22106912.37745
     -2283.081       -1779.017  
 116994406.938    91164468.6684   22263292.791 6  22263292.32443  22263293.11943
      -661.666        -515.571  
 118556432.856    92381641.8114   22560536.886 7  22560536.15544  22560538.26844
      2108.925        1643.325  
 127007561.239    98966926.4174   24168729.913 4  24168731.20341  24168731.91541
     -1354.343       -1055.323  
 125937427.418    98133062.2804   23965093.253 6  23965093.07743  23965095.21343
      2902.904        2262.008  
 08 11 15  1  1  0.0000000  0  9G 6G 3G16G19G23G13G25G21G 7         
 107434642.672    83715312.1284   20444131.426 8  20444131.11445  20444133.43745
      -962.945        -750.354  
 104998559.592    81817062.6454   19980559.988 8  19980559.71246  19980562.49246
        64.214          50.036  
 113342602.299    88318912.8154   21568377.421 7  21568376.80745  21568378.32145
     -1960.187       -1527.418  
 113276875.289    88267697.2624   21555869.422 7  21555868.34145  21555869.30945
      2026.197        1578.856  
 116241092.205    90577478.5114   22119943.741 7  22119943.52144  22119943.24645
     -2282.384       -1778.482  
 117014308.068    91179976.0414   22267080.340 6  22267080.35644  22267080.32244
      -665.356        -518.458  
 118493032.306    92332238.7814   22548471.904 7  22548471.51744  22548473.15744
      2117.468        1649.972  
 127048171.004    98998570.3604   24176459.271 4  24176460.26541  24176461.64641
     -1353.227       -1054.425  
 125850133.164    98065040.7844   23948482.610 6  23948481.76243  23948483.46643
      2916.452        2272.544  
 08 11 15  1  1 30.0000000  0  9G 6G 3G16G19G23G13G25G21G 7         
 107463517.718    83737812.1564   20449625.913 7  20449625.51845  20449628.04545
      -962.211        -749.778  
 104996658.053    81815580.9214   19980197.997 8  19980197.22846  19980200.34246
        62.404          48.626  
 113401248.200    88364610.9114   21579537.479 7  21579536.96845  21579537.91845
     -1949.697       -1519.246  
 113216055.120    88220304.9314   21544295.901 7  21544294.64545  21544296.02645
      2028.320        1580.511  
 116309566.905    90630835.3994   22132973.769 7  22132973.04044  22132972.78544
     -2282.751       -1778.758  
 117034338.361    91195584.0764   22270892.676 7  22270893.64444  22270891.98544
      -670.167        -522.208  
 118429395.909    92282651.9764   22536362.573 7  22536362.13644  22536363.44744
      2124.784        1655.679  
 127088769.415    99030205.4744   24184186.457 4  24184183.43641  24184184.03041
     -1353.423       -1054.590  
 125762452.785    97996718.4234   23931797.402 6  23931795.83243  23931797.64943
      2928.727        2282.117  
 08 11 15  1  2  0.0000000  0  9G 6G 3G16G19G23G13G25G21G 7         
 107492383.802    83760305.1944   20455118.913 7  20455118.72345  20455121.22645
      -962.506        -749.996  
 104994822.865    81814150.8974   19979848.950 8  19979848.41446  19979850.98546
        59.595          46.440  
 113459591.943    88410073.5614   21590639.592 7  21590639.25545  21590640.27645
     -1940.208       -1511.850  
 113155184.250    88172873.1054   21532712.922 7  21532712.10846  21532712.39645
      2029.394        1581.343  
 116378063.699    90684209.5054   22146008.243 7  22146008.16944  22146006.85144
     -2284.012       -1779.750  
 117054524.948    91211313.8714   22274734.094 7  22274734.66044  22274733.46144
      -675.956        -526.710  
 118365553.733    92232904.8354   22524213.967 7  22524213.30544  22524214.61144
      2131.013        1660.525  
 127129383.420    99061852.7704   24191912.203 4  24191914.91541  24191914.80741
     -1354.591       -1055.548  
 125674417.054    97928119.1694   23915043.892 5  23915042.36143  23915044.72343
      2939.934        2290.860  
 08 11 15  1  2 30.0000000  0  9G 6G 3G16G19G23G13G25G21G 7         
 107521256.429    83782803.3384   20460612.994 8  20460612.75945  20460615.69045
      -962.177        -749.753  
 104993070.843    81812785.6774   19979515.575 8  19979515.10346  19979517.23546
        57.381          44.710  
 113517650.256    88455313.8084   21601687.616 7  21601686.83245  21601688.80245
     -1930.160       -1504.020  
 113094280.855    88125415.9254   21521123.586 8  21521122.94146  21521123.32246
      2031.003        1582.598  
 116446596.982    90737612.0314   22159050.081 7  22159049.86844  22159048.90644
     -2284.668       -1780.254  
 117074884.159    91227178.1774   22278607.873 7  22278608.96244  22278606.92044
      -681.146        -530.766  
 118301525.017    92183012.3284   22512029.444 7  22512029.15844  22512030.84744
      2137.738        1665.765  
 127170029.942    99093525.3814   24199646.165 5  24199645.03441  24199650.28841
     -1355.088       -1055.908  
 125586044.730    97859257.6414   23898226.777 6  23898225.94543  23898227.99343
      2951.698        2300.025  
 08 11 15  1  3  0.0000000  0  9G 6G 3G16G19G23G13G25G21G 7         
 107550135.272    83805306.3304   20466108.592 7  20466108.13345  20466110.80645
      -962.978        -750.375  
 104991402.400    81811485.5864   19979197.599 8  19979197.17546  19979200.05046
        53.949          42.036  
 113575423.844    88500332.1654   21612681.611 7  21612680.86245  21612683.14745
     -1921.320       -1497.126  
 113033347.233    88077935.1814   21509527.790 7  21509526.48246  21509527.95246
      2031.332        1582.855  
 116515165.241    90791041.8174   22172097.679 7  22172097.30544  22172097.33844
     -2286.419       -1781.624  
 117095416.352    91243177.2614   22282514.533 7  22282515.58544  22282513.97744
      -687.546        -535.745  
 118237312.888    92132976.8994   22499810.148 7  22499809.66544  22499812.34944
      2143.163        1669.996  
 127210709.181    99125223.4634   24207387.241 5  24207387.68041  24207388.85641
     -1356.831       -1057.284  
 125497338.546    97790135.9324   23881345.963 6  23881346.75644  23881348.16544
      2962.124        2308.153  
 08 11 15  1  3 30.0000000  0  9G 6G 3G16G19G23G13G25G21G 7         
 107579035.142    83827825.7014   20471608.004 8  20471607.76445  20471610.53245
      -963.991        -751.159  
 104989833.221    81810262.8444   19978899.037 8  19978898.38546  19978901.55946
        50.314          39.207  
 113632928.454    88545140.9404   21623624.697 7  21623624.04345  21623625.82045
     -1912.677       -1490.401  
 112972400.734    88030444.4224   21497930.103 7  21497929.00345  21497929.86345
      2031.407        1582.913  
 116583781.449    90844508.9754   22185154.897 7  22185154.31445  22185154.52445
     -2288.312       -1783.100  
 117116136.661    91259322.9524   22286456.595 7  22286457.33644  22286456.77144
      -694.158        -540.903  
 118172935.820    92082812.9584   22487559.534 7  22487558.84444  22487561.36344
      2148.289        1673.984  
 127251437.055    99156959.5544   24215141.832 5  24215138.69441  24215141.60641
     -1358.753       -1058.792  
 125408317.120    97720768.6024   23864406.732 6  23864407.37744  23864409.03144
      2972.277        2316.063  
 08 11 15  1  4  0.0000000  0  9G 6G 3G16G19G23G13G25G21G 7         
 107607977.869    83850378.4714   20477115.889 8  20477115.87646  20477118.61146
      -965.492        -752.331  
 104988385.953    81809135.0934   19978624.073 8  19978623.60946  19978626.34046
        46.205          36.008  
 113690187.226    88589758.1424   21634520.876 8  21634520.50245  21634522.28945
     -1904.552       -1484.059  
 112911465.897    87982962.7304   21486334.957 7  21486334.20646  21486334.35745
      2030.916        1582.530  
 116652466.536    90898029.7894   22198225.412 7  22198225.13245  22198225.01545
     -2290.635       -1784.908  
 117137067.617    91275632.7654   22290439.138 7  22290439.19444  22290440.11544
      -701.223        -546.400  
 118108419.182    92032540.2574   22475282.622 7  22475282.10244  22475284.01544
      2152.841        1677.542  
 127292235.740    99188750.7254   24222902.825 5  24222903.37041  24222904.88141
     -1361.093       -1060.623  
 125319006.107    97651175.6214   23847411.546 7  23847412.38144  23847414.38644
      2981.825        2323.497  
 08 11 15  1  4 30.0000000  0  9G 6G 3G16G19G23G13G25G21G 7         
 107636962.577    83872963.9534   20482631.720 8  20482631.50746  20482634.52146
      -966.797        -753.350  
 104987060.089    81808101.9534   19978371.934 8  19978371.57546  19978374.21146
        42.237          32.909  
 113747200.271    88634183.8774   21645369.884 7  21645369.54845  21645371.45745
     -1896.278       -1477.615  
 112850544.630    87935491.6294   21474741.944 7  21474740.46745  21474741.25145
      2030.532        1582.234  
 116721218.143    90951602.4194   22211308.732 7  22211308.38745  22211308.16045
     -2292.719       -1786.531  
 117158208.395    91292106.0944   22294462.553 7  22294462.71944  22294462.35444
      -708.112        -551.772  
 118043765.710    91982160.9304   22462979.902 7  22462979.44344  22462980.87744
      2157.453        1681.133  
 127333104.410    99220596.3974   24230679.687 4  24230681.19041  24230684.35341
     -1363.378       -1062.406  
 125229407.837    97581358.7894   23830361.431 7  23830362.73944  23830364.61144
      2991.444        2331.001  
 08 11 15  1  5  0.0000000  0  9G 6G 3G16G19G23G13G25G21G 7         
 106090593.515    82668001.0474   20188367.263 8  20188366.98346  20188369.90946
      -969.912        -755.779  
 103410460.075    80579582.4634   19678354.825 8  19678354.37146  19678356.84746
        36.406          28.370  
 112228573.874    87450838.6204   21356385.180 8  21356385.21045  21356386.05045
     -1889.856       -1472.617  
 111214240.548    86660449.5034   21163362.733 7  21163361.69445  21163362.87545
      2028.262        1580.467  
 115214640.463    89777645.7564   21924616.856 7  21924616.27045  21924616.06245
     -2296.594       -1789.553  
 115604163.934    90081162.3394   21998738.118 7  21998738.09944  21998737.95444
      -716.876        -558.605  
 116403580.132    90704094.2404   22150863.067 7  22150863.46945  22150864.03445
      2160.091        1683.189  
 125798649.267    98024917.0324   23938682.940 5  23938682.84441  23938684.10441
     -1367.514       -1065.618  
 123564126.288    96283736.8384   23513469.334 7  23513470.02544  23513471.68844
      2999.096        2336.963  
 08 11 15  1  5 30.0000000  0  9G 6G 3G16G19G23G13G25G21G 7         
 106119722.061    82690698.6114   20193910.403 8  20193910.36046  20193912.49546
      -971.776        -757.226  
 103409440.621    80578788.0894   19678160.865 8  19678160.58646  19678163.36646
        31.786          24.767  
 112285159.117    87494931.0004   21367153.323 7  21367152.68345  21367154.07045
     -1882.255       -1466.692  
 111153413.887    86613052.1284   21151788.463 8  21151787.57345  21151788.09845
      2027.083        1579.539  
 115283581.273    89831365.8614   21937735.510 7  21937734.78945  21937734.97945
     -2299.209       -1791.593  
 115625786.847    90098011.3424   22002852.824 7  22002853.29444  22002852.92044
      -724.421        -564.481  
 116338724.004    90653556.9944   22138521.071 7  22138520.97045  22138523.06045
      2163.876        1686.140  
 125839721.498    98056921.2884   23946498.310 5  23946499.99941  23946500.51941
     -1370.424       -1067.861  
 123474024.904    96213527.9834   23496323.961 6  23496323.61444  23496325.11444
      3007.860        2343.786  
 08 11 15  1  6  0.0000000  0  9G 6G 3G16G19G23G13G25G21G 7         
 106148927.973    82713456.4594   20199468.026 8  20199467.85545  20199469.80745
      -975.232        -759.916  
 103408580.311    80578117.7154   19677996.557 8  19677996.03146  19677999.13846
        25.593          19.950  
 112341537.146    87538861.9074   21377881.202 7  21377881.18145  21377882.51445
     -1876.265       -1462.027  
 111092643.700    86565698.7644   21140224.316 7  21140223.46645  21140224.03745
      2024.275        1577.354  
 115352620.097    89885162.3094   21950873.135 7  21950872.82345  21950872.16045
     -2303.338       -1794.803  
 115647656.425    90115052.5234   22007014.829 7  22007015.06844  22007014.42844
      -733.538        -571.584  
 116273777.266    90602949.1404   22126161.804 7  22126160.89245  22126164.29145
      2165.936        1687.745  
 125880902.162    98089010.0854   23954335.902 5  23954335.71541  23954335.67141
     -1374.932       -1071.346  
 123383682.522    96143131.3274   23479131.830 6  23479130.93144  23479133.04944
      3014.959        2349.320  
 08 11 15  1  6 30.0000000  0  9G 6G 3G16G19G23G13G25G21G 7         
 106178231.075    82736290.0524   20205044.048 8  20205044.15745  20205045.94145
      -978.493        -762.466  
 103407900.107    80577587.6874   19677867.116 8  19677866.79146  19677869.70546
        19.542          15.227  
 112397729.644    87582648.2464   21388574.285 7  21388573.55345  21388575.93545
     -1870.115       -1457.229  
 111031952.556    86518406.9674   21128675.339 7  21128674.13245  21128675.27745
      2021.573        1575.261  
 115421775.354    89939049.4744   21964033.343 7  21964032.98645  21964032.30345
     -2307.217       -1797.830  
 115669793.203    90132301.9334   22011227.568 7  22011228.16644  22011226.74244
      -742.468        -578.548  
 116208763.424    90552289.0124   22113789.910 7  22113789.37545  22113792.73145
      2168.074        1689.407  
 125922212.117    98121199.6634   23962197.020 5  23962197.23041  23962197.82241
     -1379.264       -1074.779  
 123293123.044    96072565.5164   23461898.596 6  23461898.47144  23461900.13644
      3022.118        2354.896  
 08 11 15  1  7  0.0000000  0  9G 6G 3G16G19G23G13G25G21G 7         
 106207648.370    82759212.6174   20210642.351 8  20210642.26045  20210643.88746
      -982.452        -765.541  
 103407417.771    80577211.8464   19677775.375 8  19677774.63646  19677777.83146
        12.814           9.987  
 112453754.583    87626304.0234   21399235.264 7  21399234.91345  21399236.84145
     -1864.671       -1452.993  
 110971360.336    86471192.2684   21117144.862 7  21117143.47246  21117144.73746
      2018.099        1572.551  
 115491062.714    89993039.5994   21977217.748 7  21977217.30144  21977217.83844
     -2311.729       -1801.341  
 115692214.946    90149773.3874   22015494.054 7  22015495.04644  22015494.23944
      -752.102        -586.047  
 116143703.637    90501593.0814   22101410.033 7  22101409.71045  22101411.99345
      2169.447        1690.477  
 125963667.935    98153502.8574   23970085.494 5  23970085.51341  23970086.84041
     -1384.226       -1078.605  
 123202367.180    96001846.6864   23444628.423 6  23444627.87943  23444630.29643
      3028.494        2359.854  
 08 11 15  1  7 30.0000000  0  9G 6G 3G16G19G23G13G25G21G 7         
 106237180.275    82782224.5024   20216261.890 8  20216261.68546  20216264.05046
      -986.229        -768.495  
 103407134.694    80576991.2624   19677721.246 8  19677720.72546  19677724.06546
         6.188           4.821  
 112509613.392    87669830.3474   21409864.889 7  21409864.26945  21409866.30145
     -1859.124       -1448.663  
 110910869.926    86424056.8954   21105633.941 8  21105633.17545  21105633.31245
      2014.709        1569.901  
 115560481.217    90047131.9354   21990428.206 7  21990427.81545  21990428.26645
     -2316.031       -1804.701  
 115714922.468    90167467.5584   22019815.076 7  22019816.62944  22019816.29644
      -761.599        -593.458  
 116078601.595    90450864.2164   22089021.244 7  22089021.35145  22089023.34345
      2170.826        1691.551  
 126005271.358    98185921.1004   23978003.891 5  23978003.93441  23978004.41141
     -1389.183       -1082.490  
 123111419.020    95930978.0034   23427320.735 5  23427320.88043  23427322.93343
      3034.851        2364.827  
 08 11 15  1  8  0.0000000  0  9G 6G 3G16G19G23G13G25G21G 7         
 106266835.229    82805332.2554   20221905.245 8  20221904.66046  20221907.11246
      -990.709        -771.976  
 103407059.909    80576932.9904   19677706.818 8  19677706.09346  19677709.38346
        -1.145          -0.892  
 112565316.029    87713234.9754   21420464.672 7  21420464.05445  21420466.85345
     -1854.319       -1444.928  
 110850492.212    86377009.3404   21094144.596 8  21094143.65945  21094143.54045
      2010.534        1566.649  
 115630038.447    90101332.3644   22003665.005 7  22003664.29245  22003664.67445
     -2321.002       -1808.578  
 115737924.483    90185391.1894   22024191.815 7  22024192.87044  22024193.28844
      -771.808        -601.412  
 116013469.627    90400112.0404   22076627.224 7  22076626.73845  22076628.74645
      2171.372        1691.971  
 126047031.694    98218461.6494   23985950.336 5  23985948.49641  23985951.94441
     -1394.828       -1086.867  
 123020290.673    95859968.9454   23409980.423 5  23409979.88343  23409982.30543
      3040.403        2369.149  
 08 11 15  1  8 30.0000000  0  9G 6G 3G16G19G23G13G25G21G 7         
 106296637.811    82828555.0424   20227575.953 8  20227575.54645  20227578.24346
      -995.484        -775.698  
 103407218.627    80577056.6704   19677737.192 8  19677736.69146  19677739.31146
        -8.797          -6.855  
 112620888.392    87756538.0944   21431040.153 8  21431039.65945  21431041.88845
     -1849.863       -1441.446  
 110790254.403    86330070.8054   21082681.389 7  21082680.17145  21082680.64845
      2005.967        1563.091  
 115699757.020    90155658.4874   22016930.993 7  22016930.66244  22016931.21444
     -2326.245       -1812.652  
 115761245.742    90203563.5744   22028629.008 7  22028629.47744  22028630.35044
      -782.302        -609.585  
 115948335.900    90349358.4814   22064232.647 7  22064232.45445  22064234.25045
      2171.504        1692.081  
 126088974.338    98251144.2054   23993931.673 4  23993928.37141  23993932.14841
     -1400.629       -1091.426  
 122929010.396    95788841.4724   23392610.584 5  23392610.35643  23392612.13643
      3045.573        2373.162  
 08 11 15  1  9  0.0000000  0  9G 6G 3G16G19G23G13G25G21G 7         
 106326585.749    82851891.0854   20233275.025 8  20233274.49346  20233277.71746
     -1000.262        -779.420  
 103407609.496    80577361.2534   19677811.650 8  19677811.27546  19677813.52346
       -16.479         -12.841  
 112676328.888    87799738.4544   21441590.118 7  21441589.47745  21441591.49645
     -1845.384       -1437.959  
 110730156.570    86283241.3374   21071245.043 8  21071244.13546  21071244.55245
      2001.341        1559.482  
 115769633.310    90210107.5214   22030228.154 7  22030227.72745  22030228.23944
     -2331.383       -1816.664  
 115784884.522    90221983.3674   22033126.669 6  22033125.94844  22033129.46343
      -792.810        -617.775  
 115883201.904    90298604.7204   22051838.434 7  22051838.67945  22051840.06645
      2171.522        1692.093  
 126131096.810    98283966.9234   24001945.449 4  24001944.58541  24001945.20441
     -1406.689       -1096.147  
 122837579.751    95717596.8534   23375211.434 5  23375211.75343  23375213.50143
      3050.596        2377.091  
 08 11 15  1  9 30.0000000  0  9G 6G 3G16G19G23G13G25G21G 7         
 106356683.247    82875343.6664   20239002.298 8  20239002.54046  20239005.20746
     -1006.300        -784.125  
 103408237.968    80577850.9774   19677931.632 8  19677931.27046  19677933.39646
       -25.468         -19.849  
 112731643.658    87842840.8504   21452116.592 7  21452116.08945  21452117.58945
     -1842.307       -1435.561  
 110670205.830    86236526.4854   21059836.927 7  21059835.88445  21059836.78046
      1995.320        1554.791  
 115839670.466    90264681.9234   22043556.477 7  22043555.85945  22043555.49345
     -2337.795       -1821.653  
 115808845.363    90240654.1334   22037686.531 6  22037685.90144  22037689.22843
      -804.645        -627.001  
 115818075.674    90247857.0134   22039445.535 7  22039445.62845  22039447.40345
      2170.137        1691.021  
 126173404.780    98316934.1324   24009997.355 5  24009997.67941  24009990.81641
     -1413.915       -1101.786  
 122746006.707    95646241.2444   23357785.968 5  23357785.79443  23357787.33143
      3054.156        2379.867  
 08 11 15  1 10  0.0000000  0  9G 6G 3G16G19G23G13G25G21G 7         
 106386959.262    82898935.3624   20244764.076 8  20244763.70246  20244766.40346
     -1012.656        -789.083  
 103409133.281    80578548.6184   19678102.141 8  19678101.79046  19678104.16846
       -34.796         -27.112  
 112786863.074    87885868.9524   21462624.641 8  21462624.61445  21462625.02945
     -1839.549       -1433.411  
 110610433.872    86189950.9494   21048462.896 7  21048461.81146  21048462.77646
      1988.903        1549.792  
 115909896.027    90319403.1394   22056919.957 7  22056919.57445  22056918.88045
     -2344.467       -1826.857  
 115833157.601    90259598.7144   22042313.054 7  22042312.23544  22042316.00844
      -816.750        -636.431  
 115752989.901    90197140.8304   22027059.827 7  22027059.87145  22027062.06345
      2168.325        1689.609  
 126215927.596    98350068.7744   24018090.230 4  24018089.80341  24018087.39641
     -1421.464       -1107.718  
 122654324.124    95574800.2814   23340339.423 6  23340339.87843  23340340.37243
      3057.367        2382.370  
 08 11 15  1 10 30.0000000  0  9G 6G 3G16G19G23G13G25G21G 7         
 106417424.882    82922674.8014   20250561.378 8  20250561.32446  20250563.92345
     -1018.816        -793.882  
 103410306.936    80579463.1514   19678325.088 8  19678324.87246  19678327.64746
       -43.901         -34.213  
 112841998.838    87928831.8674   21473116.669 8  21473116.24045  21473116.96845
     -1836.598       -1431.120  
 110550854.106    86143525.1594   21037125.733 8  21037124.91546  21037125.32846
      1982.647        1544.915  
 115980319.734    90374278.7474   22070320.224 7  22070319.46544  22070320.49844
     -2350.865       -1831.845  
 115857832.172    90278825.6324   22047009.128 7  22047008.39744  22047010.57744
      -828.631        -645.688  
 115687959.307    90146467.6434   22014684.553 7  22014684.32745  22014687.22045
      2166.592        1688.256  
 126258677.330    98383380.2304   24026224.432 4  24026226.85641  24026226.60741
     -1428.995       -1113.510  
 122562546.841    95503285.5234   23322874.814 6  23322876.01743  23322876.23043
      3060.656        2384.934  
 08 11 15  1 11  0.0000000  0  8G 6G 3G16G19G23G13G25G 7            
 106448086.972    82946567.3364   20256395.540 8  20256395.35645  20256398.49945
     -1025.409        -799.024  
 103411766.799    80580600.7024   19678602.802 8  19678602.28246  19678605.51346
       -53.528         -41.713  
 112897059.510    87971736.2614   21483593.733 7  21483593.36745  21483594.27845
     -1834.213       -1429.250  
 110491476.104    86097256.5894   21025825.901 8  21025825.09846  21025825.52946
      1975.783        1539.569  
 116050947.028    90429312.9864   22083759.948 7  22083759.16144  22083760.43644
     -2357.719       -1837.185  
 115882876.661    90298340.8084   22051774.886 7  22051775.06644  22051776.43244
      -841.089        -655.387  
 115622994.630    90095845.8304   22002321.429 7  22002321.20545  22002324.22245
      2164.268        1686.441  
 122470685.472    95431705.2194   23305394.128 6  23305394.45143  23305395.89043
      3063.308        2386.995  
 08 11 15  1 11 30.0000000  0  9G 6G 3G16G19G23G13G25G21G 7         
 106478944.853    82970612.4354   20262267.877 7  20262267.49845  20262270.61645
     -1032.139        -804.268  
 103413512.745    80581961.1784   19678934.959 8  19678934.54246  19678937.43646
       -63.283         -49.312  
 112952045.827    88014582.7204   21494056.990 7  21494056.18345  21494058.20345
     -1831.945       -1427.492  
 110432301.866    86051146.8044   21014565.121 7  21014564.11845  21014564.64945
      1968.723        1534.071  
 116121776.137    90484504.4734   22097238.663 7  22097238.55744  22097239.02944
     -2364.599       -1842.549  
 115908290.946    90318144.1264   22056611.630 7  22056611.09344  22056612.58944
      -853.596        -665.142  
 115558098.960    90045277.7764   21989973.086 7  21989973.02045  21989974.28345
      2161.694        1684.437  
 126345128.079                    24042665.187 4                                
         0.000                  
 122378743.606    95360062.2074   23287898.076 6  23287897.38643  23287901.27543
      3065.732        2388.888  
 08 11 15  1 12  0.0000000  0  8G 6G 3G16G19G23G13G25G 7            
 106510006.450    82994816.2704   20268179.231 7  20268178.61545  20268180.84746
     -1038.478        -809.203  
 103415554.062    80583551.8004   19679323.610 8  19679323.14246  19679326.29846
       -72.638         -56.597  
 113006966.647    88057378.1484   21504508.096 7  21504507.61345  21504509.68045
     -1829.306       -1425.434  
 110373341.578    86005203.7324   21003345.313 8  21003344.75346  21003345.04246
      1962.063        1528.881  
 116192813.119    90539857.9304   22110756.923 7  22110756.36944  22110756.25644
     -2371.048       -1847.566  
 115934083.150    90338241.9224   22061519.655 7  22061519.51444  22061520.75644
      -865.727        -674.594  
 115493284.091    89994772.6814   21977639.375 7  21977639.10745  21977640.91145
      2159.420        1682.668  
 122286732.748    95288365.4204   23270388.419 6  23270387.94443  23270392.74843
      3068.452        2391.003  
 08 11 15  1 12 30.0000000  0  8G 6G 3G16G19G23G13G25G 7            
 106541289.065    83019192.3164   20274131.763 8  20274131.71945  20274134.01545
     -1046.642        -815.557  
 103417908.249    80585386.2214   19679771.805 8  19679771.28846  19679774.42046
       -83.918         -65.382  
 113061841.205    88100137.5134   21514951.249 8  21514951.08645  21514952.07945
     -1828.592       -1424.871  
 110314615.199    85959442.9244   20992170.604 7  20992169.22846  20992169.60846
      1953.389        1522.130  
 116264074.130    90595385.9754   22124316.917 7  22124316.15744  22124316.98644
     -2379.281       -1853.990  
 115960270.605    90358647.7294   22066503.868 7  22066504.07844  22066503.30544
      -879.703        -685.478  
 115428570.992    89944346.8874   21965324.735 7  21965324.47545  21965326.69845
      2155.172        1679.358  
 122194674.092    95216631.4144   23252870.398 6  23252870.63543  23252873.93343
      3069.149        2391.549  
 08 11 15  1 13  0.0000000  0  9G 6G 3G16G19G23G13G25G21G 7         
 106572800.926    83043747.0154   20280128.881 8  20280128.22845  20280130.78546
     -1054.460        -821.659  
 103420584.245    80587471.4074   19680280.932 8  19680280.22846  19680283.44946
       -94.830         -73.892  
 113116678.559    88142867.8974   21525386.245 7  21525386.02745  21525387.33645
     -1827.568       -1424.076  
 110256133.455    85913872.7274   20981042.180 8  20981040.81146  20981041.54146
      1945.025        1515.604  
 116335565.852    90651093.7754   22137921.605 7  22137921.13244  22137921.23544
     -2387.139       -1860.107  
 115986861.765    90379368.0924   22071563.272 7  22071563.08744  22071563.86944
      -893.362        -696.118  
 115363971.662    89894009.7474   21953031.858 7  21953031.51845  21953033.71345
      2151.113        1676.189  
 126476037.547                    24067589.207 4                                
     -1471.157                  
 122102579.786    95144869.6314   23235346.654 6  23235346.45343  23235348.47043
      3070.120        2392.297  
 08 11 15  1 13 30.0000000  0  8G 6G 3G16G19G23G13G25G 7            
 106604547.303    83068484.4474   20286169.624 7  20286169.03545  20286171.81145
     -1062.511        -827.933  
 103423588.224    80589812.1614   19680852.803 8  19680852.50846  19680854.77746
      -106.003         -82.611  
 113171485.659    88185574.7064   21535815.633 7  21535815.01645  21535817.26445
     -1826.807       -1423.491  
 110197904.238    85868499.3154   20969960.816 7  20969960.01646  20969960.72345
      1936.327        1508.821  
 116407292.499    90706984.6334   22151570.856 7  22151570.53544  22151570.51444
     -2395.183       -1866.377  
 116013862.164    90400407.3424   22076701.371 7  22076701.74344  22076701.41844
      -907.233        -706.930  
 115299495.220    89843768.3714   21940762.488 7  21940762.27845  21940764.19345
      2146.717        1672.762  
 122010458.947    95073087.2064   23217815.785 6  23217816.21143  23217817.82943
      3070.691        2392.744  
 08 11 15  1 14  0.0000000  0  9G 6G 3G16G19G23G13G25G21G 7         
 106636529.752    83093405.8324   20292255.758 7  20292255.54845  20292257.45845
     -1070.249        -833.951  
 103426922.281    80592410.1194   19681487.162 8  19681486.26846  19681489.31446
      -116.866         -91.057  
 113226265.407    88228260.2084   21546239.476 7  21546238.73445  21546240.99545
     -1825.769       -1422.670  
 110139931.700    85823325.9164   20958929.516 8  20958928.62646  20958928.81946
      1927.902        1502.267  
 116479253.901    90763058.4214   22165264.572 7  22165264.56445  22165264.03845
     -2402.825       -1872.327  
 116041273.400    90421766.7104   22081917.441 6  22081918.05644  22081917.76044
      -920.796        -717.501  
 115235146.980    89793626.8824   21928517.316 7  21928517.65245  21928518.84545
      2142.543        1669.519  
 126564909.277                    24084499.769 5                                
         0.000                  
 121918317.232    95001288.5114   23200281.937 6  23200281.12743  23200282.51043
      3071.489        2393.365  
 08 11 15  1 14 30.0000000  0  9G 6G 3G16G19G23G13G25G21G 7         
 106668752.381    83118514.3864   20298387.396 7  20298386.88545  20298388.79545
     -1077.660        -839.741  
 103430591.536    80595269.2864   19682185.415 8  19682184.98046  19682187.82246
      -127.460         -99.318  
 113281023.307    88270928.7004   21556659.395 7  21556658.64345  21556661.07345
     -1824.504       -1421.694  
 110082222.482    85778357.7124   20947947.780 8  20947946.76745  20947947.71445
      1919.641        1495.823  
 116551452.667    90819317.1754   22179003.721 7  22179002.57945  22179003.84545
     -2410.158       -1878.045  
 116069099.863    90443449.6614   22087212.698 7  22087213.39944  22087212.65244
      -934.050        -727.823  
 115170935.052    89743591.6204   21916297.934 7  21916297.45345  21916299.17945
      2138.521        1666.379  
 126609688.995                    24093020.720 4                                
     -1498.373                  
 121826162.444    94929479.6124   23182744.955 6  23182743.52743  23182746.04343
      3072.423        2394.096  
 08 11 15  1 15  0.0000000  0 10G 6G 3G16G19G23G13G25G21G 7G27      
 106701225.271    83143817.9344   20304566.897 8  20304566.68845  20304568.93446
     -1086.800        -846.851  
 103434606.138    80598397.5434   19682949.226 8  19682948.54446  19682951.62346
      -139.783        -108.915  
 113335771.028    88313589.2324   21567077.964 7  21567077.12545  21567079.06545
     -1824.948       -1422.036  
 110024789.036    85733604.3784   20937018.253 7  20937017.35745  20937017.83545
      1909.623        1488.018  
 116623897.861    90875767.9584   22192789.562 7  22192788.90745  22192789.81345
     -2419.126       -1885.037  
 116097351.782    90465464.1474   22092589.275 7  22092590.10144  22092589.58644
      -949.011        -739.490  
 115106873.347    89693673.4124   21904107.160 7  21904106.45545  21904108.53245
      2132.635        1661.794  
 126654806.181                    24101605.434 4                                
     -1509.060                  
 121734008.864    94857671.6434   23165208.748 6  23165208.04543  23165209.87143
      3071.514        2393.408  
 129537588.781                    24650179.751 4                                
      2991.640                  
 08 11 15  1 15 30.0000000  0 10G 6G 3G16G19G23G13G25G21G 7G27      
 106733955.079    83169321.6854   20310795.126 8  20310795.11645  20310797.31346
     -1095.371        -853.534  
 103438973.505    80601800.6844   19683780.450 8  19683779.84646  19683782.75046
      -151.583        -118.113  
 113390516.425    88356247.9694   21577495.782 7  21577495.28045  21577497.11945
     -1824.935       -1422.030  
 109967640.475    85689073.0354   20926143.429 7  20926142.22045  20926142.67045
      1900.066        1480.571  
 116696594.654    90932414.7844   22206623.953 7  22206623.55445  22206622.56045
     -2427.527       -1891.578  
 116126035.894    90487815.3954   22098047.062 6  22098047.66944  22098048.00444
      -963.468        -750.750  
 115042972.109    89643880.2324   21891947.390 7  21891947.25745  21891948.92545
      2127.199        1657.557  
 126700224.489                    24110247.969 4                                
     -1519.083                  
 121641867.158    94785872.9074   23147674.309 7  23147675.61943  23147676.51443
      3071.028        2393.008  
 129447782.771                    24633093.140 3                                
      2995.164                  
 08 11 15  1 16  0.0000000  0 10G 6G 3G16G19G23G13G25G21G 7G27      
 106766944.633    83195027.8394   20317072.863 7  20317072.49445  20317075.18545
     -1103.983        -860.249  
 103443697.378    80605481.6214   19684679.331 8  19684678.79446  19684681.83146
      -163.407        -127.330  
 113445264.053    88398908.4314   21587914.040 7  21587913.60445  21587915.48245
     -1824.967       -1422.051  
 109910782.153    85644767.8604   20915323.669 7  20915322.74145  20915322.08545
      1890.418        1473.047  
 116769544.617    90989258.8794   22220504.817 7  22220504.48644  22220504.06544
     -2435.858       -1898.074  
 116155155.256    90510505.7894   22103587.377 6  22103586.30943  22103590.30343
      -977.903        -761.993  
 114979238.312    89594217.5264   21879819.739 7  21879818.88145  21879821.29445
      2121.626        1653.214  
 126745946.004                    24118946.853 4                                
     -1529.119                  
 121549744.289    94714088.8474   23130144.811 7  23130146.61444  23130146.40744
      3070.401        2392.514  
 129357882.131                    24615985.962 2                                
      2997.249                  
 08 11 15  1 16 30.0000000  0  9G 6G 3G16G19G23G13G25G21G 7         
 106800198.508    83220939.9424   20323400.705 8  20323400.36945  20323402.51145
     -1112.697        -867.034  
 103448783.207    80609444.6004   19685647.117 8  19685646.61946  19685649.39746
      -175.367        -136.650  
 113500019.937    88441575.3234   21598333.266 7  21598332.52845  21598335.08845
     -1825.164       -1422.204  
 109854221.604    85600694.6974   20904560.316 8  20904559.33045  20904559.39445
      1880.554        1465.364  
 116842750.567    91046302.4354   22234435.621 7  22234435.35244  22234434.67744
     -2444.253       -1904.615  
 116184714.898    90533539.2534   22109211.134 5  22109209.05243  22109214.39243
      -992.480        -773.349  
 114915680.298    89544691.7934   21867724.895 7  21867724.69645  21867726.34345
      2115.808        1648.683  
 126791976.043                    24127707.644 4                                
     -1539.286                  
 121457648.686    94642326.0404   23112620.278 7  23112621.22844  23112620.75844
      3069.531        2391.839  
 08 11 15  1 17  0.0000000  0  9G 6G 3G16G19G23G13G25G21G 7         
 106833723.730    83247063.4894   20329780.527 8  20329780.22046  20329782.65545
     -1122.259        -874.489  
 103454238.157    80613695.2044   19686685.350 8  19686685.04246  19686686.83946
      -188.213        -146.651  
 113554792.033    88484254.8384   21608756.180 7  21608755.46745  21608757.51245
     -1826.236       -1423.039  
 109797967.865    85556860.6194   20893855.230 7  20893854.25745  20893855.38445
      1869.760        1456.959  
 116916218.145    91103549.8714   22248416.431 7  22248416.16044  22248415.52444
     -2453.473       -1911.797  
 116214721.414    90556920.9194   22114921.668 6  22114919.31343  22114924.54243
     -1007.870        -785.354  
 114852308.884    89495311.4664   21855665.476 7  21855665.61345  21855667.20345
      2109.012        1643.392  
 126838322.413                    24136528.654 4                                
     -1550.376                  
 121365591.174    94570592.9364   23095102.410 6  23095102.23043  23095102.77243
      3067.668        2390.397  
 08 11 15  1 17 30.0000000  0  9G 6G 3G16G19G23G13G25G21G 7         
 106867523.221    83273400.7584   20336212.479 8  20336211.91745  20336214.71345
     -1131.526        -881.712  
 103460066.099    80618236.4654   19687794.085 8  19687793.45446  19687796.11846
      -200.795        -156.462  
 113609585.342    88526950.9154   21619183.487 8  21619183.14445  21619184.05745
     -1827.139       -1423.748  
 109742026.475    85513269.9364   20883209.807 7  20883208.56645  20883209.58545
      1859.176        1448.709  
 116989949.445    91161002.8384   22262446.892 7  22262446.55144  22262446.43244
     -2462.385       -1918.744  
 116245178.246    90580653.5004   22120718.260 6  22120716.41944  22120721.31244
     -1023.036        -797.181  
 114789131.020    89446081.9704   21843643.440 7  21843643.17145  21843644.77445
      2102.349        1638.191  
 126884988.116                    24145408.170 5                                
     -1561.193                  
 121273579.082    94498895.2494   23077592.254 6  23077591.78144  23077592.98943
      3065.982        2389.067  
 08 11 15  1 18  0.0000000  0  9G 6G 3G16G19G23G13G25G21G 7         
 106901600.421    83299954.4144   20342696.667 8  20342696.57546  20342699.40046
     -1140.696        -888.850  
 103466271.207    80623071.6124   19688975.126 8  19688974.52646  19688976.98246
      -213.283        -166.192  
 113664404.705    88569667.2774   21629615.943 7  21629615.47945  21629615.84945
     -1827.921       -1424.349  
 109686403.221    85469927.1514   20872625.226 7  20872624.47745  20872624.91545
      1848.618        1440.484  
 117063945.775    91218662.3244   22276527.624 7  22276526.92844  22276528.15245
     -2471.115       -1925.548  
 116276088.682    90604739.5444   22126599.999 6  22126598.46744  22126604.25444
     -1038.059        -808.880  
 114726153.839    89397008.8504   21831659.209 7  21831659.22445  21831660.82445
      2095.691        1633.013  
 126931977.550                    24154345.622 6                                
     -1571.873                  
 121181619.582    94427238.5184   23060092.426 6  23060091.29244  23060094.46544
      3064.228        2387.704  
 08 11 15  1 18 30.0000000  0  8G 6G 3G16G19G23G13G25G 7            
 106935967.995    83326734.3464   20349236.941 8  20349236.76945  20349239.12145
     -1150.550        -896.534  
 103472866.018    80628210.4434   19690230.539 8  19690230.03846  19690231.75346
      -226.461        -176.464  
 113719263.964    88612414.7434   21640055.100 8  21640054.84445  21640054.91745
     -1829.452       -1425.544  
 109631113.257    85426844.0874   20862104.117 7  20862103.42846  20862104.16346
      1837.285        1431.654  
 117138218.721    91276537.3304   22290661.526 7  22290660.75544  22290661.46845
     -2480.493       -1932.852  
 116307465.126    90629188.7204   22132572.099 6  22132570.60744  22132574.47244
     -1053.775        -821.122  
 114663393.835    89348104.9604   21819716.398 7  21819715.96945  21819718.03045
      2088.223        1627.186  
 121089729.652    94355635.9914   23042606.542 6  23042605.64544  23042608.57944
      3061.666        2385.715  
 08 11 15  1 19  0.0000000  0 10G 6G 3G16G19G23G13G25G21G 7G27      
 106970628.913    83353742.8514   20355832.468 8  20355832.08845  20355834.33345
     -1160.201        -904.052  
 103479854.891    80633656.3154   19691560.482 8  19691559.83346  19691561.63346
      -239.466        -186.597  
 113774167.896    88655197.0184   21650502.031 7  21650501.01745  21650503.27745
     -1830.827       -1426.617  
 109576162.139    85384025.0274   20851647.487 7  20851646.46345  20851647.04245
      1826.111        1422.939  
 117212769.796    91334629.0374   22304848.642 7  22304847.92544  22304848.25745
     -2489.579       -1939.934  
 116339310.960    90654003.6274   22138631.946 7  22138632.02444  22138635.25844
     -1069.282        -833.202  
 114600858.074    89299375.8014   21807816.075 7  21807816.13445  21807817.86345
      2080.818        1621.416  
 127027213.713                    24172474.235 4                                
         0.000                  
 120997916.448    94284093.2324   23025135.115 7  23025135.22644  23025137.51944
      3059.200        2383.789  
 128816871.109                    24513032.015 4                                
      3010.973                  
 08 11 15  1 19 30.0000000  0 10G 6G 3G16G19G23G13G25G21G 7G27      
 107005582.166    83380979.1654   20362483.689 7  20362483.16345  20362485.70545
     -1170.207        -911.851  
 103487237.073    80639408.6744   19692964.485 8  19692963.77645  19692967.04345
      -252.855        -197.030  
 113829117.076    88698014.5424   21660958.140 7  21660957.26845  21660959.84445
     -1832.636       -1428.035  
 109521551.456    85341471.2504   20841255.632 7  20841254.66145  20841254.97646
      1814.430        1413.840  
 117287596.452    91392935.4794   22319088.188 7  22319087.81544  22319086.20844
     -2499.027       -1947.295  
 116371624.982    90679183.3594   22144781.978 7  22144782.47244  22144783.62044
     -1085.175        -845.595  
 114538549.269    89250823.4844   21795959.418 7  21795959.52445  21795960.91145
      2072.898        1615.239  
 127075166.917                    24181588.362 4                                
         0.000                  
 120906182.778    94212612.4194   23007678.708 7  23007679.23644  23007681.27444
      3056.178        2381.432  
 128726524.612                    24495839.941 4                                
      3011.940                  
 08 11 15  1 20  0.0000000  0  9G 6G 3G16G19G23G13G25G 7G27         
 107040833.676    83408447.8704   20369192.058 8  20369192.11245  20369194.23045
     -1179.782        -919.311  
 103495019.278    80645472.7274   19694445.509 8  19694444.94546  19694448.11446
      -265.847        -207.150  
 113884118.893    88740873.0684   21671425.486 7  21671425.00145  21671426.69045
     -1834.049       -1429.121  
 109467289.351    85299189.0944   20830929.602 7  20830929.14646  20830929.61246
      1803.126        1405.036  
 117362703.374    91451460.3044   22333379.909 7  22333379.35444  22333378.82144
     -2507.990       -1954.276  
 116404413.356    90704732.7044   22151021.604 7  22151022.73244  22151022.40744
     -1100.611        -857.617  
 114476477.294    89202455.7014   21784147.460 7  21784147.10945  21784149.19545
      2065.321        1609.344  
 120814538.721    94141201.4564   22990239.063 7  22990240.07243  22990241.95543
      3053.493        2379.351  
 128636147.034                    24478638.774 4                                
      3013.354                  
 08 11 15  1 20 30.0000000  0  9G 6G 3G16G19G23G13G25G 7G27         
 107076382.244    83436148.0574   20375956.735 8  20375956.54145  20375958.94045
     -1190.118        -927.369  
 103503200.949    80651848.0604   19696002.495 8  19696002.11746  19696004.79446
      -279.601        -217.875  
 113939173.591    88783772.8054   21681902.826 8  21681902.55345  21681903.83045
     -1836.270       -1430.859  
 109413377.150    85257179.5934   20820669.869 7  20820668.97546  20820670.72346
      1790.991        1395.581  
 117438087.729    91510201.3234   22347724.895 7  22347724.97144  22347724.45244
     -2517.642       -1961.795  
 116437674.473    90730650.4114   22157351.247 7  22157353.06844  22157351.79944
     -1116.807        -870.242  
 114414644.863    89154274.5804   21772381.351 7  21772380.85445  21772383.03945
      2056.843        1602.730  
 120722987.406    94069862.7714   22972817.691 6  22972817.55043  22972819.32043
      3049.908        2376.542  
 128545740.744                    24461435.999 4                                
      3013.862                  
 08 11 15  1 21  0.0000000  0  9G 6G 3G16G19G23G13G25G 7G27         
 107112233.005    83464083.7074   20382779.111 8  20382778.69945  20382780.89145
     -1200.335        -935.327  
 103511787.852    80658539.1504   19697636.788 8  19697636.18646  19697638.64146
      -293.253        -228.505  
 113994287.889    88826718.9734   21692390.413 8  21692389.96045  21692391.52245
     -1838.412       -1432.530  
 109359822.190    85215448.4544   20810478.712 7  20810477.24846  20810479.43046
      1778.919        1386.171  
 117513753.344    91569161.4984   22362123.307 7  22362122.87244  22362122.82444
     -2527.119       -1969.179  
 116471413.603    90756940.6164   22163771.469 7  22163773.12444  22163772.71844
     -1132.861        -882.746  
 114353060.946    89106287.1134   21760661.999 7  21760661.48245  21760663.77445
      2048.346        1596.112  
 120631538.163    93998603.6204   22955415.098 6  22955414.80044  22955417.33344
      3046.297        2373.750  
 128455314.487                    24444230.284 4                                
      3014.232                  
 08 11 15  1 21 30.0000000  0  9G 6G 3G16G19G23G13G25G 7G27         
 107148395.102    83492261.9644   20389660.006 7  20389659.67145  20389663.04545
     -1210.343        -943.123  
 103520789.235    80665553.2154   19699349.555 8  19699349.15946  19699351.44746
      -306.756        -239.033  
 114049472.340    88869719.8274   21702891.029 7  21702890.44445  21702892.17445
     -1840.450       -1434.109  
 109306636.128    85174004.7714   20800357.887 7  20800356.90245  20800358.40045
      1766.916        1376.818  
 117589707.839    91628346.7724   22376577.016 7  22376576.51844  22376576.56244
     -2536.395       -1976.410  
 116505639.733    90783610.3154   22170284.359 7  22170285.75644  22170285.64144
     -1148.760        -895.131  
 114291738.543    89058503.4324   21748992.791 7  21748992.67945  21748993.79045
      2039.899        1589.536  
 120540204.059    93927434.2074   22938035.609 7  22938035.24644  22938036.74544
      3042.760        2370.972  
 128364881.021   100024578.2434   24427019.260 4  24427016.69141  24427028.06641
      3014.770        2349.186  
 08 11 15  1 22  0.0000000  0 10G 6G 3G16G19G23G13G25G21G 7G27      
 107184852.180    83520670.0704   20396597.352 8  20396596.79045  20396600.33145
     -1220.165        -950.767  
 103530189.676    80672878.2294   19701138.520 8  19701137.84646  19701140.89046
      -320.034        -249.371  
 114104712.430    88912764.0234   21713402.730 7  21713402.02845  21713403.82945
     -1842.298       -1435.554  
 109253805.020    85132837.6764   20790304.476 7  20790303.65546  20790304.43846
      1755.068        1367.586  
 117665933.579    91687743.4114   22391082.595 7  22391082.39644  22391083.14844
     -2545.384       -1983.411  
 116540336.661    90810646.8504   22176887.620 7  22176889.50244  22176888.05044
     -1164.425        -907.343  
 114230665.356    89010913.9494   21737371.113 7  21737371.34545  21737372.05845
      2031.552        1583.026  
 127320496.579                    24228277.677 4                                
         0.000                  
 120448972.685    93856344.8334   22920674.979 7  22920674.92644  22920675.82044
      3039.263        2368.257  
 128274427.808    99954095.2434   24409806.391 4  24409804.73941  24409812.79341
      3015.438        2349.727  
 08 11 15  1 22 30.0000000  0  9G 6G 3G16G19G23G13G25G 7G27         
 107221626.859    83549325.6554   20403595.488 8  20403595.51045  20403598.48545
     -1231.484        -959.594  
 103540012.254    80680532.1834   19703007.423 8  19703006.85346  19703010.11546
      -334.805        -260.887  
 114160032.684    88955870.6804   21723929.679 7  21723929.67845  21723930.76145
     -1845.712       -1438.210  
 109201354.095    85091966.8304   20780323.642 7  20780322.36645  20780323.66345
      1741.665        1357.141  
 117742451.624    91747367.8654   22405643.380 7  22405642.81644  22405643.77344
     -2555.795       -1991.524  
 116575526.898    90838067.7824   22183583.804 7  22183585.03244  22183583.32844
     -1181.569        -920.700  
 114169867.981    88963539.3744   21725801.420 7  21725801.45145  21725802.91245
      2021.595        1575.271  
 120357871.208    93785356.7014   22903338.211 7  22903338.55944  22903339.54444
      3034.156        2364.266  
 128183981.018    99883617.2674   24392595.103 5  24392593.85741  24392599.31241
      3014.437        2348.928  
 08 11 15  1 23  0.0000000  0  9G 6G 3G16G19G23G13G25G 7G27         
 107258723.395    83578232.0404   20410655.270 7  20410654.96646  20410657.02346
     -1241.914        -967.716  
 103550261.885    80688518.9004   19704957.619 8  19704956.89546  19704959.81546
      -348.746        -271.751  
 114215438.448    88999043.9944   21734473.672 7  21734473.17345  21734474.53445
     -1848.272       -1440.212  
 109149289.633    85051397.1374   20770416.128 7  20770414.98346  20770416.12846
      1729.025        1347.293  
 117819264.749    91807222.2464   22420261.068 7  22420260.18344  22420260.70044
     -2565.311       -1998.940  
 116611214.411    90865876.1864   22190374.817 7  22190375.19944  22190374.21444
     -1197.844        -933.390  
 114109354.387    88916385.9104   21714286.575 7  21714286.39745  21714287.47445
      2012.371        1568.085  
 120266908.150    93714476.4024   22886029.065 6  22886028.33444  22886030.22744
      3029.777        2360.865  
 128093548.546    99813150.4134   24375387.106 5  24375386.60141  24375392.13641
      3014.119        2348.676  
 08 11 15  1 23 30.0000000  0 10G 6G 3G16G19G23G13G25G21G 7G27      
 107296143.397    83607390.4834   20417775.736 8  20417775.63245  20417778.13545
     -1252.988        -976.356  
 103560940.730    80696840.0834   19706990.041 8  19706989.68846  19706991.94946
      -363.387        -283.161  
 114270933.167    89042286.6124   21745034.118 8  21745033.85445  21745035.07045
     -1851.596       -1442.809  
 109097615.976    85011131.9514   20760582.973 7  20760582.02446  20760583.10346
      1715.647        1336.866  
 117896373.380    91867306.9014   22434934.242 7  22434934.54944  22434932.80844
     -2575.462       -2006.859  
 116647400.654    90894073.2184   22197259.946 7  22197260.03844  22197260.08644
     -1214.783        -946.592  
 114049130.235    88869458.0004   21702826.356 7  21702826.30945  21702827.23645
      2002.343        1560.259  
 127471950.262                    24257107.852 4                                
     -1701.934                  
 120176089.194    93643708.3984   22868745.755 6  22868745.75443  22868747.82543
      3024.568        2356.810  
 128003135.803    99742698.9424   24358181.529 5  24358181.45441  24358187.96542
      3013.116        2347.871  
 08 11 15  1 24  0.0000000  0  9G 6G 3G16G19G23G13G25G 7G27         
 107333877.778    83636793.8944   20424956.475 8  20424955.92045  20424959.09445
     -1263.228        -984.325  
 103572039.920    80705488.7984   19709102.705 8  19709102.24646  19709104.05746
      -377.151        -293.882  
 114326509.405    89085592.7524   21755610.036 7  21755609.75045  21755610.97145
     -1854.084       -1444.733  
 109046326.220    84971165.9024   20750822.594 7  20750821.39946  20750822.59846
      1703.062        1327.065  
 117973766.908    91927613.5184   22449661.489 6  22449660.64644  22449660.32444
     -2584.670       -2014.023  
 116684076.604    90922651.8574   22204238.478 6  22204238.34644  22204239.63144
     -1230.840        -959.097  
 113989190.202    88822751.4774   21691420.038 8  21691419.99145  21691421.09445
      1993.056        1553.035  
 120085409.383    93573048.8084   22851490.741 7  22851490.90844  22851492.10944
      3020.139        2353.352  
 127912737.460    99672258.6824   24340981.336 6  24340980.54942  24340984.88242
      3012.833        2347.684  
 08 11 15  1 24 30.0000000  0  9G 6G 3G16G19G23G13G25G 7G27         
 107371937.742    83666451.0114   20432199.221 8  20432199.23845  20432201.38746
     -1273.817        -992.591  
 103583571.267    80714474.2584   19711296.917 8  19711296.97846  19711298.72246
      -391.348        -304.950  
 114382179.740    89128972.2204   21766203.179 7  21766202.58545  21766204.79145
     -1857.013       -1447.029  
 108995433.897    84931509.5524   20741137.592 7  20741136.32045  20741138.23345
      1690.020        1316.896  
 118051454.915    91988149.6034   22464444.520 7  22464444.73244  22464444.50744
     -2594.242       -2021.478  
 116721253.032    90951620.4724   22211312.788 6  22211312.68944  22211314.97244
     -1247.298        -971.931  
 113929549.528    88776278.2344   21680070.667 7  21680070.49145  21680071.57645
      1983.242        1545.375  
 119994884.144    93502509.6534   22834264.350 7  22834265.33844  22834265.81244
      3015.127        2349.446  
 127822368.296    99601841.1864   24323784.135 6  24323784.43542  24323788.07942
      3012.029        2347.021  
 08 11 15  1 25  0.0000000  0  9G 6G 3G16G19G23G13G25G 7G27         
 107410321.570    83696360.4804   20439503.481 8  20439503.65245  20439505.46845
     -1284.887       -1001.205  
 103595533.967    80723795.8254   19713573.312 8  19713572.92446  19713575.46246
      -405.963        -316.330  
 114437944.363    89172425.1594   21776814.393 7  21776813.90545  21776816.03045
     -1860.422       -1449.667  
 108944939.528    84892163.3034   20731529.510 7  20731528.50246  20731528.68146
      1676.459        1306.340  
 118129434.410    92048912.8074   22479284.521 6  22479283.85044  22479283.03944
     -2604.162       -2029.216  
 116758928.255    90980977.7584   22218481.468 7  22218480.76144  22218483.71044
     -1264.155        -985.043  
 113870210.485    88730040.0104   21668778.510 7  21668778.18145  21668780.10245
      1972.888        1537.324  
 119904515.926    93432092.8684   22817068.071 7  22817069.22544  22817068.74244
      3009.599        2345.148  
 127732030.507    99531448.1134   24306593.996 6  24306594.08442  24306596.55642
      3010.680        2345.990  
 08 11 15  1 25 30.0000000  0 10G 6G 3G16G19G23G13G25G21G 7G27      
 107449035.525    83726527.1904   20446870.108 8  20446869.88645  20446872.49445
     -1296.339       -1010.135  
 103607934.355    80733458.4554   19715932.737 8  19715932.27046  19715935.17346
      -421.014        -328.061  
 114493810.982    89215957.5654   21787445.688 7  21787444.91645  21787446.87645
     -1864.309       -1452.711  
 108894851.829    84853133.9404   20721997.710 7  20721996.58845  20721997.40345
      1662.439        1295.403  
 118207709.794    92109906.5574   22494179.636 7  22494179.49444  22494178.34144
     -2614.444       -2037.222  
 116797108.007    91010728.1934   22225747.550 6  22225746.88544  22225748.97844
     -1281.425        -998.511  
 113811182.940    88684044.5114   21657546.068 7  21657545.60945  21657547.65945
      1962.007        1528.828  
 127679252.637                    24296556.046                                  
         0.000                  
