     2              OBSERVATION DATA                        RINEX VERSION / TYPE
DAT2RINW 3.10 001   국토지리정보원      10NOV08 23:22:06    PGM / RUN BY / DATE 
(주)범아엔지니어링  국토지리정보원                          OBSERVER / AGENCY   
0220323884          TRIMBLE 5700        Nav 1.24 Sig 1.24   REC # / TYPE / VERS 
012545662           TRM39105.00                             ANT # / TYPE        
----------------------------------------------------------- COMMENT             
Offset from BOTTOM OF ANTENNA to PHASE CENTER is  46.0 mm   COMMENT             
----------------------------------------------------------- COMMENT             
0372                                                        MARKER NAME         
0372                                                        MARKER NUMBER       
 -3062131.6686  4095633.4313  3799066.8095                  APPROX POSITION XYZ 
        0.8020        0.0000        0.0000                  ANTENNA: DELTA H/E/N
*** Above antenna height is from mark to BOTTOM OF ANTENNA. COMMENT             
----------------------------------------------------------- COMMENT             
Note: The above offsets are CORRECTED.                      COMMENT             
Raw Offsets: H=      0.8480 E=      0.0000 N=      0.0000   COMMENT             
----------------------------------------------------------- COMMENT             
     1     1     0                                          WAVELENGTH FACT L1/2
     5    L1    C1    L2    P2    D1                        # / TYPES OF OBSERV 
    15                                                      INTERVAL            
  2008    11     9    23    59   30.000000                  TIME OF FIRST OBS   
  2008    11    10     8    30    0.000000                  TIME OF LAST OBS    
    19                                                      # OF SATELLITES     
     2    12    12    12    12    12                        PRN / # OF OBS      
     3  1179  1180  1171  1172  1179                        PRN / # OF OBS      
     4   495   495   495   495   495                        PRN / # OF OBS      
     6  1002  1003   970   970  1002                        PRN / # OF OBS      
     7  1127  1127  1127  1127  1127                        PRN / # OF OBS      
     8   961   961   961   961   961                        PRN / # OF OBS      
    11  1436  1436  1432  1432  1436                        PRN / # OF OBS      
    13   811   811   799   799   811                        PRN / # OF OBS      
    16   829   829   829   829   829                        PRN / # OF OBS      
    17   831   831   831   831   831                        PRN / # OF OBS      
    19  1512  1512  1512  1512  1512                        PRN / # OF OBS      
    20   889   889   889   889   889                        PRN / # OF OBS      
    21   426   430   416   416   426                        PRN / # OF OBS      
    23   812   812   812   812   812                        PRN / # OF OBS      
    25  1192  1192  1192  1192  1192                        PRN / # OF OBS      
    27  1077  1077  1077  1077  1077                        PRN / # OF OBS      
    28  1081  1081  1081  1081  1081                        PRN / # OF OBS      
    31   387   387   387   387   387                        PRN / # OF OBS      
    32   959   959   959   959   959                        PRN / # OF OBS      
                                                            END OF HEADER       
  08 11 10  0  0  0.0000000  0  7  3  6 13 16 21 23 31
   -539097.61707  21686693.72707   -405039.97848  21686691.85548      3988.54900
   -405917.20707  21155831.40607   -308324.91348  21155830.21948      2995.19200
   -497041.02306  23597484.44506   -363020.81047  23597482.02047      3735.53300
    -61239.26207  20633354.80507    -49992.71649  20633351.73849       451.28200
   -314390.66005  24515569.14805   -237658.52347  24515567.16447      2322.04100
   -316149.40206  21857091.73406   -239586.43048  21857088.26648      2320.75900
     98220.40607  21685827.74207     68906.16648  21685825.34448      -737.13600
 08 11 10  0  0 15.0000000  0  7  3  6 13 16 21 23 31
   -598842.37107  21675324.50007   -451594.32548  21675323.04348      3982.98400
   -450740.39507  21147301.81307   -343252.07248  21147300.14548      2988.21300
   -552983.77006  23586838.65606   -406612.57446  23586836.27746      3729.51600
    -67950.07007  20632077.17207    -55221.92148  20632074.62948       447.38700
   -349150.10505  24508954.71905   -264743.79447  24508952.37147      2317.29600
   -350823.29706  21850493.78106   -266605.04448  21850490.01248      2311.59300
    109350.37107  21687945.78907     77578.85048  21687943.52748      -741.99800
 08 11 10  0  0 30.0000000  0  7  3  6 13 16 21 23 31
   -658502.45307  21663971.53907   -498082.67348  21663970.25048      3977.33900
   -495457.82407  21138792.31307   -378096.81248  21138790.50848      2981.16200
   -608834.98006  23576209.86706   -450132.97147  23576207.94547      3723.41400
    -74601.59807  20630811.81307    -60404.93349  20630808.46549       443.43500
   -383837.22306  24502354.04706   -291772.70047  24502351.05547      2312.47400
   -385358.55107  21843922.03107   -293515.63748  21843918.10248      2302.35000
    120554.14507  21690077.73407     86309.05148  21690075.75048      -746.91800
 08 11 10  0  0 45.0000000  0  7  3  6 13 16 21 23 31
   -718078.83607  21652634.14807   -544505.83548  21652633.43448      3971.75900
   -540070.50807  21130302.43007   -412859.94548  21130301.31648      2974.17900
   -664595.28506  23565599.50806   -493582.58547  23565597.01647      3717.35400
    -81195.13307  20629556.87507    -65542.76248  20629554.14848       439.56900
   -418452.94106  24495766.96106   -318745.95347  24495763.59847      2307.71500
   -419756.00807  21837376.30507   -320318.85848  21837372.34848      2293.16400
    131830.73407  21692223.78107     95095.99248  21692221.35248      -751.77300
 08 11 10  0  1  0.0000000  0  7  3  6 13 16 21 23 31
   -777569.38306  21641313.64106   -590862.09348  21641312.51648      3966.03600
   -584576.40207  21121833.78107   -447539.87048  21121832.15248      2967.06000
   -720262.89506  23555005.62506   -536959.92747  23555004.41047      3711.17400
    -87729.02007  20628313.59407    -70634.10649  20628310.68849       435.59200
   -452995.22306  24489193.95306   -345662.02847  24489190.47747      2302.81900
   -454013.90607  21830857.10207   -347013.33048  21830853.62948      2283.86000
    143181.68806  21694383.85206    103940.88348  21694381.09048      -756.73000
 08 11 10  0  1 15.0000000  0  7  3  6 13 16 21 23 31
   -836973.47306  21630009.29706   -637150.98848  21630008.44548      3960.27300
   -628975.26207  21113384.69507   -482136.37348  21113383.28948      2959.92400
   -775836.74206  23544431.03106   -580264.20747  23544428.60547      3704.92300
    -94203.21107  20627081.81307    -75678.93548  20627078.75448       431.61300
   -487463.57406  24482634.95306   -372520.45547  24482631.68047      2297.89000
   -488131.80107  21824364.79707   -373598.71948  21824360.52048      2274.52600
    154607.26607  21696557.90607    112843.93548  21696555.54748      -761.70500
 08 11 10  0  1 30.0000000  0  7  3  6 13 16 21 23 31
   -896289.39107  21618721.93007   -683371.19248  21618720.90648      3954.39500
   -673265.01607  21104956.75007   -516647.86248  21104955.27348      2952.65000
   -831315.35506  23533873.39106   -623494.31347  23533871.16447      3698.57400
   -100616.08207  20625861.53107    -80675.97748  20625858.52348       427.52500
   -521855.95706  24476089.80506   -399319.66846  24476086.91846      2292.82600
   -522107.68007  21817899.19507   -400073.41948  21817895.31348      2265.05900
    166109.35206  21698746.68806    121806.59548  21698744.53948      -766.80600
 08 11 10  0  1 45.0000000  0  7  3  6 13 16 21 23 31
   -955518.44906  21607451.25006   -729523.67848  21607449.97348      3948.60400
   -717447.11307  21096549.18807   -551075.47748  21096547.92648      2945.47300
   -886700.07806  23523334.76606   -666651.22147  23523332.28947      3692.31500
   -106969.43407  20624652.48407    -85626.65348  20624649.58248       423.55700
   -556173.76206  24469558.81306   -426060.80847  24469557.13747      2287.85400
   -555943.06307  21811460.51607   -426438.66748  21811456.48048      2255.69200
    177686.22307  21700949.80507    130827.52148  21700947.91848      -771.79100
 08 11 10  0  2  0.0000000  0  7  3  6 13 16 21 23 31
  -1014657.55106  21596197.25806   -775606.09648  21596196.27048      3942.60700
   -761518.81607  21088162.46907   -585417.06448  21088161.10248      2938.11400
   -941987.64106  23512813.35206   -709732.43847  23512811.40247      3685.83800
   -113260.79707  20623455.14107    -90529.00849  20623452.48849       419.42400
   -590414.01606  24463043.95306   -452741.50447  24463041.25847      2282.68400
   -589635.06307  21805049.18007   -452692.18048  21805045.00448      2246.13300
    189340.59007  21703167.46907    139908.83848  21703165.39148      -776.95800
 08 11 10  0  2 15.0000000  0  7  3  6 13 16 21 23 31
  -1073707.09807  21584960.70307   -821618.70848  21584959.45748      3936.63600
   -805480.52007  21079796.80507   -619672.93348  21079795.02348      2930.78000
   -997177.99206  23502311.35206   -752737.88747  23502309.46947      3679.35700
   -119490.81307  20622269.62507    -95383.56748  20622267.03548       415.33400
   -624577.06606  24456542.94506   -479362.02347  24456539.70347      2277.53700
   -623183.93407  21798664.92207   -478834.15548  21798660.87148      2236.59100
    201071.82407  21705399.59407    149050.06348  21705397.41048      -782.08200
 08 11 10  0  2 30.0000000  0  7  3  6 13 16 21 23 31
  -1132665.91807  21573741.32007   -867560.65548  21573739.96148      3930.58800
   -849331.06307  21071452.46107   -653842.18248  21071451.08648      2923.37000
  -1052270.13306  23491827.73406   -795666.83347  23491825.71147      3672.80900
   -125658.61307  20621095.97707   -100189.65448  20621093.46148       411.18700
   -658661.77306  24450056.25006   -505921.53346  24450053.17646      2272.31400
   -656588.83207  21792308.35907   -504863.96548  21792304.16448      2226.99300
    212880.94107  21707647.34407    158251.96548  21707644.06348      -787.27400
 08 11 10  0  2 45.0000000  0  7  3  6 13 16 21 23 31
  -1191531.31607  21562539.57807   -913429.79248  21562538.44148      3924.36000
   -893068.03907  21063129.49207   -687922.93848  21063128.13348      2915.79800
  -1107261.17206  23481363.47706   -838516.98547  23481361.02747      3666.06900
   -131762.00807  20619934.60907   -104945.55048  20619931.90648       406.89300
   -692665.53106  24443585.77306   -532417.97646  24443581.91446      2266.91700
   -689847.28107  21785979.32807   -530779.63148  21785975.20348      2217.23000
    224770.17607  21709909.68007    167516.30248  21709907.24648      -792.61600
 08 11 10  0  3  0.0000000  0  7  3  6 13 16 21 23 31
  -1250305.05907  21551355.14807   -959227.50648  21551353.91448      3918.24900
   -936693.12507  21054827.82007   -721916.49848  21054826.73048      2908.33900
  -1162152.74206  23470918.33606   -881289.64747  23470916.34847      3659.43800
   -137803.12507  20618784.72707   -109652.91649  20618782.34449       402.74100
   -726589.93005  24437130.31305   -558852.55147  24437125.90247      2261.62700
   -722960.69507  21779678.26607   -556582.30148  21779673.50048      2207.56100
    236737.60207  21712186.93007    176841.56148  21712184.91448      -797.82800
 08 11 10  0  3 15.0000000  0  7  3  6 13 16 21 23 31
  -1308986.29307  21540188.58607  -1004953.13348  21540187.38748      3912.08200
   -980205.67607  21046547.69507   -755822.37248  21046546.66448      2900.83700
  -1216944.67606  23460490.86706   -923984.65247  23460489.55947      3652.79600
   -143781.62507  20617647.37507   -114311.50048  20617644.54348       398.56700
   -760434.24205  24430689.52305   -585224.71646  24430686.77346      2256.28700
   -755928.65207  21773404.56307   -582271.62348  21773399.59048      2197.86400
    248783.78107  21714479.32807    186228.18848  21714476.91448      -803.07900
 08 11 10  0  3 30.0000000  0  7  3  6 13 16 21 23 31
  -1367574.75407  21529039.70307  -1050606.46448  21529038.67248      3905.89700
  -1023605.44107  21038289.04707   -789640.35748  21038287.37148      2893.31800
  -1271636.00806  23450083.29706   -966601.28247  23450081.41447      3646.08900
   -149697.50807  20616521.57007   -118921.27748  20616518.62948       394.39200
   -794198.11706  24424264.40606   -611534.21046  24424262.22346      2250.92500
   -788750.83207  21767158.70307   -607847.35848  21767153.98048      2188.14500
    260908.92607  21716786.96107    195676.34748  21716783.85948      -808.34300
 08 11 10  0  3 45.0000000  0  7  3  6 13 16 21 23 31
  -1426070.66007  21517908.04707  -1096187.69248  21517906.94948      3899.72700
  -1066892.79307  21030051.36707   -823370.75748  21030050.13348      2885.82300
  -1326226.97706  23439694.80506  -1009139.67247  23439693.03547      3639.39800
   -155551.50007  20615407.86707   -123482.83948  20615404.50448       390.26600
   -827881.86706  24417854.64106   -637781.26947  24417852.48847      2245.58300
   -821427.55507  21760940.64107   -633309.75348  21760935.77748      2178.44800
    273112.35507  21719108.75007    205185.50848  21719106.08648      -813.56200
 08 11 10  0  4  0.0000000  0  7  3  6 13 16 21 23 31
  -1484475.14807  21506794.14807  -1141697.66348  21506793.06648      3893.63300
  -1110068.92607  21021835.52307   -857014.50348  21021833.86348      2878.40900
  -1380718.60906  23429325.67206  -1051600.69547  23429324.35247      3632.77600
   -161344.94907  20614305.40607   -127997.22549  20614302.23449       386.23000
   -861486.46505  24411460.81305   -663966.70047  24411458.48447      2240.30700
   -853960.00007  21754750.32807   -658659.70548  21754745.05148      2168.83000
    285392.66407  21721445.80507    214754.55548  21721443.09048      -818.68700
 08 11 10  0  4 15.0000000  0  7  3  6 13 16 21 23 31
  -1542785.97307  21495698.04707  -1187134.64548  21495696.73048      3887.38800
  -1153131.87107  21013640.98407   -890570.04948  21013639.20748      2870.86300
  -1435108.67606  23418975.10906  -1093982.56547  23418973.71547      3626.00400
   -167076.20707  20613214.72707   -132463.14548  20613211.75448       382.08400
   -895009.77705  24405080.80505   -690088.71846  24405079.02046      2234.88700
   -886346.28507  21748586.94507   -683895.78848  21748582.52748      2159.08600
    297751.71907  21723797.96107    224384.97448  21723795.31648      -823.93700
 08 11 10  0  4 30.0000000  0  7  3  6 13 16 21 23 31
  -1601003.57807  21484619.59407  -1232499.01148  21484618.36748      3881.17400
  -1196081.71907  21005467.93807   -924037.45548  21005466.42248      2863.32300
  -1489397.70306  23408644.60906  -1136285.68947  23408642.83647      3619.26800
   -172745.85507  20612135.64807   -136881.05748  20612132.77348       377.97700
   -928451.80905  24398716.71905   -716147.42746  24398715.34846      2229.46900
   -918586.52007  21742451.94507   -709018.04248  21742447.14848      2149.34900
    310189.25407  21726164.49207    234076.55448  21726161.83648      -829.16900
 08 11 10  0  4 45.0000000  0  7  3  6 13 16 21 23 31
  -1659126.99207  21473559.06307  -1277789.97248  21473557.89548      3874.89400
  -1238917.99207  20997316.48407   -957416.36748  20997314.76248      2855.75200
  -1543584.27006  23398332.88306  -1178508.97347  23398331.87947      3612.43800
   -178353.66007  20611068.58607   -141250.75948  20611065.71948       373.85400
   -961811.97305  24392368.71105   -742142.33346  24392367.46146      2224.01100
   -950680.12107  21736344.59407   -734026.04748  21736340.11348      2139.57300
    322705.52307  21728546.28907    243829.47248  21728544.14148      -834.41800
 08 11 10  0  5  0.0000000  0  7  3  6 13 16 21 23 31
  -1717154.60207  21462516.37507  -1323006.29448  21462515.27748      3868.50700
  -1281639.35907  20989186.99207   -990705.75048  20989185.29748      2848.09100
  -1597667.35906  23388041.53106  -1220651.62347  23388040.02047      3605.53900
   -183898.51207  20610013.13307   -145571.42349  20610010.76649       369.65700
   -995088.77706  24386036.18006   -768072.34147  24386034.70347      2218.45400
   -982625.57407  21730265.75007   -758918.62148  21730260.89148      2129.69700
    335301.70307  21730943.17207    253644.66948  21730941.42248      -839.74500
 08 11 10  0  5 15.0000000  0  7  3  6 13 16 21 23 31
  -1775086.97707  21451492.48407  -1368148.38948  21451490.99648      3862.15800
  -1324246.17207  20981079.00007  -1023905.85848  20981077.35548      2840.45400
  -1651646.87506  23377769.61706  -1262713.57747  23377767.81647      3598.63400
   -189380.98007  20608969.96907   -149843.48748  20608967.68048       365.49800
  -1028282.50806  24379719.64106   -793937.57646  24379717.30546      2212.91500
  -1014423.41007  21724214.64807   -783696.15648  21724210.52348      2119.85600
    347977.32407  21733355.18807    263521.76748  21733353.19948      -845.04100
 08 11 10  0  5 30.0000000  0  8  3  6 13 16 19 21 23 31
  -1832925.67607  21440486.27307  -1413217.50148  21440484.98448      3855.91300
  -1366740.14107  20972992.71107  -1057018.03848  20972991.44548      2832.93100
  -1705524.14106  23367517.23406  -1304695.88247  23367515.37547      3591.81800
   -194803.27707  20607938.01607   -154068.65248  20607935.48448       361.48600
   -172381.98015  24262252.46105   -129802.77356  24262250.79746      4707.92200
  -1061395.09805  24373418.78905   -819739.57346  24373415.73046      2207.50600
  -1046075.52007  21718191.53107   -808360.15048  21718187.07448      2110.14100
    360730.42207  21735781.94507    273459.23948  21735778.78948      -850.20700
 08 11 10  0  5 45.0000000  0  8  3  6 13 16 19 21 23 31
  -1890670.34007  21429498.04707  -1458213.32848  21429496.30948      3849.64400
  -1409120.99607  20964928.06307  -1090042.07548  20964926.60248      2825.39000
  -1759298.58206  23357284.53906  -1346598.02847  23357282.08647      3584.96300
   -200165.21107  20606917.78907   -158246.79348  20606915.04348       357.46200
   -242990.97305  24248816.80505   -184822.71647  24248814.17247      4707.26600
  -1094426.04306  24367133.32806   -845478.02446  24367130.75846      2202.06300
  -1077581.39507  21712196.22707   -832910.17648  21712192.33648      2100.39200
    373561.16407  21738223.90607    283457.21448  21738220.70348      -855.38300
 08 11 10  0  6  0.0000000  0  8  3  6 13 16 19 21 23 31
  -1948321.74607  21418527.14807  -1503136.49848  21418525.88748      3843.42700
  -1451389.71107  20956884.26607  -1122978.73148  20956882.89148      2817.91400
  -1812972.05106  23347070.38306  -1388421.49847  23347068.31647      3578.23100
   -205468.10507  20605908.82007   -162378.91749  20605906.16449       353.52600
   -313578.27305  24235384.18005   -239825.74847  24235382.09047      4705.82000
  -1127376.12105  24360862.52305   -871153.38446  24360860.51646      2196.67200
  -1108942.09007  21706228.39807   -857347.09648  21706224.66848      2090.71300
    386468.48407  21740680.03107    293514.86048  21740677.82448      -860.48800
 08 11 10  0  6 15.0000000  0  8  3  6 13 16 19 21 23 31
  -2005879.17207  21407574.27307  -1547986.43548  21407572.87548      3837.16200
  -1493545.45707  20948861.97707  -1155827.35348  20948861.15648      2810.38300
  -1866543.14106  23336876.74206  -1430165.20647  23336874.07047      3571.40600
   -210711.47707  20604910.93007   -166464.66448  20604908.50848       349.55800
   -384143.05105  24221956.13305   -294811.25546  24221953.39146      4704.31800
  -1160244.56304  24354608.31304   -896765.15946  24354605.48446      2191.22900
  -1140156.85507  21700288.49207   -881670.29648  21700284.80148      2080.98400
    399452.96107  21743150.57807    303632.63748  21743148.47748      -865.63200
 08 11 10  0  6 30.0000000  0  8  3  6 13 16 19 21 23 31
  -2063341.74207  21396639.81307  -1592762.45148  21396637.94148      3830.83800
  -1535587.63307  20940861.88307  -1188587.49248  20940860.43848      2802.81200
  -1920011.04706  23326701.57006  -1471828.50547  23326699.37147      3564.52700
   -215894.86307  20603924.78907   -170503.68548  20603921.95348       345.55900
   -454684.27005  24208531.95305   -349778.42346  24208529.70346      4702.74800
  -1193030.54705  24348369.65605   -922312.68846  24348366.57846      2185.73200
  -1171224.96507  21694376.63307   -905879.21948  21694372.26248      2071.20700
    412515.10207  21745636.54707    313810.90448  21745633.68448      -870.80900
 08 11 10  0  6 45.0000000  0  8  3  6 13 16 19 21 23 31
  -2120709.59807  21385722.65607  -1637464.66648  21385721.25448      3824.52400
  -1577516.44107  20932882.80507  -1221259.28548  20932881.59048      2795.25400
  -1973375.83206  23316546.71906  -1513411.45447  23316543.96147      3557.65200
   -221018.78107  20602949.88307   -174496.34248  20602946.89148       341.59500
   -525202.16406  24195113.31306   -404727.38447  24195110.29347      4701.19300
  -1225734.16405  24342145.75005   -947795.99046  24342144.11746      2180.24100
  -1202146.69107  21688492.16407   -929974.07548  21688488.29748      2061.44800
    425654.54307  21748136.57007    324049.42848  21748134.06648      -875.96300
 08 11 10  0  7  0.0000000  0  8  3  6 13 16 19 21 23 31
  -2177982.20707  21374824.38307  -1682092.66848  21374822.55148      3818.17400
  -1619331.46507  20924925.70307  -1253842.41948  20924924.69148      2787.66800
  -2026636.20306  23306411.76606  -1554913.03947  23306408.83247      3550.69100
   -226083.26207  20601985.85207   -178442.69649  20601982.85249       337.63200
   -595696.19906  24181698.43806   -459657.78347  24181695.96947      4699.60200
  -1258354.96505  24335937.64105   -973214.80446  24335936.87546      2174.72000
  -1232921.50807  21682636.07007   -953954.46548  21682632.02048      2051.65400
    438871.52707  21750651.51607    334348.36548  21750648.97748      -881.13200
 08 11 10  0  7 15.0000000  0  8  3  6 13 16 19 21 23 31
  -2235159.04307  21363943.75807  -1726646.02848  21363942.10948      3811.78900
  -1661032.27707  20916990.79707  -1286336.54948  20916989.22748      2780.05400
  -2079792.34806  23296296.83606  -1596333.43247  23296294.08247      3543.74300
   -231088.05507  20601033.55507   -182342.53248  20601030.80148       333.65300
   -666165.72706  24168288.79706   -514569.05647  24168286.10547      4697.96800
  -1290892.30905  24329746.65605   -998568.52146  24329745.72746      2169.15600
  -1263549.13307  21676807.83607   -977820.14848  21676803.55948      2041.84200
    452166.29307  21753181.81307    344707.90648  21753179.38348      -886.31800
 08 11 10  0  7 30.0000000  0  8  3  6 13 16 19 21 23 31
  -2292239.14807  21353081.80507  -1771124.03148  21353080.37148      3805.34000
  -1702617.99607  20909077.07807  -1318741.00648  20909075.69548      2772.38100
  -2132843.00006  23286201.50006  -1637671.58647  23286198.97347      3536.71000
   -236032.56607  20600092.65607   -186195.41048  20600089.61348       329.63400
   -736609.77706  24154883.71106   -569460.48147  24154881.48047      4696.27000
  -1323345.19105  24323571.30505  -1023856.52846  24323569.20746      2163.52600
  -1294028.49607  21671007.66407  -1001570.31548  21671003.82448      2031.95800
    465539.48007  21755726.78907    355128.55748  21755724.10248      -891.54600
 08 11 10  0  7 45.0000000  0  8  3  6 13 16 19 21 23 31
  -2349222.79707  21342237.96107  -1815526.86748  21342236.63348      3798.91000
  -1744089.07807  20901185.52307  -1351056.12648  20901184.00848      2764.73900
  -2185787.57806  23276126.00006  -1678927.09247  23276124.43447      3529.63900
   -240917.49207  20599162.97707   -190001.84148  20599159.94548       325.66200
   -807028.64105  24141483.26605   -624332.28147  24141480.94947      4694.59100
  -1355714.18405  24317411.56305  -1049079.04746  24317409.30146      2157.93300
  -1324360.16007  21665235.99207  -1025205.37148  21665231.82848      2022.11100
    478990.66807  21758286.56307    365610.01448  21758283.73848      -896.74600
 08 11 10  0  8  0.0000000  0  8  3  6 13 16 19 21 23 31
  -2406109.21107  21331413.05507  -1859853.93648  21331411.82848      3792.42800
  -1785444.84407  20893315.80507  -1383281.40848  20893314.36748      2757.05100
  -2238626.06606  23266071.29706  -1720099.92147  23266068.96547      3522.56600
   -245742.31307  20598244.98407   -193761.44549  20598241.79749       321.65500
   -877421.36706  24128087.58606   -679183.73747  24128085.93047      4692.84800
  -1387998.37505  24311268.03105  -1074235.56146  24311265.92246      2152.27900
  -1354543.35507  21659492.09407  -1048724.74848  21659488.01648      2012.21300
    492520.30507  21760861.25807    376152.57248  21760858.69548      -901.97600
 08 11 10  0  8 15.0000000  0  8  3  6 13 16 19 21 23 31
  -2462894.85906  21320606.69506  -1904102.48748  21320605.87948      3785.71000
  -1826681.73807  20885468.89807  -1415414.04948  20885467.29748      2749.12600
  -2291354.73406  23256037.68806  -1761187.19847  23256034.77047      3515.24500
   -250504.05507  20597338.81307   -197471.89048  20597336.23448       317.44900
   -947784.53906  24114698.15606   -734012.13947  24114696.05547      4690.87800
  -1420194.10205  24305141.36705  -1099323.14546  24305138.69546      2146.38200
  -1384574.68007  21653777.01607  -1072125.78948  21653772.89848      2002.08800
    506131.69907  21763451.10207    386758.85048  21763449.39848      -907.42600
 08 11 10  0  8 30.0000000  0  8  3  6 13 16 19 21 23 31
  -2519579.42607  21309820.44507  -1948272.26848  21309818.72348      3778.97100
  -1867799.72307  20877644.05507  -1447454.04248  20877642.66048      2741.19900
  -2343973.44106  23246024.67206  -1802188.79447  23246021.06347      3507.91400
   -255202.68007  20596444.70307   -201133.16148  20596442.04348       313.24200
  -1018117.69906  24101314.97706   -788817.16147  24101311.94947      4688.87700
  -1452301.09405  24299031.91405  -1124341.59046  24299028.83646      2140.46600
  -1414453.98807  21648091.61707  -1095408.37348  21648087.07848      1991.95400
    519824.72707  21766056.85207    397428.71848  21766055.42648      -912.86800
 08 11 10  0  8 45.0000000  0  8  3  6 13 16 19 21 23 31
  -2576164.45707  21299052.28107  -1992364.50448  21299051.23448      3772.33500
  -1908800.32807  20869841.89807  -1479402.55448  20869840.21948      2733.37400
  -2396483.48806  23236032.21906  -1843105.70147  23236029.64847      3500.67000
   -259840.10207  20595561.95307   -204746.73748  20595559.37548       309.16100
  -1088422.33605  24087936.01605   -843599.93547  24087933.70747      4686.97600
  -1484320.97305  24292938.55505  -1149292.12546  24292935.47346      2134.65900
  -1444182.88307  21642434.14807  -1118573.74548  21642430.01248      1981.92600
    533597.59007  21768677.95307    408160.81148  21768675.68048      -918.19100
 08 11 10  0  9  0.0000000  0  8  3  6 13 16 19 21 23 31
  -2632649.43407  21288303.97707  -2036378.77048  21288302.87948      3765.66500
  -1949683.27007  20862061.94507  -1511259.38248  20862060.70348      2725.52900
  -2448884.25806  23226060.42206  -1883937.47847  23226058.07847      3493.38500
   -264416.34007  20594691.38307   -208312.65349  20594688.84849       305.08300
  -1158697.70705  24074563.00805   -898359.93747  24074560.27047      4685.02500
  -1516253.10505  24286862.15605  -1174174.27446  24286859.15646      2128.80900
  -1473761.03907  21636805.66407  -1141621.67948  21636802.02348      1971.87700
    547450.73807  21771314.26607    418955.45148  21771311.27348      -923.54300
 08 11 10  0  9 15.0000000  0  8  3  6 13 16 19 21 23 31
  -2689032.45707  21277574.49207  -2080313.58048  21277573.14148      3758.86800
  -1990446.78907  20854304.96107  -1543023.15448  20854303.38748      2717.56800
  -2501174.02306  23216110.10206  -1924682.75347  23216107.55547      3485.98400
   -268929.87507  20593832.32007   -211829.69048  20593829.83248       300.90200
  -1228942.19105  24061195.64105   -953095.84347  24061193.48447      4682.96600
  -1548095.72305  24280802.16405  -1198986.65946  24280799.37946      2122.84100
  -1503186.72707  21631206.35207  -1164550.77248  21631202.57848      1961.71300
    561385.54307  21773965.92207    429813.75148  21773963.06348      -928.98700
 08 11 10  0  9 30.0000000  0  8  3  6 13 16 19 21 23 31
  -2745313.77306  21266864.20306  -2124169.15048  21266863.53548      3752.08800
  -2031091.12507  20846570.78907  -1574694.05748  20846569.34848      2709.62200
  -2553353.03106  23206180.56306  -1965341.72247  23206177.97747      3478.60100
   -273381.15207  20592985.28907   -215298.22248  20592982.71548       296.75200
  -1299155.86305  24047834.28105  -1007807.79647  24047832.41047      4680.91100
  -1579849.14505  24274759.69505  -1223729.58245  24274755.96145      2116.89500
  -1532460.10207  21625635.42207  -1187361.20048  21625631.78948      1951.55800
    575401.69107  21776633.00007    440735.42048  21776630.21948      -934.41000
 08 11 10  0  9 45.0000000  0  8  3  6 13 16 19 21 23 31
  -2801492.81607  21256174.10207  -2167945.02248  21256172.99648      3745.27000
  -2071615.82407  20838858.96107  -1606271.74048  20838857.77748      2701.64700
  -2605419.86306  23196272.13306  -2005913.25646  23196270.13746      3471.12200
   -277770.21107  20592150.17207   -218718.26148  20592147.51248       292.60400
  -1369338.18806  24034478.95306  -1062495.27447  24034476.76647      4678.82200
  -1611512.68005  24268734.28905  -1248402.42045  24268729.55545      2110.90200
  -1561580.89507  21620094.32007  -1210052.74048  21620089.64148      1941.38600
    589499.44107  21779315.85907    451720.66248  21779313.25448      -939.85000
 08 11 10  0 10  0.0000000  0  8  3  6 13 16 19 21 23 31
  -2857569.64507  21245503.26607  -2211641.24748  21245502.14548      3738.45500
  -2112020.91407  20831170.17207  -1637756.22248  20831168.66448      2693.67300
  -2657374.80906  23186385.89806  -2046397.64447  23186382.73847      3463.66300
   -282097.26607  20591326.60207   -222089.99048  20591324.22348       288.47000
  -1439489.10206  24021129.87506  -1117158.31547  24021127.75447      4676.72800
  -1643086.17605  24262726.10905  -1273005.15245  24262721.05545      2104.90000
  -1590549.09407  21614581.77307  -1232625.37048  21614577.60948      1931.21300
    603678.57807  21782014.07007    462769.32148  21782011.58648      -945.27600
 08 11 10  0 10 15.0000000  0  8  3  6 13 16 19 21 23 31
  -2913543.30907  21234851.82807  -2255257.08948  21234850.16048      3731.57800
  -2152305.89807  20823504.32807  -1669147.12248  20823503.29348      2685.66600
  -2709217.51606  23176520.43806  -2086794.54547  23176517.64547      3456.18000
   -286362.00407  20590515.35907   -225413.16948  20590512.47748       284.31600
  -1509607.80906  24007786.74206  -1171796.22847  24007784.70347      4674.58000
  -1674569.13305  24256735.09405  -1297537.26846  24256731.43446      2098.86400
  -1619363.99207  21609098.05507  -1255078.53248  21609094.30148      1920.99300
    617939.60207  21784727.61707    473881.79048  21784725.22748      -950.73500
 08 11 10  0 10 30.0000000  0  8  3  6 13 16 19 21 23 31
  -2969414.40207  21224219.75007  -2298792.99948  21224218.46948      3724.74000
  -2192471.24207  20815860.95307  -1700444.78148  20815859.45748      2677.69000
  -2760947.86706  23166676.36706  -2127103.92846  23166673.67246      3448.69000
   -290565.19907  20589715.47707   -228688.40348  20589712.22748       280.21300
  -1579694.85205  23994449.09405  -1226409.48247  23994447.08647      4672.47000
  -1705961.84806  24250762.21906  -1321999.14146  24250756.98046      2092.84800
  -1648026.23807  21603644.06307  -1277412.76448  21603640.29348      1910.81600
    632281.73407  21787457.18807    485057.46248  21787454.70348      -956.14200
 08 11 10  0 10 45.0000000  0  8  3  6 13 16 19 21 23 31
  -3025183.07407  21213607.39107  -2342249.10948  21213606.26248      3717.91100
  -2232517.33607  20808240.46907  -1731649.52548  20808239.18448      2669.74000
  -2812566.34006  23156853.90606  -2167326.09746  23156851.31346      3441.23200
   -294707.39107  20588927.07007   -231916.07748  20588923.96948       276.14600
  -1649750.18405  23981118.54705  -1280998.00047  23981116.52747      4670.35500
  -1737264.68805  24244805.28105  -1346390.95146  24244800.19146      2086.85600
  -1676536.18807  21598218.84407  -1299628.30948  21598214.81648      1900.66300
    646704.50807  21790201.54707    496295.99348  21790198.91048      -961.51800
 08 11 10  0 11  0.0000000  0  8  3  6 13 16 19 21 23 31
  -3080848.20307  21203014.36707  -2385624.54548  21203013.50448      3711.00900
  -2272443.03907  20800642.82007  -1762760.46148  20800641.69548      2661.71400
  -2864071.36706  23147052.90606  -2207459.88947  23147050.50447      3433.66800
   -298787.75007  20588150.53907   -235095.58648  20588147.78148       272.02400
  -1719772.37105  23967793.86705  -1335560.73947  23967790.86747      4668.14600
  -1768476.45305  24238865.50005  -1370711.75346  24238862.48046      2080.78400
  -1704892.73007  21592822.88307  -1321724.31548  21592819.00048      1890.43600
    661208.92607  21792961.08607    507598.14248  21792959.05148      -966.96100
 08 11 10  0 11 15.0000000  0  8  3  6 13 16 19 21 23 31
  -3136410.34407  21192441.39807  -2428919.71448  21192440.41048      3704.14300
  -2312249.00407  20793068.21907  -1793778.08348  20793066.91048      2653.73100
  -2915463.21506  23137273.01606  -2247505.47746  23137271.05146      3426.12300
   -302807.13307  20587385.70307   -238227.56848  20587383.23848       267.95900
  -1789761.89805  23954475.08605  -1390097.98447  23954472.97747      4665.96800
  -1799597.48005  24232943.41405  -1394961.94646  24232940.90646      2074.73500
  -1733096.38307  21587455.79707  -1343701.18748  21587451.49248      1880.24300
    675794.20307  21795736.46907    518963.28648  21795734.93448      -972.35200
 08 11 10  0 11 30.0000000  0  8  3  6 13 16 19 21 23 31
  -3191868.23407  21181888.22707  -2472133.65548  21181886.18448      3697.19300
  -2351934.20707  20785515.93807  -1824701.61948  20785515.01648      2645.68000
  -2966740.96106  23127515.43806  -2287462.19146  23127512.89146      3418.51600
   -306764.92207  20586632.75807   -241311.56648  20586629.89148       263.85300
  -1859717.82805  23941163.17205  -1444609.11747  23941159.91447      4663.72900
  -1830626.66805  24227038.63305  -1419140.50446  24227036.38346      2068.61300
  -1761146.30907  21582118.30507  -1365558.28348  21582113.57448      1869.99500
    690461.11707  21798527.89107    530392.02248  21798525.61348      -977.79400
 08 11 10  0 11 45.0000000  0  8  3  6 13 16 19 21 23 31
  -3247222.85907  21171354.19507  -2515267.14048  21171352.74248      3690.30800
  -2391499.50807  20777987.14807  -1855531.71348  20777986.28948      2637.68700
  -3017905.48006  23117779.09406  -2327330.64446  23117776.51646      3410.96800
   -310662.21907  20585890.89807   -244348.41648  20585888.43848       259.82000
  -1929640.79305  23927856.84405  -1499094.50547  23927854.75047      4661.53100
  -1861565.05905  24221151.34405  -1443248.29546  24221149.62146      2062.55900
  -1789043.29307  21576809.42207  -1387296.19248  21576804.82848      1859.79900
    705208.61707  21801334.39107    541883.58648  21801331.84848      -983.16700
 08 11 10  0 12  0.0000000  0  8  3  6 13 16 19 21 23 31
  -3302473.50007  21160840.44507  -2558319.56848  21160838.78148      3683.37600
  -2430944.60907  20770480.92207  -1886268.15848  20770479.77348      2629.67300
  -3068956.07806  23108064.47706  -2367110.31347  23108062.17247      3403.37300
   -314498.94107  20585160.94507   -247338.08048  20585158.30548       255.78200
  -1999530.29705  23914557.00805  -1553553.84047  23914555.09047      4659.30000
  -1892411.94105  24215281.26605  -1467284.86446  24215278.89546      2056.45900
  -1816787.05507  21571529.86707  -1408914.73048  21571525.30548      1849.58400
    720037.10907  21804156.11707    553438.23348  21804153.91848      -988.56600
 08 11 10  0 12 15.0000000  0  8  3  6 13 16 19 21 23 31
  -3357619.35207  21150346.19507  -2601290.35748  21150345.05548      3676.39000
  -2470268.69107  20762997.60207  -1916910.27648  20762996.27048      2621.60500
  -3119891.95706  23098371.74206  -2406800.60446  23098369.74646      3395.72500
   -318274.62507  20584442.41407   -250280.16048  20584439.70748       251.71200
  -2069385.33205  23901264.29705  -1607986.29747  23901261.97347      4657.00200
  -1923166.55905  24209428.20305  -1491249.42146  24209426.34046      2050.30800
  -1844376.91007  21566279.82807  -1430413.31448  21566275.63348      1839.32400
    734946.95707  21806993.68007    565056.28648  21806991.23448      -993.99000
 08 11 10  0 12 30.0000000  0  8  3  6 13 16 19 21 23 31
  -3412660.29307  21139872.95307  -2644179.41748  21139871.32048      3669.39600
  -2509472.02307  20755537.68807  -1947458.33148  20755536.39848      2613.55500
  -3170712.78906  23088700.77306  -2446401.25847  23088699.08647      3388.05500
   -321989.60507  20583735.68007   -253174.96348  20583732.53548       247.66500
  -2139205.96104  23887978.03104  -1662391.97347  23887975.66447      4654.70900
  -1953828.58204  24203593.44504  -1515142.01846  24203591.07046      2044.13500
  -1871813.01607  21561058.46907  -1451792.10248  21561054.89848      1829.07400
    749938.01207  21809846.49207    576737.60148  21809843.77748      -999.40400
 08 11 10  0 12 45.0000000  0  8  3  6 13 16 19 21 23 31
  -3467596.26207  21129418.39807  -2686986.64648  21129417.14148      3662.39800
  -2548554.13307  20748100.58607  -1977911.90248  20748099.34848      2605.47400
  -3221417.46506  23079051.62506  -2485911.38146  23079050.25846      3380.31200
   -325643.75407  20583040.29707   -256022.34548  20583037.32448       243.61000
  -2208991.73005  23874698.35905  -1716770.49147  23874695.30147      4652.38500
  -1984398.09804  24197775.76604  -1538962.31746  24197773.84046      2037.96800
  -1899094.81607  21555867.20307  -1473050.65048  21555863.57048      1818.78700
    765010.34007  21812714.13307    588482.29148  21812711.66048     -1004.82200
 08 11 10  0 13  0.0000000  0  8  3  6 13 16 19 21 23 31
  -3522428.07007  21118984.39107  -2729712.73948  21118983.10948      3655.45400
  -2587515.95707  20740686.37507  -2008271.78848  20740685.07448      2597.45500
  -3272007.89506  23069425.13306  -2525332.51747  23069423.45347      3372.69500
   -329238.33607  20582355.96907   -258823.32848  20582353.52348       239.63900
  -2278743.18005  23861424.79705  -1771122.25547  23861421.91047      4650.09700
  -2014875.75804  24191976.73404  -1562711.13746  24191972.56646      2031.84400
  -1926223.33207  21550704.83607  -1494189.77148  21550700.93448      1808.56800
    780162.93807  21815597.64807    600289.50048  21815594.58648     -1010.17300
 08 11 10  0 13 15.0000000  0  8  3  6 13 16 19 21 23 31
  -3577154.35207  21108570.21907  -2772356.58148  21108569.16048      3648.41900
  -2626356.53107  20733295.44507  -2038537.15548  20733293.99248      2589.37200
  -3322482.52006  23059819.89106  -2564663.37247  23059818.64847      3364.97500
   -332772.47707  20581683.30507   -261577.19248  20581681.00048       235.60900
  -2348459.28905  23848158.54705  -1825446.43547  23848155.28147      4647.74100
  -2045260.34404  24186194.83604  -1586387.45546  24186190.38346      2025.63900
  -1953197.65607  21545572.20307  -1515208.73148  21545567.71148      1798.28800
    795396.69507  21818495.99207    612159.96348  21818493.75848     -1015.58400
 08 11 10  0 13 30.0000000  0  8  3  6 13 16 19 21 23 31
  -3631773.92607  21098176.63307  -2814917.28848  21098174.99248      3641.30500
  -2665074.88307  20725927.69507  -2068707.30248  20725926.00848      2581.22300
  -3372840.23806  23050237.61706  -2603903.16147  23050235.46147      3357.18100
   -336245.50807  20581022.71107   -264283.45948  20581019.78148       231.53500
  -2418139.05505  23834898.67205  -1879742.37147  23834895.69947      4645.31800
  -2075550.85204  24180430.84404  -1609990.41446  24180426.58246      2019.36700
  -1980016.91407  21540468.63307  -1536106.86548  21540464.53148      1787.95100
    810712.45707  21821410.86707    624094.29248  21821408.40648     -1021.05100
 08 11 10  0 13 45.0000000  0  8  3  6 13 16 19 21 23 31
  -3686287.43007  21087803.21107  -2857395.32848  21087801.78948      3634.23400
  -2703671.51607  20718582.95307  -2098782.60148  20718581.20748      2573.10900
  -3423081.19106  23040676.66406  -2643051.94947  23040674.69547      3349.39700
   -339658.30907  20580373.30507   -266942.78648  20580370.43048       227.52000
  -2487782.67205  23821646.23405  -1934010.09047  23821642.84447      4642.90800
  -2105747.70705  24174684.56305  -1633520.42846  24174682.53946      2013.12400
  -2006681.73007  21535394.59407  -1556884.65048  21535390.59448      1777.65400
    826109.39107  21824340.71107    636091.89348  21824338.52748     -1026.46200
 08 11 10  0 14  0.0000000  0  8  3  6 13 16 19 21 23 31
  -3740696.06307  21077449.31307  -2899791.67248  21077448.20348      3627.24200
  -2742147.93007  20711261.02307  -2128764.22248  20711259.60248      2565.09400
  -3473206.81306  23031137.99206  -2682110.89047  23031136.19147      3341.70800
   -343012.45307  20579735.09407   -269556.41348  20579732.04748       223.61000
  -2557391.42605  23808399.93005  -1988250.67647  23808397.14547      4640.58400
  -2135852.25405  24168955.98405  -1656978.50846  24168954.68446      2006.97000
  -2033193.25807  21530349.52307  -1577542.99948  21530346.19148      1767.43500
    841585.93807  21827285.96907    648151.51648  21827283.06648     -1031.77000
 08 11 10  0 14 15.0000000  0  8  3  6 13 16 19 21 23 31
  -3794998.68407  21067116.03907  -2942105.39248  21067115.23048      3620.17500
  -2780503.22707  20703962.30507  -2158651.45048  20703960.83248      2557.02000
  -3523215.64106  23021622.09406  -2721078.80047  23021620.02747      3333.92200
   -346307.27307  20579108.03907   -272123.80148  20579105.12548       219.65500
  -2626964.36705  23795160.87505  -2042463.35447  23795157.50447      4638.19600
  -2165863.29705  24163245.17205  -1680363.76046  24163244.11746      2000.73600
  -2059550.56607  21525334.00007  -1598081.15848  21525330.66048      1757.15400
    857142.96907  21830246.77307    660273.86748  21830243.38348     -1037.13500
 08 11 10  0 14 30.0000000  0  8  3  6 13 16 19 21 23 31
  -3849196.47307  21056802.21907  -2984337.42548  21056801.54348      3613.18600
  -2818738.31307  20696686.15607  -2188445.01748  20696685.02048      2549.00600
  -3573108.88306  23012127.29706  -2759956.65047  23012125.30147      3326.21600
   -349544.12107  20578492.16407   -274646.02348  20578489.41448       215.79000
  -2696502.12105  23781928.05505  -2096648.56247  23781925.66047      4635.85000
  -2195781.75404  24157551.91404  -1703676.79346  24157550.45746      1994.56400
  -2085754.81307  21520347.46107  -1618500.05548  21520343.88748      1746.95000
    872779.30907  21833222.54707    672458.02148  21833219.92248     -1042.42300
 08 11 10  0 14 45.0000000  0  8  3  6 13 16 19 21 23 31
  -3903289.07807  21046508.63307  -3026487.49548  21046507.81648      3606.17400
  -2856853.13307  20689433.15607  -2218144.87248  20689432.05548      2540.98800
  -3622886.12906  23002655.26606  -2798744.09847  23002653.17247      3318.48300
   -352722.92207  20577887.10907   -277123.01548  20577884.53548       211.92000
  -2766004.32405  23768702.28905  -2150806.12247  23768699.45747      4633.48000
  -2225607.26203  24151875.39803  -1726917.43846  24151874.74646      1988.36700
  -2111805.86707  21515390.01607  -1638799.58148  21515386.53548      1736.73700
    888494.76207  21836212.60907    684703.82348  21836210.88748     -1047.69700
 08 11 10  0 15  0.0000000  0  8  3  6 13 16 19 21 23 31
  -3957274.92607  21036236.11707  -3068554.38748  21036234.55948      3599.05700
  -2894846.30107  20682203.38307  -2247749.94548  20682202.10248      2532.87800
  -3672545.68807  22993205.82807  -2837439.87647  22993203.81647      3310.63700
   -355842.66807  20577293.81307   -279553.99249  20577290.94549       207.98300
  -2835469.46905  23755483.11705  -2204934.77147  23755480.88747      4631.01000
  -2255338.68003  24146218.18003  -1750084.78145  24146216.95745      1982.09500
  -2137702.31607  21510461.88307  -1658978.64748  21510458.36748      1726.43000
    904290.84007  21839218.57007    697012.42148  21839216.62148     -1053.07200
 08 11 10  0 15 15.0000000  0  8  3  6 13 16 19 21 23 31
  -4011154.25007  21025982.84407  -3110538.27048  21025982.01248      3591.95500
  -2932717.65207  20674996.63307  -2277260.07648  20674995.62948      2524.75700
  -3722087.55106  22983777.85906  -2876043.88947  22983776.43847      3302.79100
   -358903.67607  20576711.15607   -281939.19648  20576708.43848       204.06700
  -2904897.53905  23742271.36705  -2259034.54347  23742269.31347      4628.53800
  -2284976.02304  24140578.66404  -1773178.77345  24140577.00445      1975.82300
  -2163444.32807  21505563.57807  -1679037.36448  21505559.57448      1716.13400
    920167.25007  21842240.15607    709383.64648  21842237.35548     -1058.42700
 08 11 10  0 15 30.0000000  0  8  3  6 13 16 19 21 23 31
  -4064926.51207  21015750.28107  -3152438.73148  21015749.10548      3584.81700
  -2970467.47707  20667813.20307  -2306675.51448  20667811.77048      2516.65500
  -3771511.41806  22974372.74206  -2914556.01147  22974371.77747      3294.92400
   -361906.17207  20576139.73407   -284278.82349  20576137.02049       200.16600
  -2974288.39506  23729066.56306  -2313105.33047  23729064.45347      4626.05700
  -2314518.94502  24134955.68002  -1796199.24645  24134954.75445      1969.52800
  -2189031.88307  21500694.56307  -1698975.71648  21500690.52048      1705.83700
    936123.87907  21845276.43807    721817.37648  21845273.53548     -1063.77500
 08 11 10  0 15 45.0000000  0  8  3  6 13 16 19 21 23 31
  -4118591.37107  21005538.17207  -3194255.49648  21005536.99248      3577.65700
  -3008095.22707  20660652.66407  -2335995.84348  20660651.54748      2508.51700
  -3820816.65606  22964990.45306  -2952975.66347  22964988.98047      3287.01600
   -364849.88707  20575579.37507   -286572.61848  20575576.71148       196.24800
  -3043641.28504  23715868.72704  -2367146.49747  23715866.88747      4623.52600
  -2343966.78903  24129352.97703  -1819145.60245  24129351.15245      1963.19000
  -2214464.46507  21495854.77307  -1718793.32248  21495850.70748      1695.50500
    952160.99607  21848328.23407    734313.83348  21848325.13748     -1069.14100
 08 11 10  0 16  0.0000000  0  9  3  6 13 16 19 21 23 25 31
  -4172149.04707  20995346.53107  -3235988.73848  20995345.32448      3570.51200
  -3045601.22307  20653515.72707  -2365221.29749  20653514.53549      2500.40000
  -3870003.48806  22955630.52306  -2991303.07147  22955628.64547      3279.12200
   -367735.50807  20575030.56307   -288821.15448  20575027.68048       192.37500
  -3112956.28905  23702678.34405  -2421158.18947  23702676.60247      4621.00000
  -2373319.85203  24123766.73403  -1842018.04845  24123765.27045      1956.87100
  -2239742.46107  21491044.42207  -1738490.47448  21491040.10548      1685.20000
   -145338.69915  24564646.69505   -110109.45256  24564644.89146      3970.96900
    968278.09007  21851394.83607    746872.60448  21851392.22748     -1074.47300
 08 11 10  0 16 15.0000000  0  9  3  6 13 16 19 21 23 25 31
  -4225599.46507  20985175.36707  -3277638.40548  20985174.32448      3563.36100
  -3082985.43807  20646401.62507  -2394351.84048  20646400.50048      2492.28100
  -3919071.68806  22946293.05506  -3029537.99647  22946292.02347      3271.21300
   -370563.14107  20574492.37507   -291024.49848  20574489.44948       188.50900
  -3182233.31305  23689495.98405  -2475140.26347  23689494.25047      4618.46800
  -2402578.19102  24118198.22702  -1864816.72745  24118197.09445      1950.55600
  -2264866.00807  21486263.62507  -1758067.26548  21486258.84048      1674.90300
   -204902.62105  24553312.02305   -156522.87446  24553310.01646      3970.92800
    984475.06307  21854477.04707    759493.61048  21854474.44948     -1079.79800
 08 11 10  0 16 30.0000000  0  9  3  6 13 16 19 21 23 25 31
  -4278944.97307  20975024.21107  -3319206.33148  20975023.19148      3556.36700
  -3120250.54307  20639310.49207  -2423389.57648  20639309.21948      2484.34000
  -3968023.64506  22936977.87506  -3067682.38947  22936976.47747      3263.46400
   -373335.80907  20573964.66407   -293185.03348  20573962.01648       184.84500
  -3251474.93405  23676319.76605  -2529094.74847  23676317.52747      4616.10800
  -2431744.08603  24112649.96903  -1887543.44845  24112647.24245      1944.39300
  -2289837.66407  21481511.55507  -1777525.71048  21481506.96148      1664.77700
   -264469.46905  24541977.52305   -202938.59146  24541975.07046      3971.12300
   1000749.14107  21857574.00007    772174.69948  21857571.81348     -1084.93900
 08 11 10  0 16 45.0000000  0  9  3  6 13 16 19 21 23 25 31
  -4332184.96907  20964892.81307  -3360692.03748  20964891.70348      3549.33300
  -3157396.15207  20632241.96107  -2452334.20448  20632240.78148      2476.37400
  -4016858.81307  22927684.82007  -3105735.76447  22927683.32847      3255.67800
   -376053.01607  20573447.98407   -295302.34248  20573444.86748       181.14700
  -3320680.32005  23663150.78105  -2583021.04147  23663148.64847      4613.69200
  -2460816.95704  24107117.75804  -1910197.62345  24107114.41845      1938.19100
  -2314656.82407  21476788.71107  -1796865.32048  21476784.02348      1654.61100
   -324038.64805  24530641.35905   -249356.13146  24530639.30946      3971.27900
   1017100.55507  21860685.20307    784916.03848  21860683.80148     -1090.09400
 08 11 10  0 17  0.0000000  0  9  3  6 13 16 19 21 23 25 31
  -4385320.02307  20954781.47707  -3402095.97748  20954780.53948      3542.33700
  -3194422.81307  20625196.01607  -2481186.13549  20625194.90649      2468.44400
  -4065577.57806  22918413.84406  -3143698.44147  22918412.48447      3247.91800
   -378715.69907  20572940.96907   -297377.15248  20572938.38348       177.51200
  -3389849.87505  23649988.20305  -2636919.33347  23649985.65647      4611.30400
  -2489797.43004  24101603.36704  -1932779.86245  24101599.34445      1932.03200
  -2339324.31307  21472094.70307  -1816086.74748  21472089.91848      1644.49900
   -383610.66405  24519304.64805   -295775.84946  24519303.26646      3971.46800
   1033528.46507  21863811.46907    797716.97848  21863810.09448     -1095.19400
 08 11 10  0 17 15.0000000  0  9  3  6 13 16 19 21 23 25 31
  -4438348.28907  20944690.55507  -3443416.69348  20944689.19548      3535.21800
  -3231328.73807  20618172.77307  -2509943.99348  20618171.52048      2460.39500
  -4114177.94906  22909165.50806  -3181568.84047  22909163.80947      3240.02500
   -381322.45307  20572444.73407   -299408.39048  20572441.98048       173.78400
  -3458981.76205  23636832.44505  -2690788.31347  23636830.01647      4608.79200
  -2518683.66804  24096105.63304  -1955288.59045  24096101.59045      1925.74900
  -2363838.43807  21467429.57807  -1835188.67248  21467424.92248      1634.27500
   -443183.87905  24507968.39805   -342196.49846  24507966.97346      3971.54800
   1050034.68807  21866952.71107    810578.96748  21866950.56348     -1100.41500
 08 11 10  0 17 30.0000000  0  9  3  6 13 16 19 21 23 25 31
  -4491268.44107  20934620.11707  -3484653.18048  20934618.95348      3528.01000
  -3268112.79307  20611173.06307  -2538606.90749  20611172.02349      2452.27000
  -4162658.62106  22899939.79706  -3219345.98147  22899938.37547      3232.04500
   -383872.25407  20571959.85207   -301395.24848  20571956.77748       169.98700
  -3528074.57005  23623684.56305  -2744626.85347  23623682.28547      4606.18700
  -2547474.13304  24090626.84404  -1977722.72745  24090622.84845      1919.36400
  -2388197.89807  21462794.43807  -1854170.08748  21462789.87548      1623.96400
   -502756.90205  24496632.52305   -388617.01846  24496630.51646      3971.53500
   1066620.30907  21870109.04707    823502.81248  21870106.08648     -1105.70800
 08 11 10  0 17 45.0000000  0  9  3  6 13 16 19 21 23 25 31
  -4544080.09007  20924570.46107  -3525805.10148  20924569.19548      3520.77700
  -3304774.54707  20604196.76607  -2567174.49348  20604195.24248      2444.11700
  -4211019.04706  22890737.39106  -3257029.42947  22890735.08247      3224.02800
   -386364.78107  20571485.32007   -303337.47948  20571482.51648       166.16800
  -3597127.94105  23610544.53105  -2798434.67647  23610541.39847      4603.55800
  -2576168.45704  24085165.90604  -2000081.96545  24085162.37145      1912.95500
  -2412402.43007  21458188.18807  -1873030.76948  21458184.18448      1613.63500
   -562329.40605  24485295.73405   -435037.16746  24485294.57046      3971.50000
   1083285.40607  21873280.52307    836488.59948  21873277.65248     -1111.00700
 08 11 10  0 18  0.0000000  0  9  3  6 13 16 19 21 23 25 31
  -4596784.94907  20914541.38307  -3566873.82248  20914539.53548      3513.65700
  -3341315.69907  20597242.99207  -2595648.11349  20597241.79349      2436.07700
  -4259260.66006  22881556.94506  -3294620.30947  22881555.16447      3216.10800
   -388802.27007  20571021.53907   -305236.81949  20571018.76649       162.49900
  -3666143.19106  23597410.86706  -2852212.80247  23597408.30547      4601.01700
  -2604768.35503  24079724.26603  -2022367.58645  24079720.02345      1906.66000
  -2436453.73007  21453611.44507  -1891772.04548  21453607.48448      1603.42000
   -621902.96505  24473958.95305   -481458.10346  24473957.52746      3971.57100
   1100028.24207  21876466.28907    849534.96548  21876463.97348     -1116.18900
 08 11 10  0 18 15.0000000  0  9  3  6 13 16 19 21 23 25 31
  -4649380.91807  20904532.36707  -3607857.68048  20904531.13348      3506.39800
  -3377734.78907  20590312.89807  -2624026.61948  20590311.71148      2427.93900
  -4307381.69506  22872400.35206  -3332117.23147  22872398.19547      3208.06900
   -391183.28507  20570568.39807   -307092.15248  20570565.72748       158.73400
  -3735118.54305  23584285.05505  -2905959.79347  23584282.51647      4598.35700
  -2633272.10504  24074300.76604  -2044578.31345  24074295.12545      1900.25000
  -2460350.21907  21449064.53907  -1910392.69648  21449060.05948      1593.09900
   -681475.94105  24462622.71105   -527878.57046  24462621.27346      3971.53200
   1116850.25007  21879667.29707    862643.00848  21879665.27348     -1121.46700
 08 11 10  0 18 30.0000000  0  9  3  6 13 16 19 21 23 25 31
  -4701866.94107  20894544.97707  -3648755.89048  20894542.98048      3499.06800
  -3414030.62107  20583406.05507  -2652309.09449  20583404.60249      2419.72200
  -4355381.04306  22863265.78106  -3369519.31947  22863264.23047      3199.95700
   -393506.82807  20570126.06307   -308902.71249  20570123.80549       154.90300
  -3804052.63706  23571167.85906  -2959674.63347  23571164.54347      4595.60600
  -2661678.32404  24068894.55504  -2066712.98746  24068890.81346      1893.74800
  -2484090.75007  21444546.60907  -1928891.81748  21444542.75448      1582.70200
   -741046.98005  24451286.01605   -574297.54846  24451285.72346      3971.40300
   1133752.41807  21882883.29707    875813.50548  21882881.41048     -1126.81100
 08 11 10  0 18 45.0000000  0  9  3  6 13 16 19 21 23 25 31
  -4754243.69907  20884577.56307  -3689568.94248  20884576.27748      3491.78400
  -3450203.95707  20576522.43807  -2680496.10748  20576521.09048      2411.55600
  -4403259.00806  22854155.12506  -3406826.80547  22854153.06347      3191.86400
   -395773.98007  20569695.07007   -310669.32549  20569692.40249       151.14300
  -3872946.07405  23558058.03105  -3013357.83647  23558054.80947      4592.89600
  -2689987.82804  24063507.84404  -2088772.32846  24063504.73446      1887.30000
  -2507676.18007  21440058.44507  -1947270.07948  21440054.12148      1572.36200
   -800616.94505  24439950.75005   -620715.69946  24439950.24646      3971.33100
   1150733.73407  21886115.03907    889045.68348  21886112.36748     -1132.08800
 08 11 10  0 19  0.0000000  0  9  3  6 13 16 19 21 23 25 31
  -4806510.49207  20874631.53107  -3730296.30548  20874629.77348      3484.45300
  -3486254.41407  20569662.14807  -2708587.36949  20569660.77749      2403.36400
  -4451015.02706  22845067.53106  -3444039.28847  22845065.82847      3183.73500
   -397984.47707  20569274.10907   -312391.79649  20569271.40249       147.36600
  -3941798.35906  23544955.14106  -3067008.94347  23544952.18447      4590.15200
  -2718200.04305  24058139.32805  -2110755.86746  24058136.20746      1880.81400
  -2531106.05907  21435600.21907  -1965527.13748  21435595.82448      1561.99200
   -860185.31605  24428615.90605   -667132.57146  24428614.61746      3971.22500
   1167794.48807  21889361.57807    902339.75348  21889358.53948     -1137.38400
 08 11 10  0 19 15.0000000  0  9  3  6 13 16 19 21 23 25 31
  -4858667.47307  20864706.45307  -3770938.10648  20864704.57448      3477.13200
  -3522181.92607  20562825.25007  -2736582.82148  20562824.28948      2395.16700
  -4498648.96506  22836002.94506  -3481156.63147  22836001.48847      3175.59600
   -400138.63707  20568864.44507   -314070.35748  20568861.59048       143.61100
  -4010609.28905  23531861.17205  -3120627.82747  23531858.03547      4587.39500
  -2746314.99605  24052788.39805  -2132663.61146  24052786.52746      1874.33000
  -2554380.62107  21431170.82007  -1983663.15648  21431167.15248      1551.63800
   -919752.14805  24417279.63305   -713548.25046  24417279.52346      3971.12200
   1184934.57407  21892623.67207    915695.66148  21892621.12148     -1142.67200
 08 11 10  0 19 30.0000000  0  9  3  6 13 16 19 21 23 25 31
  -4910714.78507  20854801.93807  -3811494.46448  20854800.84048      3469.82100
  -3557987.02007  20556012.08607  -2764482.89649  20556010.52349      2387.00600
  -4546161.07406  22826961.74206  -3518179.04547  22826960.10247      3167.47400
   -402236.97707  20568464.93807   -315705.42649  20568462.48449       139.88900
  -4079379.07406  23518775.21906  -3174214.67147  23518772.12147      4584.65200
  -2774332.68405  24047457.01605  -2154495.47946  24047455.40246      1867.84600
  -2577500.25807  21426771.46907  -2001678.47048  21426767.94948      1541.30900
   -979317.59805  24405945.07005   -759962.87747  24405944.92247      3971.03000
   1202153.46507  21895900.27307    929112.97148  21895897.65648     -1147.92600
 08 11 10  0 19 45.0000000  0  9  3  6 13 16 19 21 23 25 31
  -4962650.25807  20844919.07007  -3851963.68048  20844918.05548      3462.36500
  -3593667.55907  20549222.04707  -2792285.90248  20549220.91448      2378.70300
  -4593549.11306  22817944.19506  -3555104.77347  22817942.44947      3159.20300
   -404277.79707  20568076.46907   -317295.68348  20568073.93848       136.05500
  -4148105.42606  23505696.85206  -3227767.65947  23505694.12947      4581.75700
  -2802251.05105  24042144.21905  -2176250.09246  24042143.02046      1861.22400
  -2600462.73407  21422401.70307  -2019571.30448  21422397.64148      1530.83200
  -1038879.60205  24394611.11705   -806374.79046  24394610.09846      3970.80000
   1219453.02707  21899191.89807    942593.14548  21899189.28948     -1153.30400
 08 11 10  0 20  0.0000000  0  9  3  6 13 16 19 21 23 25 31
  -5014475.13307  20835057.13307  -3892346.70748  20835056.01648      3454.99200
  -3629224.74208  20542455.89108  -2819992.79648  20542454.46948      2370.47900
  -4640813.96506  22808949.65606  -3591934.53347  22808947.64147      3150.99000
   -406262.36707  20567699.07007   -318842.10649  20567696.48449       132.30500
  -4216789.15205  23492626.50805  -3281287.44447  23492624.00047      4578.91500
  -2830071.18005  24036850.41405  -2197928.06946  24036849.48046      1854.67500
  -2623269.24207  21418062.14107  -2037342.60948  21418057.95748      1520.43400
